sourceName,targName,ComaInstResult,ComaInstAdjusted,ComaOptResult,ComaOptAdjusted,CupidResult,CupidAdjusted,DistributionBasedResult,DistributionBasedAdjusted,JaccardLevenMatcherResult,JaccardLevenMatcherAdjusted,SimilarityFloodingResult,SimilarityFloodingAdjusted,SmatResult,groundtruth
Fiscal year,miller2_FisY,0.13739681,0.0,0.17174602,0.0,0.6121212121212121,1.0,0.0,0.0,0.0333333333333333,0.0,0.0367917399823898,0.0,1,1
Fiscal year,miller2_IndiIss,0.0,0.0,0.0,0.0,0.02,1.0,0.0,0.0,0.1333333333333333,0.0,0.0350673059989508,0.0,0,0
Fiscal year,miller2_CFLI,0.0,0.0,0.0,0.0,0.02,1.0,0.0,0.0,0.0666666666666666,0.0,0.0367194707724309,0.0,0,0
Fiscal year,miller2_PrograPr,0.0,0.0,0.0,0.0,0.4509277389277389,1.0,0.0,0.0,0.0333333333333333,0.0,0.0377198078489744,0.0,0,0
Fiscal year,miller2_SeID,0.0,0.0,0.0,0.0,0.02,1.0,0.0,0.0,0.2439024390243902,0.0,0.0367194707724309,0.0,0,0
Fiscal year,miller2_UrIss,0.0,0.0,0.0,0.0,0.02,1.0,0.0,0.0,0.1333333333333333,0.0,0.0361228557153408,0.0,0,0
Fiscal year,miller2_ClimChaAdap,0.0,0.0,0.0,0.0,0.02,1.0,0.0,0.0,0.1,0.0,0.0333784264527266,0.0,0,0
Fiscal year,miller2_Sta,0.0,0.0,0.0,0.0,0.5232323232323233,1.0,0.0,0.0,0.1,0.0,0.0374425927719426,0.0,0,0
Fiscal year,miller2_EnviSustai,0.0,0.0,0.0,0.0,0.02,1.0,0.0,0.0,0.1,0.0,0.0337569684199837,0.0,0,0
Fiscal year,miller2_CouRegNa,0.0,0.0,0.0,0.0,0.4438154438154438,1.0,0.0,0.0,0.2068965517241379,0.0,0.0346704420016252,0.0,0,0
Fiscal year,miller2_OrgaNa,0.0,0.0,0.0,0.0,0.4513086913086913,1.0,0.0,0.0,0.0884955752212389,0.0,0.0356462390727769,0.0,0,0
Fiscal year,miller2_FuCenNa,0.0,0.0,0.0,0.0,0.4475191475191475,1.0,0.0,0.0,0.5769230769230769,0.0,0.0351395752089097,0.0,0,0
Fiscal year,miller2_PBATy,0.0,0.0,0.0,0.0,0.4646420246420246,1.0,0.0,0.0,0.0333333333333333,0.0,0.0361951249252998,0.0,0,0
Fiscal year,miller2_ClChMit,0.0,0.0,0.0,0.0,0.02,1.0,0.0,0.0,0.1333333333333333,0.0,0.0350673059989508,0.0,0,0
Fiscal year,miller2_IRTCPer,0.0,0.0,0.0,0.0,0.0333333333333333,1.0,0.0,0.0,0.1,0.0,0.0350193521993053,0.0,0,0
Fiscal year,miller2_OrgaT,0.0,0.0,0.0,0.0,0.456993006993007,1.0,0.0,0.0,0.1333333333333333,0.0,0.0361951249252998,0.0,0,0
Fiscal year,miller2_MaxCIDAContr,0.0,0.0,0.0,0.0,0.0333333333333333,1.0,0.0,0.0,0.0583657587548638,0.0,0.0356322520346286,0.0,0,0
Fiscal year,miller2_UntAmoProBud,0.0,0.0,0.0,0.0,0.0333333333333333,1.0,0.0,0.0,0.0691244239631336,0.0,0.0329763527482277,0.0,0,0
Fiscal year,miller2_DivID,0.0,0.0,0.0,0.0,0.4468642468642469,1.0,0.0,0.0,0.4333333333333333,0.0,0.0361951249252998,0.0,0,0
Fiscal year,miller2_SecPer,0.0,0.0,0.0,0.0,0.0333333333333333,1.0,0.0,0.0,0.1621621621621621,0.0,0.0355260160631726,0.0,0,0
Fiscal year,miller2_FSTCPe,0.0,0.0,0.0,0.0,0.0333333333333333,1.0,0.0,0.0,0.6122448979591837,0.0,0.0355260160631726,0.0,0,0
Fiscal year,Section ID,0.0,0.0,0.0,0.0,0.6315018315018316,1.0,0.0,0.0,0.8333333333333334,0.0,0.0303142050768407,0.0,0,0
Fiscal year,miller2_SeN,0.0,0.0,0.0,0.0,0.5311888111888112,1.0,0.0,0.0,0.2439024390243902,0.0,0.0374425927719426,0.0,0,0
Fiscal year,miller2_ConID,0.0,0.0,0.0,0.0,0.02,1.0,0.0,0.0,0.1666666666666666,0.0,0.0361228557153408,0.0,0,0
Fiscal year,miller2_FCenID,0.0,0.0,0.0,0.0,0.02,1.0,0.0,0.0,0.5769230769230769,0.0,0.035573969862818,0.0,0,0
Fiscal year,miller2_YoIss,0.0,0.0,0.0,0.0,0.02,1.0,0.0,0.0,0.1333333333333333,0.0,0.0361228557153408,0.0,0,0
Fiscal year,miller2_DisaIss,0.0,0.0,0.0,0.0,0.02,1.0,0.0,0.0,0.1333333333333333,0.0,0.0350673059989508,0.0,0,0
Fiscal year,miller2_ICTAATFoDeve,0.0,0.0,0.0,0.0,0.02,1.0,0.0,0.0,0.1,0.0,0.0330243065478732,0.0,0,0
Fiscal year,miller2_KnowlFoDeve,0.0,0.0,0.0,0.0,0.02,1.0,0.0,0.0,0.1333333333333333,0.0,0.0333784264527266,0.0,0,0
Fiscal year,miller2_GeEqu,0.0,0.0,0.0,0.0,0.02,1.0,0.0,0.0,0.1333333333333333,0.0,0.0361228557153408,0.0,0,0
Fiscal year,miller2_OrganID,0.0,0.0,0.0,0.0,0.5237935397935398,1.0,0.0,0.0,0.0884955752212389,0.0,0.0351395752089097,0.0,0,0
Fiscal year,miller2_OrgCla,0.0,0.0,0.0,0.0,0.5043001443001442,1.0,0.0,0.0,0.2,0.0,0.0356462390727769,0.0,0,0
Fiscal year,miller2_OrgaSu,0.0,0.0,0.0,0.0,0.4455944055944056,1.0,0.0,0.0,0.8,0.0,0.0356462390727769,0.0,0,0
Fiscal year,miller2_ConNa,0.0,0.0,0.0,0.0,0.5220779220779221,1.0,0.0,0.0,0.1666666666666666,0.0,0.0361951249252998,0.0,0,0
Fiscal year,miller2_ProjBroCouID,0.0,0.0,0.0,0.0,0.4375560946989518,1.0,0.0,0.0,0.196078431372549,0.0,0.0330965757578321,0.0,0,0
Fiscal year,miller2_CouReID,0.0,0.0,0.0,0.0,0.4468642468642469,1.0,0.0,0.0,0.2112676056338028,0.0,0.0351395752089097,0.0,0,0
Fiscal year,miller2_CouRegPerc,0.0,0.0,0.0,0.0,0.0333333333333333,1.0,0.0,0.0,0.0746268656716417,0.0,0.0337090146203383,0.0,0,0
Fiscal year,miller2_AmSp,0.0,0.0,0.0,0.0,0.0333333333333333,1.0,0.0,0.0,0.0059760956175298,0.0,0.0366715169727855,0.0,0,0
Indigenous issues (marker),miller2_FisY,0.0,0.0,0.0,0.0,0.02,1.0,0.0,0.0,0.25,0.0,0.0310869692615253,0.0,0,0
Indigenous issues (marker),miller2_IndiIss,0.35308146,0.0,0.19185184,0.0,0.6532356532356534,1.0,1.0,0.0,1.0,0.0,0.0345088932987696,0.0,1,1
Indigenous issues (marker),miller2_CFLI,0.0,0.0,0.0,0.0,0.4665701357466063,1.0,0.9826073429259764,0.0,0.5,0.0,0.0289601435059359,0.0,0,0
Indigenous issues (marker),miller2_PrograPr,0.0,0.0,0.0,0.0,0.02,1.0,0.0,0.0,0.25,0.0,0.0322218836182455,0.0,0,0
Indigenous issues (marker),miller2_SeID,0.0,0.0,0.0,0.0,0.5449256625727215,1.0,0.0,0.0,0.032520325203252,0.0,0.0311267981869472,0.0,0,0
Indigenous issues (marker),miller2_UrIss,0.0,0.0,0.0,0.0,0.591880341880342,1.0,0.9970842980876424,0.0,1.0,0.0,0.0309045771940229,0.0,0,0
Indigenous issues (marker),miller2_ClimChaAdap,0.0,0.0,0.0,0.0,0.4386612080729727,1.0,0.9702217518019866,1.0,0.75,0.0,0.0316082770049497,0.0,0,0
Indigenous issues (marker),miller2_Sta,0.0,0.0,0.0,0.0,0.02,1.0,0.0,0.0,0.75,0.0,0.0290959892843798,0.0,0,0
Indigenous issues (marker),miller2_EnviSustai,0.0,0.0,0.0,0.0,0.5326007326007327,1.0,1.0,0.0,0.75,0.0,0.035558591852652,0.0,0,0
Indigenous issues (marker),miller2_CouRegNa,0.0,0.0,0.0,0.0,0.02,1.0,0.0,0.0,0.0275862068965517,0.0,0.0341821902343985,0.0,0,0
Indigenous issues (marker),miller2_OrgaNa,0.0,0.0,0.0,0.0,0.02,1.0,0.0,0.0,0.0117994100294985,0.0,0.030653638325323,0.0,0,0
Indigenous issues (marker),miller2_FuCenNa,0.0,0.0,0.0,0.0,0.02,1.0,0.0,0.0,0.0769230769230769,0.0,0.0324609454007032,0.0,0,0
Indigenous issues (marker),miller2_PBATy,0.0,0.0,0.0,0.0,0.02,1.0,0.0,0.0,0.25,0.0,0.0287536488358209,0.0,0,0
Indigenous issues (marker),miller2_ClChMit,0.0,0.0,0.0,0.0,0.5545787545787546,1.0,1.0,1.0,1.0,0.0,0.0284845363808359,0.0,0,0
Indigenous issues (marker),miller2_IRTCPer,0.0,0.0,0.0,0.0,0.05,1.0,1.0,1.0,0.75,0.0,0.0324061204464519,0.0,0,0
Indigenous issues (marker),miller2_OrgaT,0.0,0.0,0.0,0.0,0.02,1.0,0.0,0.0,1.0,0.0,0.0308647482686011,0.0,0,0
Indigenous issues (marker),miller2_MaxCIDAContr,0.0,0.0,0.0,0.0,0.05,1.0,0.0,0.0,0.0077821011673151,0.0,0.0295249062683097,0.0,0,0
Indigenous issues (marker),miller2_UntAmoProBud,0.0,0.0,0.0,0.0,0.05,1.0,0.809047484762733,1.0,0.0092165898617511,0.0,0.0313147514395798,0.0,0,0
Indigenous issues (marker),miller2_DivID,0.0,0.0,0.0,0.0,0.02,1.0,0.0,0.0,0.3076923076923077,0.0,0.0287536488358209,0.0,0,0
Indigenous issues (marker),miller2_SecPer,0.0,0.0,0.0,0.0,0.05,1.0,0.0,0.0,0.0216216216216216,0.0,0.0326571353180324,0.0,0,0
Indigenous issues (marker),miller2_FSTCPe,0.0,0.0,0.0,0.0,0.05,1.0,0.0,0.0,0.0816326530612244,0.0,0.0305988133710718,0.0,0,0
Indigenous issues (marker),Section ID,0.0,0.0,0.0,0.0,0.02,1.0,0.0,0.0,0.16,0.0,0.0292814236940159,0.0,0,0
Indigenous issues (marker),miller2_SeN,0.0,0.0,0.0,0.0,0.02,1.0,0.0,0.0,0.032520325203252,0.0,0.031321202200013,0.0,0,0
Indigenous issues (marker),miller2_ConID,0.0,0.0,0.0,0.0,0.5597069597069597,1.0,0.958576830525954,0.0,0.8,0.0,0.0287934777612428,0.0,0,0
Indigenous issues (marker),miller2_FCenID,0.0,0.0,0.0,0.0,0.5596023024594453,1.0,0.0,0.0,0.0769230769230769,0.0,0.0306934672507449,0.0,0,0
Indigenous issues (marker),miller2_YoIss,0.0,0.0,0.0,0.0,0.5641025641025641,1.0,0.9970842980876424,0.0,1.0,0.0,0.0330156766268031,0.0,0,0
Indigenous issues (marker),miller2_DisaIss,0.0,0.0,0.0,0.0,0.5980206927575349,1.0,0.9970842980876424,0.0,1.0,0.0,0.0345088932987696,0.0,0,0
Indigenous issues (marker),miller2_ICTAATFoDeve,0.0,0.0,0.0,0.0,0.470727367870225,1.0,1.0,0.0,0.75,0.0,0.031409405319253,0.0,0,0
Indigenous issues (marker),miller2_KnowlFoDeve,0.0,0.0,0.0,0.0,0.4821559392987964,1.0,0.9970842980876424,0.0,1.0,0.0,0.0334378965133592,0.0,0,0
Indigenous issues (marker),miller2_GeEqu,0.0,0.0,0.0,0.0,0.4905982905982906,1.0,0.995995288574794,1.0,1.0,0.0,0.0309045771940229,0.0,0,0
Indigenous issues (marker),miller2_OrganID,0.0,0.0,0.0,0.0,0.02,1.0,0.0,0.0,0.0117994100294985,0.0,0.0304528264280586,0.0,0,0
Indigenous issues (marker),miller2_OrgCla,0.0,0.0,0.0,0.0,0.02,1.0,0.0,0.0,0.6666666666666666,0.0,0.030653638325323,0.0,0,0
Indigenous issues (marker),miller2_OrgaSu,0.0,0.0,0.0,0.0,0.02,1.0,0.0,0.0,0.1666666666666666,0.0,0.030653638325323,0.0,0,0
Indigenous issues (marker),miller2_ConNa,0.0,0.0,0.0,0.0,0.02,1.0,0.0,0.0,0.8,0.0,0.0308647482686011,0.0,0,0
Indigenous issues (marker),miller2_ProjBroCouID,0.0,0.0,0.0,0.0,0.02,1.0,0.0,0.0,0.0261437908496732,0.0,0.029579731222561,0.0,0,0
Indigenous issues (marker),miller2_CouReID,0.0,0.0,0.0,0.0,0.02,1.0,0.0,0.0,0.028169014084507,0.0,0.0324609454007032,0.0,0,0
Indigenous issues (marker),miller2_CouRegPerc,0.0,0.0,0.0,0.0,0.05,1.0,0.0,0.0,0.0099502487562189,0.0,0.0354639379729788,0.0,0,0
Indigenous issues (marker),miller2_AmSp,0.0,0.0,0.0,0.0,0.05,1.0,0.0,0.0,0.0007968127490039,0.0,0.0288654896262628,0.0,0,0
CFLI (marker),miller2_FisY,0.0,0.0,0.0,0.0,0.02,1.0,0.0,0.0,0.5,0.0,0.0323002958828916,0.0,0,0
CFLI (marker),miller2_IndiIss,0.0,0.0,0.0,0.0,0.4791208791208791,1.0,0.996702557918424,0.0,0.5,0.0,0.0312815592355908,0.0,0,0
CFLI (marker),miller2_CFLI,0.36832422,0.0,0.2105303,0.0,0.7846153846153847,1.0,0.9957180782735292,1.0,1.0,0.0,0.0356334399234506,0.0,1,1
CFLI (marker),miller2_PrograPr,0.0,0.0,0.0,0.0,0.02,1.0,0.0,0.0,0.5,0.0,0.0309375448007659,0.0,0,0
CFLI (marker),miller2_SeID,0.0,0.0,0.0,0.0,0.5229304029304029,1.0,0.0,0.0,0.016260162601626,0.0,0.0323401248083135,0.0,0,0
CFLI (marker),miller2_UrIss,0.0,0.0,0.0,0.0,0.4991208791208791,1.0,0.9915290050488736,1.0,0.5,0.0,0.031960126910413,0.0,0,0
CFLI (marker),miller2_ClimChaAdap,0.0,0.0,0.0,0.0,0.5878388278388279,1.0,0.957769648056194,1.0,0.6666666666666666,0.0,0.0301788867640048,0.0,0,0
CFLI (marker),miller2_Sta,0.0,0.0,0.0,0.0,0.02,1.0,0.0,0.0,0.6666666666666666,0.0,0.0327119602722837,0.0,0,0
CFLI (marker),miller2_EnviSustai,0.0,0.0,0.0,0.0,0.4596923076923077,1.0,0.8962669442114932,0.0,0.6666666666666666,0.0,0.0304278773221048,0.0,0,0
CFLI (marker),miller2_CouRegNa,0.0,0.0,0.0,0.0,0.02,1.0,0.0,0.0,0.0137931034482758,0.0,0.0309375448007659,0.0,0,0
CFLI (marker),miller2_OrgaNa,0.0,0.0,0.0,0.0,0.02,1.0,0.0,0.0,0.0058997050147492,0.0,0.0315684480795278,0.0,0,0
CFLI (marker),miller2_FuCenNa,0.0,0.0,0.0,0.0,0.02,1.0,0.0,0.0,0.0384615384615384,0.0,0.031241730310169,0.0,0,0
CFLI (marker),miller2_PBATy,0.0,0.0,0.0,0.0,0.02,1.0,0.0,0.0,0.5,0.0,0.0319202979849912,0.0,0,0
CFLI (marker),miller2_ClChMit,0.0,0.0,0.0,0.0,0.6615384615384616,1.0,0.9867213758214844,0.0,0.5,0.0,0.0312815592355908,0.0,0,0
CFLI (marker),miller2_IRTCPer,0.0,0.0,0.0,0.0,0.05,1.0,0.9908389790787848,1.0,0.6666666666666666,0.0,0.0341273652801472,0.0,0,0
CFLI (marker),miller2_OrgaT,0.0,0.0,0.0,0.0,0.02,1.0,0.0,0.0,0.5,0.0,0.0319202979849912,0.0,0,0
CFLI (marker),miller2_MaxCIDAContr,0.0,0.0,0.0,0.0,0.05,1.0,0.0,0.0,0.0038910505836575,0.0,0.0298503326630861,0.0,0,0
CFLI (marker),miller2_UntAmoProBud,0.0,0.0,0.0,0.0,0.05,1.0,0.990121774674274,1.0,0.0046082949308755,0.0,0.0298503326630861,0.0,0,0
CFLI (marker),miller2_DivID,0.0,0.0,0.0,0.0,0.02,1.0,0.0,0.0,0.1538461538461538,0.0,0.0319202979849912,0.0,0,0
CFLI (marker),miller2_SecPer,0.0,0.0,0.0,0.0,0.05,1.0,0.0,0.0,0.0108108108108108,0.0,0.0345629889726257,0.0,0,0
CFLI (marker),miller2_FSTCPe,0.0,0.0,0.0,0.0,0.05,1.0,0.0,0.0,0.0408163265306122,0.0,0.0315136231252765,0.0,0,0
CFLI (marker),Section ID,0.0,0.0,0.0,0.0,0.02,1.0,0.0,0.0,0.08,0.0,0.0260000408800206,0.0,0,0
CFLI (marker),miller2_SeN,0.0,0.0,0.0,0.0,0.02,1.0,0.0,0.0,0.016260162601626,0.0,0.0327119602722837,0.0,0,0
CFLI (marker),miller2_ConID,0.0,0.0,0.0,0.0,0.5557509157509157,1.0,0.6711304799561315,1.0,0.4,0.0,0.031960126910413,0.0,0,0
CFLI (marker),miller2_FCenID,0.0,0.0,0.0,0.0,0.5878876678876679,1.0,0.0,0.0,0.0384615384615384,0.0,0.0316082770049497,0.0,0,0
CFLI (marker),miller2_YoIss,0.0,0.0,0.0,0.0,0.4391208791208791,1.0,0.9275225617337632,0.0,0.5,0.0,0.031960126910413,0.0,0,0
CFLI (marker),miller2_DisaIss,0.0,0.0,0.0,0.0,0.5064893001735107,1.0,0.999112535839776,0.0,0.5,0.0,0.0312815592355908,0.0,0,0
CFLI (marker),miller2_ICTAATFoDeve,0.0,0.0,0.0,0.0,0.4741880341880342,1.0,0.977281864245496,0.0,0.6666666666666666,0.0,0.0299449865427592,0.0,0,0
CFLI (marker),miller2_KnowlFoDeve,0.0,0.0,0.0,0.0,0.4771509971509972,1.0,0.9597459884753664,0.0,0.5,0.0,0.0301788867640048,0.0,0,0
CFLI (marker),miller2_GeEqu,0.0,0.0,0.0,0.0,0.4656721056721056,1.0,0.8173841252500219,0.0,0.5,0.0,0.031960126910413,0.0,0,0
CFLI (marker),miller2_OrganID,0.0,0.0,0.0,0.0,0.02,1.0,0.0,0.0,0.0058997050147492,0.0,0.031241730310169,0.0,0,0
CFLI (marker),miller2_OrgCla,0.0,0.0,0.0,0.0,0.02,1.0,0.0,0.0,0.3333333333333333,0.0,0.0315684480795278,0.0,0,0
CFLI (marker),miller2_OrgaSu,0.0,0.0,0.0,0.0,0.02,1.0,0.0,0.0,0.0833333333333333,0.0,0.0315684480795278,0.0,0,0
CFLI (marker),miller2_ConNa,0.0,0.0,0.0,0.0,0.02,1.0,0.0,0.0,0.4,0.0,0.0319202979849912,0.0,0,0
CFLI (marker),miller2_ProjBroCouID,0.0,0.0,0.0,0.0,0.02,1.0,0.0,0.0,0.0130718954248366,0.0,0.0299051576173373,0.0,0,0
CFLI (marker),miller2_CouReID,0.0,0.0,0.0,0.0,0.02,1.0,0.0,0.0,0.0140845070422535,0.0,0.031241730310169,0.0,0,0
CFLI (marker),miller2_CouRegPerc,0.0,0.0,0.0,0.0,0.05,1.0,0.0,0.0,0.0049751243781094,0.0,0.0329891227288326,0.0,0,0
CFLI (marker),miller2_AmSp,0.0,0.0,0.0,0.0,0.05,1.0,0.0,0.0,0.0003984063745019,0.0,0.0322454709286403,0.0,0,0
Programming process (new),miller2_FisY,0.0,0.0,0.0,0.0,0.3671111111111111,1.0,0.0,0.0,0.0003387533875338,0.0,0.0313738302747612,0.0,0,0
Programming process (new),miller2_IndiIss,0.0,0.0,0.0,0.0,0.02,1.0,0.0,0.0,0.0013550135501355,0.0,0.032692319137073,0.0,0,0
Programming process (new),miller2_CFLI,0.0,0.0,0.0,0.0,0.02,1.0,0.0,0.0,0.0006775067750677,0.0,0.0290763481491691,0.0,0,0
Programming process (new),miller2_PrograPr,0.19969632,0.0,0.2496204,0.0,0.5623663482487012,1.0,0.0,0.0,0.0003387533875338,0.0,0.0365298114207405,0.0,1,1
Programming process (new),miller2_SeID,0.0,0.0,0.0,0.0,0.02,1.0,0.0,0.0,0.0416666666666666,0.0,0.0313015610648023,0.0,0,0
Programming process (new),miller2_UrIss,0.0,0.0,0.0,0.0,0.02,1.0,0.0,0.0,0.0013550135501355,0.0,0.0332339828073259,0.0,0,0
Programming process (new),miller2_ClimChaAdap,0.0,0.0,0.0,0.0,0.02,1.0,0.0,0.0,0.0010162601626016,0.0,0.0280143147121624,0.0,0,0
Programming process (new),miller2_Sta,0.0,0.0,0.0,0.0,0.3671111111111111,1.0,0.0,0.0,0.0010162601626016,0.0,0.0293340517687642,0.0,0,0
Programming process (new),miller2_EnviSustai,0.0,0.0,0.0,0.0,0.02,1.0,0.0,0.0,0.0010162601626016,0.0,0.0300595817630536,0.0,0,0
Programming process (new),miller2_CouRegNa,0.0,0.0,0.0,0.0,0.4561451247165533,1.0,0.0,0.0,0.0491192411924119,0.0,0.0325135734754514,0.0,0,0
Programming process (new),miller2_OrgaNa,0.0,0.0,0.0,0.0,0.4696296296296296,1.0,0.0,0.0,0.1148373983739837,0.0,0.0288062769105691,0.0,0,0
Programming process (new),miller2_FuCenNa,0.0,0.0,0.0,0.0,0.4275256769374416,1.0,0.0,0.0,0.0176151761517615,0.0,0.032764588347032,0.0,0,0
Programming process (new),miller2_PBATy,0.0,0.0,0.0,0.0,0.3591534391534391,1.0,0.0,0.0,0.0003387533875338,0.0,0.0289729426552623,0.0,0,0
Programming process (new),miller2_ClChMit,0.0,0.0,0.0,0.0,0.02,1.0,0.0,0.0,0.0013550135501355,0.0,0.0285756752431517,0.0,0,0
Programming process (new),miller2_IRTCPer,0.0,0.0,0.0,0.0,0.0333333333333333,1.0,0.0,0.0,0.0010162601626016,0.0,0.0305860433904669,0.0,0,0
Programming process (new),miller2_OrgaT,0.0,0.0,0.0,0.0,0.4246464646464646,1.0,0.0,0.0,0.0013550135501355,0.0,0.0289729426552623,0.0,0,0
Programming process (new),miller2_MaxCIDAContr,0.0,0.0,0.0,0.0,0.0333333333333333,1.0,0.0,0.0,0.1741192411924119,0.0,0.0315008531446717,0.0,0,0
Programming process (new),miller2_UntAmoProBud,0.0,0.0,0.0,0.0,0.0333333333333333,1.0,0.0,0.0,0.1470189701897019,0.0,0.0315008531446717,0.0,0,0
Programming process (new),miller2_DivID,0.0,0.0,0.0,0.0,0.4890694055399938,1.0,0.0,0.0,0.0044037940379403,0.0,0.0289729426552623,0.0,0,0
Programming process (new),miller2_SecPer,0.0,0.0,0.0,0.0,0.0333333333333333,1.0,0.0,0.0,0.0626693766937669,0.0,0.0329082527665251,0.0,0,0
Programming process (new),miller2_FSTCPe,0.0,0.0,0.0,0.0,0.0333333333333333,1.0,0.0,0.0,0.0165989159891598,0.0,0.0307971533337449,0.0,0,0
Programming process (new),Section ID,0.0,0.0,0.0,0.0,0.6466666666666666,1.0,0.0,0.0,0.0084688346883468,0.0,0.0295300824303795,0.0,0,0
Programming process (new),miller2_SeN,0.0,0.0,0.0,0.0,0.4788359788359788,1.0,0.0,0.0,0.0416666666666666,0.0,0.031621076154276,0.0,0,0
Programming process (new),miller2_ConID,0.0,0.0,0.0,0.0,0.02,1.0,0.0,0.0,0.0016937669376693,0.0,0.0332339828073259,0.0,0,0
Programming process (new),miller2_FCenID,0.0,0.0,0.0,0.0,0.02,1.0,0.0,0.0,0.0176151761517615,0.0,0.0329562065661706,0.0,0,0
Programming process (new),miller2_YoIss,0.0,0.0,0.0,0.0,0.02,1.0,0.0,0.0,0.0013550135501355,0.0,0.0354006374883371,0.0,0,0
Programming process (new),miller2_DisaIss,0.0,0.0,0.0,0.0,0.02,1.0,0.0,0.0,0.0013550135501355,0.0,0.032692319137073,0.0,0,0
Programming process (new),miller2_ICTAATFoDeve,0.0,0.0,0.0,0.0,0.02,1.0,0.0,0.0,0.0010162601626016,0.0,0.0333784264527266,0.0,0,0
Programming process (new),miller2_KnowlFoDeve,0.0,0.0,0.0,0.0,0.02,1.0,0.0,0.0,0.0013550135501355,0.0,0.0336279200220552,0.0,0,0
Programming process (new),miller2_GeEqu,0.0,0.0,0.0,0.0,0.02,1.0,0.0,0.0,0.0013550135501355,0.0,0.0310673281263146,0.0,0,0
Programming process (new),miller2_OrganID,0.0,0.0,0.0,0.0,0.6118736383442266,1.0,0.0,0.0,0.1148373983739837,0.0,0.0307062664000713,0.0,0,0
Programming process (new),miller2_OrgCla,0.0,0.0,0.0,0.0,0.4239153439153439,1.0,0.0,0.0,0.0020325203252032,0.0,0.0288062769105691,0.0,0,0
Programming process (new),miller2_OrgaSu,0.0,0.0,0.0,0.0,0.4222222222222222,1.0,0.0,0.0,0.008130081300813,0.0,0.0288062769105691,0.0,0,0
Programming process (new),miller2_ConNa,0.0,0.0,0.0,0.0,0.5942411584516847,1.0,0.0,0.0,0.0016937669376693,0.0,0.0333062520172848,0.0,0,0
Programming process (new),miller2_ProjBroCouID,0.0,0.0,0.0,0.0,0.5217676767676768,1.0,0.0,0.0,0.0518292682926829,0.0,0.031621076154276,0.0,0,0
Programming process (new),miller2_CouReID,0.0,0.0,0.0,0.0,0.4966884531590414,1.0,0.0,0.0,0.0481029810298102,0.0,0.032764588347032,0.0,0,0
Programming process (new),miller2_CouRegPerc,0.0,0.0,0.0,0.0,0.0333333333333333,1.0,0.0,0.0,0.1361788617886178,0.0,0.0338410641438001,0.0,0,0
Programming process (new),miller2_AmSp,0.0,0.0,0.0,0.0,0.0333333333333333,1.0,0.0,0.0,0.5880478087649402,0.0,0.0290283943495237,0.0,0,0
Sector ID,miller2_FisY,0.0,0.0,0.0,0.0,0.02,1.0,0.0,0.0,0.0064102564102564,0.0,0.0302615770020924,0.0,0,0
Sector ID,miller2_IndiIss,0.0,0.0,0.0,0.0,0.5757948717948718,1.0,0.0,0.0,0.0256410256410256,0.0,0.0327517891977056,0.0,0,0
Sector ID,miller2_CFLI,0.0,0.0,0.0,0.0,0.4564102564102564,1.0,0.0,0.0,0.0128205128205128,0.0,0.0342220191598204,0.0,0,0
Sector ID,miller2_PrograPr,0.0,0.0,0.0,0.0,0.02,1.0,0.0,0.0,0.0064102564102564,0.0,0.0323002958828916,0.0,0,0
Sector ID,miller2_SeID,0.0,0.0,0.0,0.0,0.7114529914529915,1.0,0.9699959777294388,1.0,0.7884615384615384,0.0,0.0381426323921264,0.0,1,1
Sector ID,miller2_UrIss,0.0,0.0,0.0,0.0,0.6438974358974359,1.0,0.0,0.0,0.0256410256410256,0.0,0.0336873900826877,0.0,0,0
Sector ID,miller2_ClimChaAdap,0.0,0.0,0.0,0.0,0.4450142450142451,1.0,0.0,0.0,0.0192307692307692,0.0,0.0283410993113613,0.0,0,0
Sector ID,miller2_Sta,0.0,0.0,0.0,0.0,0.02,1.0,0.0,0.0,0.0192307692307692,0.0,0.030653638325323,0.0,0,0
Sector ID,miller2_EnviSustai,0.0,0.0,0.0,0.0,0.4625641025641026,1.0,0.0,0.0,0.0192307692307692,0.0,0.0285589111576005,0.0,0,0
Sector ID,miller2_CouRegNa,0.0,0.0,0.0,0.0,0.02,1.0,0.0,0.0,0.9294871794871796,0.0,0.0290069807677545,0.0,0,0
Sector ID,miller2_OrgaNa,0.0,0.0,0.0,0.0,0.02,1.0,0.0,0.0,0.4601769911504424,0.0,0.029579731222561,0.0,0,0
Sector ID,miller2_FuCenNa,0.0,0.0,0.0,0.0,0.02,1.0,0.0,0.0,0.3333333333333333,0.0,0.0292814236940159,0.0,0,0
Sector ID,miller2_PBATy,0.0,0.0,0.0,0.0,0.02,1.0,0.0,0.0,0.0064102564102564,0.0,0.0299051576173373,0.0,0,0
Sector ID,miller2_ClChMit,0.0,0.0,0.0,0.0,0.5644174538911382,1.0,0.0,0.0,0.0256410256410256,0.0,0.0293212526194378,0.0,0,0
Sector ID,miller2_IRTCPer,0.0,0.0,0.0,0.0,0.05,1.0,0.0,0.0,0.0192307692307692,0.0,0.0326571353180324,0.0,0,0
Sector ID,miller2_OrgaT,0.0,0.0,0.0,0.0,0.02,1.0,0.0,0.0,0.0256410256410256,0.0,0.0299051576173373,0.0,0,0
Sector ID,miller2_MaxCIDAContr,0.0,0.0,0.0,0.0,0.05,1.0,0.0,0.0,0.3035019455252918,0.0,0.0337217846009431,0.0,0,0
Sector ID,miller2_UntAmoProBud,0.0,0.0,0.0,0.0,0.05,1.0,0.0,0.0,0.3594470046082949,0.0,0.0337217846009431,0.0,0,0
Sector ID,miller2_DivID,0.0,0.0,0.0,0.0,0.02,1.0,0.0,0.0,0.0833333333333333,0.0,0.0373899646971944,0.0,0,0
Sector ID,miller2_SecPer,0.0,0.0,0.0,0.0,0.05,1.0,0.0,0.0,0.8432432432432433,0.0,0.0366842869533903,0.0,0,0
Sector ID,miller2_FSTCPe,0.0,0.0,0.0,0.0,0.05,1.0,0.0,0.0,0.3141025641025641,0.0,0.0295249062683097,0.0,0,0
Sector ID,Section ID,0.0,0.0,0.0,0.0,0.02,1.0,0.0,0.0,0.1602564102564102,0.0,0.0570868254336602,0.0,0,0
Sector ID,miller2_SeN,0.0,0.0,0.0,0.0,0.02,1.0,0.0,0.0,0.7884615384615384,0.0,0.030653638325323,0.0,0,0
Sector ID,miller2_ConID,0.0,0.0,0.0,0.0,0.7647863247863247,1.0,0.0,0.0,0.032051282051282,0.0,0.0374297936226162,0.0,0,0
Sector ID,miller2_FCenID,0.0,0.0,0.0,0.0,0.7150997150997151,1.0,0.0,0.0,0.3333333333333333,0.0,0.0367789408330635,0.0,0,0
Sector ID,miller2_YoIss,0.0,0.0,0.0,0.0,0.4664615384615385,1.0,0.0,0.0,0.0256410256410256,0.0,0.0336873900826877,0.0,0,0
Sector ID,miller2_DisaIss,0.0,0.0,0.0,0.0,0.5600879120879121,1.0,0.0,0.0,0.0256410256410256,0.0,0.0327517891977056,0.0,0,0
Sector ID,miller2_ICTAATFoDeve,0.0,0.0,0.0,0.0,0.4632478632478633,1.0,0.0,0.0,0.0192307692307692,0.0,0.0338164384806163,0.0,0,0
Sector ID,miller2_KnowlFoDeve,0.0,0.0,0.0,0.0,0.443045843045843,1.0,0.0,0.0,0.0256410256410256,0.0,0.0312815592355908,0.0,0,0
Sector ID,miller2_GeEqu,0.0,0.0,0.0,0.0,0.5082783882783883,1.0,0.0,0.0,0.0256410256410256,0.0,0.0299449865427592,0.0,0,0
Sector ID,miller2_OrganID,0.0,0.0,0.0,0.0,0.02,1.0,0.0,0.0,0.4601769911504424,0.0,0.0361424968505515,0.0,0,0
Sector ID,miller2_OrgCla,0.0,0.0,0.0,0.0,0.02,1.0,0.0,0.0,0.0384615384615384,0.0,0.029579731222561,0.0,0,0
Sector ID,miller2_OrgaSu,0.0,0.0,0.0,0.0,0.02,1.0,0.0,0.0,0.1538461538461538,0.0,0.029579731222561,0.0,0,0
Sector ID,miller2_ConNa,0.0,0.0,0.0,0.0,0.02,1.0,0.0,0.0,0.032051282051282,0.0,0.0299051576173373,0.0,0,0
Sector ID,miller2_ProjBroCouID,0.0,0.0,0.0,0.0,0.02,1.0,0.0,0.0,0.9807692307692308,0.0,0.0366156743096229,0.0,0,0
Sector ID,miller2_CouReID,0.0,0.0,0.0,0.0,0.02,1.0,0.0,0.0,0.9102564102564102,0.0,0.0361424968505515,0.0,0,0
Sector ID,miller2_CouRegPerc,0.0,0.0,0.0,0.0,0.05,1.0,0.0,0.0,0.3880597014925373,0.0,0.0315136231252765,0.0,0,0
Sector ID,miller2_AmSp,0.0,0.0,0.0,0.0,0.05,1.0,0.0,0.0,0.0310756972111553,0.0,0.0302067520478412,0.0,0,0
Urban issues (marker),miller2_FisY,0.0,0.0,0.0,0.0,0.02,1.0,0.0,0.0,0.3333333333333333,0.0,0.0299051576173373,0.0,0,0
Urban issues (marker),miller2_IndiIss,0.0,0.0,0.0,0.0,0.5601139601139602,1.0,1.0,0.0,0.75,0.0,0.0338953013904615,0.0,0,0
Urban issues (marker),miller2_CFLI,0.0,0.0,0.0,0.0,0.4555897435897436,1.0,0.9751945708935068,1.0,0.6666666666666666,0.0,0.0299449865427592,0.0,0,0
Urban issues (marker),miller2_PrograPr,0.0,0.0,0.0,0.0,0.02,1.0,0.0,0.0,0.3333333333333333,0.0,0.031321202200013,0.0,0,0
Urban issues (marker),miller2_SeID,0.0,0.0,0.0,0.0,0.5431827431827432,1.0,0.0,0.0,0.024390243902439,0.0,0.0324399222360449,0.0,0,0
Urban issues (marker),miller2_UrIss,0.31485158,0.0,0.0,0.0,0.5730769230769232,1.0,0.9970842980876424,0.0,0.75,0.0,0.032146400389776,0.0,1,1
Urban issues (marker),miller2_ClimChaAdap,0.0,0.0,0.0,0.0,0.446056166056166,1.0,0.9775588321521046,1.0,1.0,0.0,0.0306934672507449,0.0,0,0
Urban issues (marker),miller2_Sta,0.0,0.0,0.0,0.0,0.02,1.0,0.0,0.0,1.0,0.0,0.0301390578385829,0.0,0,0
Urban issues (marker),miller2_EnviSustai,0.0,0.0,0.0,0.0,0.5345247345247346,1.0,1.0,0.0,1.0,0.0,0.0351267760595833,0.0,0,0
Urban issues (marker),miller2_CouRegNa,0.0,0.0,0.0,0.0,0.02,1.0,0.0,0.0,0.0206896551724137,0.0,0.031321202200013,0.0,0,0
Urban issues (marker),miller2_OrgaNa,0.0,0.0,0.0,0.0,0.02,1.0,0.0,0.0,0.0088495575221238,0.0,0.0318298222950149,0.0,0,0
Urban issues (marker),miller2_FuCenNa,0.0,0.0,0.0,0.0,0.02,1.0,0.0,0.0,0.0576923076923076,0.0,0.0315684480795278,0.0,0,0
Urban issues (marker),miller2_PBATy,0.0,0.0,0.0,0.0,0.02,1.0,0.0,0.0,0.3333333333333333,0.0,0.0296850162326357,0.0,0,0
Urban issues (marker),miller2_ClChMit,0.0,0.0,0.0,0.0,0.5545787545787546,1.0,1.0,1.0,0.75,0.0,0.0293212526194378,0.0,0,0
Urban issues (marker),miller2_IRTCPer,0.0,0.0,0.0,0.0,0.05,1.0,1.0,1.0,1.0,0.0,0.0338006475107884,0.0,0,0
Urban issues (marker),miller2_OrgaT,0.0,0.0,0.0,0.0,0.02,1.0,0.0,0.0,0.75,0.0,0.0321065714643541,0.0,0,0
Urban issues (marker),miller2_MaxCIDAContr,0.0,0.0,0.0,0.0,0.05,1.0,0.0,0.0,0.0058365758754863,0.0,0.0303980014738073,0.0,0,0
Urban issues (marker),miller2_UntAmoProBud,0.0,0.0,0.0,0.0,0.05,1.0,0.8091643448646938,1.0,0.0069124423963133,0.0,0.0303980014738073,0.0,0,0
Urban issues (marker),miller2_DivID,0.0,0.0,0.0,0.0,0.02,1.0,0.0,0.0,0.2307692307692307,0.0,0.0296850162326357,0.0,0,0
Urban issues (marker),miller2_SecPer,0.0,0.0,0.0,0.0,0.05,1.0,0.0,0.0,0.0162162162162162,0.0,0.0341273652801472,0.0,0,0
Urban issues (marker),miller2_FSTCPe,0.0,0.0,0.0,0.0,0.05,1.0,0.0,0.0,0.0612244897959183,0.0,0.0317749973407636,0.0,0,0
Urban issues (marker),Section ID,0.0,0.0,0.0,0.0,0.02,1.0,0.0,0.0,0.12,0.0,0.0277321491102821,0.0,0,0
Urban issues (marker),miller2_SeN,0.0,0.0,0.0,0.0,0.02,1.0,0.0,0.0,0.024390243902439,0.0,0.0327119602722837,0.0,0,0
Urban issues (marker),miller2_ConID,0.0,0.0,0.0,0.0,0.5597069597069597,1.0,0.958576830525954,0.0,0.6,0.0,0.0297248451580575,0.0,0,0
Urban issues (marker),miller2_FCenID,0.0,0.0,0.0,0.0,0.5464154892726321,1.0,0.0,0.0,0.0576923076923076,0.0,0.0318696512204367,0.0,0,0
Urban issues (marker),miller2_YoIss,0.31485158,0.0,0.0,0.0,0.5230769230769232,1.0,0.9970842980876424,0.0,0.75,0.0,0.0297248451580575,0.0,0,0
Urban issues (marker),miller2_DisaIss,0.31182846,0.0,0.0,0.0,0.579217273954116,1.0,0.9970842980876424,0.0,0.75,0.0,0.0338953013904615,0.0,0,0
Urban issues (marker),miller2_ICTAATFoDeve,0.0,0.0,0.0,0.0,0.4507892107892108,1.0,1.0,0.0,1.0,0.0,0.0304926553534805,0.0,0,0
Urban issues (marker),miller2_KnowlFoDeve,0.0,0.0,0.0,0.0,0.454945054945055,1.0,0.9970842980876424,0.0,0.75,0.0,0.0306934672507449,0.0,0,0
Urban issues (marker),miller2_GeEqu,0.0,0.0,0.0,0.0,0.4752136752136752,1.0,0.995995288574794,1.0,0.75,0.0,0.032146400389776,0.0,0,0
Urban issues (marker),miller2_OrganID,0.0,0.0,0.0,0.0,0.02,1.0,0.0,0.0,0.0088495575221238,0.0,0.0315684480795278,0.0,0,0
Urban issues (marker),miller2_OrgCla,0.0,0.0,0.0,0.0,0.02,1.0,0.0,0.0,0.5,0.0,0.0318298222950149,0.0,0,0
Urban issues (marker),miller2_OrgaSu,0.0,0.0,0.0,0.0,0.02,1.0,0.0,0.0,0.125,0.0,0.0318298222950149,0.0,0,0
Urban issues (marker),miller2_ConNa,0.0,0.0,0.0,0.0,0.02,1.0,0.0,0.0,0.6,0.0,0.0296850162326357,0.0,0,0
Urban issues (marker),miller2_ProjBroCouID,0.0,0.0,0.0,0.0,0.02,1.0,0.0,0.0,0.0196078431372549,0.0,0.0304528264280586,0.0,0,0
Urban issues (marker),miller2_CouReID,0.0,0.0,0.0,0.0,0.02,1.0,0.0,0.0,0.0211267605633802,0.0,0.0315684480795278,0.0,0,0
Urban issues (marker),miller2_CouRegPerc,0.0,0.0,0.0,0.0,0.05,1.0,0.0,0.0,0.0074626865671641,0.0,0.03292102274713,0.0,0,0
Urban issues (marker),miller2_AmSp,0.0,0.0,0.0,0.0,0.05,1.0,0.0,0.0,0.0005976095617529,0.0,0.0298503326630861,0.0,0,0
Climate change adaptation (marker),miller2_FisY,0.0,0.0,0.0,0.0,0.02,1.0,0.0,0.0,0.3333333333333333,0.0,0.029579731222561,0.0,0,0
Climate change adaptation (marker),miller2_IndiIss,0.0,0.0,0.0,0.0,0.4491679748822606,1.0,1.0,0.0,0.75,0.0,0.0308614935321295,0.0,0,0
Climate change adaptation (marker),miller2_CFLI,0.0,0.0,0.0,0.0,0.5142457542457542,1.0,1.0,1.0,0.6666666666666666,0.0,0.0296195601479828,0.0,0,0
Climate change adaptation (marker),miller2_PrograPr,0.0,0.0,0.0,0.0,0.02,1.0,0.0,0.0,0.3333333333333333,0.0,0.030653638325323,0.0,0,0
Climate change adaptation (marker),miller2_SeID,0.0,0.0,0.0,0.0,0.5632938490081347,1.0,0.0,0.0,0.024390243902439,0.0,0.0296195601479828,0.0,0,0
Climate change adaptation (marker),miller2_UrIss,0.0,0.0,0.0,0.0,0.4724332810047096,1.0,0.9969133156134784,0.0,0.75,0.0,0.0294672328993641,0.0,0,0
Climate change adaptation (marker),miller2_ClimChaAdap,0.3387315,0.0,0.21353938,0.0,0.6853812853812854,1.0,0.9658924116228454,1.0,1.0,0.0,0.0364412341969747,0.0,1,1
Climate change adaptation (marker),miller2_Sta,0.0,0.0,0.0,0.0,0.02,1.0,0.0,0.0,1.0,0.0,0.0297388285711183,0.0,0,0
Climate change adaptation (marker),miller2_EnviSustai,0.0,0.0,0.0,0.0,0.4695761381475667,1.0,1.0,0.0,1.0,0.0,0.031960126910413,0.0,0,0
Climate change adaptation (marker),miller2_CouRegNa,0.0,0.0,0.0,0.0,0.02,1.0,0.0,0.0,0.0206896551724137,0.0,0.0290069807677545,0.0,0,0
Climate change adaptation (marker),miller2_OrgaNa,0.0,0.0,0.0,0.0,0.02,1.0,0.0,0.0,0.0088495575221238,0.0,0.0309966919831498,0.0,0,0
Climate change adaptation (marker),miller2_FuCenNa,0.0,0.0,0.0,0.0,0.02,1.0,0.0,0.0,0.0576923076923076,0.0,0.0308216646067076,0.0,0,0
Climate change adaptation (marker),miller2_PBATy,0.0,0.0,0.0,0.0,0.02,1.0,0.0,0.0,0.3333333333333333,0.0,0.0294274039739422,0.0,0,0
Climate change adaptation (marker),miller2_ClChMit,0.0,0.0,0.0,0.0,0.6155834361716714,1.0,1.0,1.0,0.75,0.0,0.029181230718284,0.0,0,0
Climate change adaptation (marker),miller2_IRTCPer,0.0,0.0,0.0,0.0,0.05,1.0,1.0,1.0,1.0,0.0,0.0307668396524563,0.0,0,0
Climate change adaptation (marker),miller2_OrgaT,0.0,0.0,0.0,0.0,0.02,1.0,0.0,0.0,0.75,0.0,0.0294274039739422,0.0,0,0
Climate change adaptation (marker),miller2_MaxCIDAContr,0.0,0.0,0.0,0.0,0.05,1.0,0.0,0.0,0.0058365758754863,0.0,0.0315136231252765,0.0,0,0
Climate change adaptation (marker),miller2_UntAmoProBud,0.0,0.0,0.0,0.0,0.05,1.0,1.0,1.0,0.0069124423963133,0.0,0.0315136231252765,0.0,0,0
Climate change adaptation (marker),miller2_DivID,0.0,0.0,0.0,0.0,0.02,1.0,0.0,0.0,0.2307692307692307,0.0,0.0294274039739422,0.0,0,0
Climate change adaptation (marker),miller2_SecPer,0.0,0.0,0.0,0.0,0.05,1.0,0.0,0.0,0.0162162162162162,0.0,0.0309418670288985,0.0,0,0
Climate change adaptation (marker),miller2_FSTCPe,0.0,0.0,0.0,0.0,0.05,1.0,0.0,0.0,0.0612244897959183,0.0,0.0292265987397646,0.0,0,0
Climate change adaptation (marker),Section ID,0.0,0.0,0.0,0.0,0.02,1.0,0.0,0.0,0.12,0.0,0.0355187629272301,0.0,0,0
Climate change adaptation (marker),miller2_SeN,0.0,0.0,0.0,0.0,0.02,1.0,0.0,0.0,0.024390243902439,0.0,0.0297388285711183,0.0,0,0
Climate change adaptation (marker),miller2_ConID,0.0,0.0,0.0,0.0,0.5687570574788621,1.0,0.958576830525954,0.0,0.6,0.0,0.0294672328993641,0.0,0,0
Climate change adaptation (marker),miller2_FCenID,0.0,0.0,0.0,0.0,0.6041913641913641,1.0,0.0,0.0,0.0576923076923076,0.0,0.0293212526194378,0.0,0,0
Climate change adaptation (marker),miller2_YoIss,0.0,0.0,0.0,0.0,0.4166823652537939,1.0,0.9969133156134784,0.0,0.75,0.0,0.0294672328993641,0.0,0,0
Climate change adaptation (marker),miller2_DisaIss,0.0,0.0,0.0,0.0,0.4831386157701947,1.0,1.0,0.0,0.75,0.0,0.029181230718284,0.0,0,0
Climate change adaptation (marker),miller2_ICTAATFoDeve,0.0,0.0,0.0,0.0,0.518479020979021,1.0,1.0,0.0,1.0,0.0,0.0285589111576005,0.0,0,0
Climate change adaptation (marker),miller2_KnowlFoDeve,0.0,0.0,0.0,0.0,0.4604245754245755,1.0,1.0,0.0,0.75,0.0,0.0302274320929425,0.0,0,0
Climate change adaptation (marker),miller2_GeEqu,0.0,0.0,0.0,0.0,0.5322899322899324,1.0,1.0,1.0,0.75,0.0,0.0294672328993641,0.0,0,0
Climate change adaptation (marker),miller2_OrganID,0.0,0.0,0.0,0.0,0.02,1.0,0.0,0.0,0.0088495575221238,0.0,0.0308216646067076,0.0,0,0
Climate change adaptation (marker),miller2_OrgCla,0.0,0.0,0.0,0.0,0.02,1.0,0.0,0.0,0.5,0.0,0.0292814236940159,0.0,0,0
Climate change adaptation (marker),miller2_OrgaSu,0.0,0.0,0.0,0.0,0.02,1.0,0.0,0.0,0.125,0.0,0.0292814236940159,0.0,0,0
Climate change adaptation (marker),miller2_ConNa,0.0,0.0,0.0,0.0,0.02,1.0,0.0,0.0,0.6,0.0,0.0311791673330577,0.0,0,0
Climate change adaptation (marker),miller2_ProjBroCouID,0.0,0.0,0.0,0.0,0.02,1.0,0.0,0.0,0.0196078431372549,0.0,0.0285190822321786,0.0,0,0
Climate change adaptation (marker),miller2_CouReID,0.0,0.0,0.0,0.0,0.02,1.0,0.0,0.0,0.0211267605633802,0.0,0.0291414017928621,0.0,0,0
Climate change adaptation (marker),miller2_CouRegPerc,0.0,0.0,0.0,0.0,0.05,1.0,0.0,0.0,0.0074626865671641,0.0,0.0302821484561547,0.0,0,0
Climate change adaptation (marker),miller2_AmSp,0.0,0.0,0.0,0.0,0.05,1.0,0.0,0.0,0.0005976095617529,0.0,0.0295249062683097,0.0,0,0
Status,miller2_FisY,0.0,0.0,0.0,0.0,0.3185185185185185,1.0,0.0,0.0,0.0004061738424045,0.0,0.0270470273832523,0.0,0,0
Status,miller2_IndiIss,0.0,0.0,0.0,0.0,0.02,1.0,0.0,0.0,0.0016246953696181,0.0,0.0263213226345757,0.0,0,0
Status,miller2_CFLI,0.0,0.0,0.0,0.0,0.02,1.0,0.0,0.0,0.000812347684809,0.0,0.0224007094022696,0.0,0,0
Status,miller2_PrograPr,0.0,0.0,0.0,0.0,0.3787878787878788,1.0,0.0,0.0,0.0004061738424045,0.0,0.0262153821521571,0.0,0,0
Status,miller2_SeID,0.0,0.0,0.0,0.0,0.02,1.0,0.0,0.0,0.0499593826157595,0.0,0.0269747581732934,0.0,0,0
Status,miller2_UrIss,0.0,0.0,0.0,0.0,0.02,1.0,0.0,0.0,0.0016246953696181,0.0,0.0267340187642921,0.0,0,0
Status,miller2_ClimChaAdap,0.0,0.0,0.0,0.0,0.02,1.0,0.0,0.0,0.0012185215272136,0.0,0.0256940245174067,0.0,0,0
Status,miller2_Sta,0.15870735,0.0,0.1983842,0.0,0.5555555555555556,1.0,0.0,0.0,0.0012185215272136,0.0,0.0370023100025393,0.0,1,1
Status,miller2_EnviSustai,0.0,0.0,0.0,0.0,0.02,1.0,0.0,0.0,0.0012185215272136,0.0,0.032692319137073,0.0,0,0
Status,miller2_CouRegNa,0.0,0.0,0.0,0.0,0.334017094017094,1.0,0.0,0.0,0.0588952071486596,0.0,0.0262153821521571,0.0,0,0
Status,miller2_OrgaNa,0.0,0.0,0.0,0.0,0.3630769230769231,1.0,0.0,0.0,0.1376929325751421,0.0,0.0265896225061499,0.0,0,0
Status,miller2_FuCenNa,0.0,0.0,0.0,0.0,0.3384615384615385,1.0,0.0,0.0,0.0211210398050365,0.0,0.0263935918445346,0.0,0,0
Status,miller2_PBATy,0.0,0.0,0.0,0.0,0.3444444444444444,1.0,0.0,0.0,0.0004061738424045,0.0,0.0224729786122286,0.0,0,0
Status,miller2_ClChMit,0.0,0.0,0.0,0.0,0.02,1.0,0.0,0.0,0.0016246953696181,0.0,0.0263213226345757,0.0,0,0
Status,miller2_IRTCPer,0.0,0.0,0.0,0.0,0.0333333333333333,1.0,0.0,0.0,0.0012185215272136,0.0,0.0223527556026242,0.0,0,0
Status,miller2_OrgaT,0.0,0.0,0.0,0.0,0.3066666666666666,1.0,0.0,0.0,0.0016246953696181,0.0,0.0268062879742511,0.0,0,0
Status,miller2_MaxCIDAContr,0.0,0.0,0.0,0.0,0.0333333333333333,1.0,0.0,0.0,0.2087733549959382,0.0,0.0286860539009648,0.0,0,0
Status,miller2_UntAmoProBud,0.0,0.0,0.0,0.0,0.0333333333333333,1.0,0.0,0.0,0.1762794476035743,0.0,0.0286860539009648,0.0,0,0
Status,miller2_DivID,0.0,0.0,0.0,0.0,0.3230769230769231,1.0,0.0,0.0,0.0052802599512591,0.0,0.0224729786122286,0.0,0,0
Status,miller2_SecPer,0.0,0.0,0.0,0.0,0.0333333333333333,1.0,0.0,0.0,0.0751421608448416,0.0,0.0264693994965456,0.0,0,0
Status,miller2_FSTCPe,0.0,0.0,0.0,0.0,0.0333333333333333,1.0,0.0,0.0,0.0199025182778229,0.0,0.0264693994965456,0.0,0,0
Status,Section ID,0.0,0.0,0.0,0.0,0.5282051282051283,1.0,0.0,0.0,0.0101543460601137,0.0,0.032764588347032,0.0,0,0
Status,miller2_SeN,0.0,0.0,0.0,0.0,0.4266666666666667,1.0,0.0,0.0,0.0499593826157595,0.0,0.0273160890756655,0.0,0,0
Status,miller2_ConID,0.0,0.0,0.0,0.0,0.02,1.0,0.0,0.0,0.0020308692120227,0.0,0.0224007094022696,0.0,0,0
Status,miller2_FCenID,0.0,0.0,0.0,0.0,0.02,1.0,0.0,0.0,0.0211210398050365,0.0,0.0224007094022696,0.0,0,0
Status,miller2_YoIss,0.0,0.0,0.0,0.0,0.02,1.0,0.0,0.0,0.0016246953696181,0.0,0.0267340187642921,0.0,0,0
Status,miller2_DisaIss,0.0,0.0,0.0,0.0,0.02,1.0,0.0,0.0,0.0016246953696181,0.0,0.0302419358668818,0.0,0,0
Status,miller2_ICTAATFoDeve,0.0,0.0,0.0,0.0,0.02,1.0,0.0,0.0,0.0012185215272136,0.0,0.0224007094022696,0.0,0,0
Status,miller2_KnowlFoDeve,0.0,0.0,0.0,0.0,0.02,1.0,0.0,0.0,0.0016246953696181,0.0,0.0224007094022696,0.0,0,0
Status,miller2_GeEqu,0.0,0.0,0.0,0.0,0.02,1.0,0.0,0.0,0.0016246953696181,0.0,0.0267340187642921,0.0,0,0
Status,miller2_OrganID,0.0,0.0,0.0,0.0,0.3802197802197802,1.0,0.0,0.0,0.1376929325751421,0.0,0.0263935918445346,0.0,0,0
Status,miller2_OrgCla,0.0,0.0,0.0,0.0,0.2888888888888889,1.0,0.0,0.0,0.0024370430544272,0.0,0.0265896225061499,0.0,0,0
Status,miller2_OrgaSu,0.0,0.0,0.0,0.0,0.44,1.0,0.0,0.0,0.0097481722177091,0.0,0.0307062664000713,0.0,0,0
Status,miller2_ConNa,0.0,0.0,0.0,0.0,0.3948717948717948,1.0,0.0,0.0,0.0020308692120227,0.0,0.0268062879742511,0.0,0,0
Status,miller2_ProjBroCouID,0.0,0.0,0.0,0.0,0.3116809116809117,1.0,0.0,0.0,0.062144597887896,0.0,0.0256396277613989,0.0,0,0
Status,miller2_CouReID,0.0,0.0,0.0,0.0,0.3675213675213675,1.0,0.0,0.0,0.0576766856214459,0.0,0.0263935918445346,0.0,0,0
Status,miller2_CouRegPerc,0.0,0.0,0.0,0.0,0.0333333333333333,1.0,0.0,0.0,0.1632818846466287,0.0,0.025783292180892,0.0,0,0
Status,miller2_AmSp,0.0,0.0,0.0,0.0,0.0333333333333333,1.0,0.0,0.0,0.4904382470119522,0.0,0.0269268043736479,0.0,0,0
Enviromental sustainability (marker),miller2_FisY,0.0,0.0,0.0,0.0,0.02,1.0,0.0,0.0,0.3333333333333333,0.0,0.0309966919831498,0.0,0,0
Enviromental sustainability (marker),miller2_IndiIss,0.0,0.0,0.0,0.0,0.4766716943187532,1.0,1.0,0.0,0.75,0.0,0.030532030235297,0.0,0,0
Enviromental sustainability (marker),miller2_CFLI,0.0,0.0,0.0,0.0,0.4524876293297346,1.0,1.0,1.0,0.6666666666666666,0.0,0.0310365209085717,0.0,0,0
Enviromental sustainability (marker),miller2_PrograPr,0.0,0.0,0.0,0.0,0.02,1.0,0.0,0.0,0.3333333333333333,0.0,0.030336973410406,0.0,0,0
Enviromental sustainability (marker),miller2_SeID,0.0,0.0,0.0,0.0,0.4971788445472656,1.0,0.0,0.0,0.024390243902439,0.0,0.0310365209085717,0.0,0,0
Enviromental sustainability (marker),miller2_UrIss,0.0,0.0,0.0,0.0,0.4638921965547353,1.0,0.9969133156134784,0.0,0.75,0.0,0.0308614935321295,0.0,0,0
Enviromental sustainability (marker),miller2_ClimChaAdap,0.0,0.0,0.0,0.0,0.4388278388278388,1.0,0.943712442889424,1.0,1.0,0.0,0.0314419479587306,0.0,0,0
Enviromental sustainability (marker),miller2_Sta,0.0,0.0,0.0,0.0,0.02,1.0,0.0,0.0,1.0,0.0,0.0311791673330577,0.0,0,0
Enviromental sustainability (marker),miller2_EnviSustai,0.38753575,0.0,0.23479468,0.0,0.6164102564102565,1.0,1.0,0.0,1.0,0.0,0.0361823257759734,0.0,1,1
Enviromental sustainability (marker),miller2_CouRegNa,0.0,0.0,0.0,0.0,0.02,1.0,0.0,0.0,0.0206896551724137,0.0,0.030336973410406,0.0,0,0
Enviromental sustainability (marker),miller2_OrgaNa,0.0,0.0,0.0,0.0,0.02,1.0,0.0,0.0,0.0088495575221238,0.0,0.030653638325323,0.0,0,0
Enviromental sustainability (marker),miller2_FuCenNa,0.0,0.0,0.0,0.0,0.02,1.0,0.0,0.0,0.0576923076923076,0.0,0.0304922013098751,0.0,0,0
Enviromental sustainability (marker),miller2_PBATy,0.0,0.0,0.0,0.0,0.02,1.0,0.0,0.0,0.3333333333333333,0.0,0.0308216646067076,0.0,0,0
Enviromental sustainability (marker),miller2_ClChMit,0.0,0.0,0.0,0.0,0.527032967032967,1.0,1.0,1.0,0.75,0.0,0.030532030235297,0.0,0,0
Enviromental sustainability (marker),miller2_IRTCPer,0.0,0.0,0.0,0.0,0.05,1.0,1.0,1.0,1.0,0.0,0.0320517465101028,0.0,0,0
Enviromental sustainability (marker),miller2_OrgaT,0.0,0.0,0.0,0.0,0.02,1.0,0.0,0.0,0.75,0.0,0.0308216646067076,0.0,0,0
Enviromental sustainability (marker),miller2_MaxCIDAContr,0.0,0.0,0.0,0.0,0.05,1.0,0.0,0.0,0.0058365758754863,0.0,0.0311869053559177,0.0,0,0
Enviromental sustainability (marker),miller2_UntAmoProBud,0.0,0.0,0.0,0.0,0.05,1.0,1.0,1.0,0.0069124423963133,0.0,0.0311869053559177,0.0,0,0
Enviromental sustainability (marker),miller2_DivID,0.0,0.0,0.0,0.0,0.02,1.0,0.0,0.0,0.2307692307692307,0.0,0.0308216646067076,0.0,0,0
Enviromental sustainability (marker),miller2_SecPer,0.0,0.0,0.0,0.0,0.05,1.0,0.0,0.0,0.0162162162162162,0.0,0.0322454709286403,0.0,0,0
Enviromental sustainability (marker),miller2_FSTCPe,0.0,0.0,0.0,0.0,0.05,1.0,0.0,0.0,0.0612244897959183,0.0,0.0305988133710718,0.0,0,0
Enviromental sustainability (marker),Section ID,0.0,0.0,0.0,0.0,0.02,1.0,0.0,0.0,0.12,0.0,0.0313695763938311,0.0,0,0
Enviromental sustainability (marker),miller2_SeN,0.0,0.0,0.0,0.0,0.02,1.0,0.0,0.0,0.024390243902439,0.0,0.0311791673330577,0.0,0,0
Enviromental sustainability (marker),miller2_ConID,0.0,0.0,0.0,0.0,0.532014652014652,1.0,0.958576830525954,0.0,0.6,0.0,0.0308614935321295,0.0,0,0
Enviromental sustainability (marker),miller2_FCenID,0.0,0.0,0.0,0.0,0.5607744636316065,1.0,0.0,0.0,0.0576923076923076,0.0,0.0306934672507449,0.0,0,0
Enviromental sustainability (marker),miller2_YoIss,0.0,0.0,0.0,0.0,0.4329398156023543,1.0,0.9969133156134784,0.0,0.75,0.0,0.0308614935321295,0.0,0,0
Enviromental sustainability (marker),miller2_DisaIss,0.0,0.0,0.0,0.0,0.4820183944022954,1.0,1.0,0.0,0.75,0.0,0.030532030235297,0.0,0,0
Enviromental sustainability (marker),miller2_ICTAATFoDeve,0.0,0.0,0.0,0.0,0.5283516483516484,1.0,1.0,0.0,1.0,0.0,0.0298113292734761,0.0,0,0
Enviromental sustainability (marker),miller2_KnowlFoDeve,0.0,0.0,0.0,0.0,0.5013193617527982,1.0,1.0,0.0,0.75,0.0,0.0299449865427592,0.0,0,0
Enviromental sustainability (marker),miller2_GeEqu,0.0,0.0,0.0,0.0,0.4696656170340381,1.0,1.0,1.0,0.75,0.0,0.0308614935321295,0.0,0,0
Enviromental sustainability (marker),miller2_OrganID,0.0,0.0,0.0,0.0,0.02,1.0,0.0,0.0,0.0088495575221238,0.0,0.0304922013098751,0.0,0,0
Enviromental sustainability (marker),miller2_OrgCla,0.0,0.0,0.0,0.0,0.02,1.0,0.0,0.0,0.5,0.0,0.030653638325323,0.0,0,0
Enviromental sustainability (marker),miller2_OrgaSu,0.0,0.0,0.0,0.0,0.02,1.0,0.0,0.0,0.125,0.0,0.030653638325323,0.0,0,0
Enviromental sustainability (marker),miller2_ConNa,0.0,0.0,0.0,0.0,0.02,1.0,0.0,0.0,0.6,0.0,0.0308216646067076,0.0,0,0
Enviromental sustainability (marker),miller2_ProjBroCouID,0.0,0.0,0.0,0.0,0.02,1.0,0.0,0.0,0.0196078431372549,0.0,0.0297715003480542,0.0,0,0
Enviromental sustainability (marker),miller2_CouReID,0.0,0.0,0.0,0.0,0.02,1.0,0.0,0.0,0.0211267605633802,0.0,0.0304922013098751,0.0,0,0
Enviromental sustainability (marker),miller2_CouRegPerc,0.0,0.0,0.0,0.0,0.05,1.0,0.0,0.0,0.0074626865671641,0.0,0.0315136231252765,0.0,0,0
Enviromental sustainability (marker),miller2_AmSp,0.0,0.0,0.0,0.0,0.05,1.0,0.0,0.0,0.0005976095617529,0.0,0.0309418670288985,0.0,0,0
CountryRegion name,miller2_FisY,0.0,0.0,0.0,0.0,0.4103318903318903,1.0,0.0,0.0,0.0001633719980395,0.0,0.0279618371374571,0.0,0,0
CountryRegion name,miller2_IndiIss,0.0,0.0,0.0,0.0,0.02,1.0,0.0,0.0,0.0006534879921581,0.0,0.027390580788841,0.0,0,0
CountryRegion name,miller2_CFLI,0.0,0.0,0.0,0.0,0.02,1.0,0.0,0.0,0.000326743996079,0.0,0.0278895679274981,0.0,0,0
CountryRegion name,miller2_PrograPr,0.0,0.0,0.0,0.0,0.6654160654160655,1.0,0.0,0.0,0.0001633719980395,0.0,0.0297376443073839,0.0,0,0
CountryRegion name,miller2_SeID,0.0,0.0,0.0,0.0,0.02,1.0,0.0,0.0,0.0200947557588629,0.0,0.0278895679274981,0.0,0,0
CountryRegion name,miller2_UrIss,0.0,0.0,0.0,0.0,0.02,1.0,0.0,0.0,0.0006534879921581,0.0,0.0277125079750714,0.0,0,0
CountryRegion name,miller2_ClimChaAdap,0.0,0.0,0.0,0.0,0.02,1.0,0.0,0.0,0.0004901159941186,0.0,0.0290763481491691,0.0,0,0
CountryRegion name,miller2_Sta,0.0,0.0,0.0,0.0,0.4186933066933067,1.0,0.0,0.0,0.0004901159941186,0.0,0.0281511081210856,0.0,0,0
CountryRegion name,miller2_EnviSustai,0.0,0.0,0.0,0.0,0.02,1.0,0.0,0.0,0.0004901159941186,0.0,0.0292617825588052,0.0,0,0
CountryRegion name,miller2_CouRegNa,0.0,0.0,0.0,0.0,0.6616944959802102,1.0,0.9664478829631312,1.0,0.0236889397157327,0.0,0.0394238652342577,0.0,1,1
CountryRegion name,miller2_OrgaNa,0.0,0.0,0.0,0.0,0.5560173160173161,1.0,0.0,0.0,0.0553831073354027,0.0,0.0301916859133311,0.0,0,0
CountryRegion name,miller2_FuCenNa,0.0,0.0,0.0,0.0,0.5448690991548135,1.0,0.0,0.0,0.0084953438980558,0.0,0.0324527213853713,0.0,0,0
CountryRegion name,miller2_PBATy,0.0,0.0,0.0,0.0,0.4740962740962741,1.0,0.0,0.0,0.0001633719980395,0.0,0.0277847771850303,0.0,0,0
CountryRegion name,miller2_ClChMit,0.0,0.0,0.0,0.0,0.02,1.0,0.0,0.0,0.0006534879921581,0.0,0.027390580788841,0.0,0,0
CountryRegion name,miller2_IRTCPer,0.0,0.0,0.0,0.0,0.0333333333333333,1.0,0.0,0.0,0.0004901159941186,0.0,0.0298375626824812,0.0,0,0
CountryRegion name,miller2_OrgaT,0.0,0.0,0.0,0.0,0.5025454545454546,1.0,0.0,0.0,0.0006534879921581,0.0,0.0304406764714312,0.0,0,0
CountryRegion name,miller2_MaxCIDAContr,0.0,0.0,0.0,0.0,0.0333333333333333,1.0,0.0,0.0,0.0839732069923215,0.0,0.0331860290076804,0.0,0,0
CountryRegion name,miller2_UntAmoProBud,0.0,0.0,0.0,0.0,0.0333333333333333,1.0,0.0,0.0,0.0709034471491586,0.0,0.0310193743266692,0.0,0,0
CountryRegion name,miller2_DivID,0.0,0.0,0.0,0.0,0.6244107744107744,1.0,0.0,0.0,0.0021238359745139,0.0,0.0277847771850303,0.0,0,0
CountryRegion name,miller2_SecPer,0.0,0.0,0.0,0.0,0.0333333333333333,1.0,0.0,0.0,0.0302238196373141,0.0,0.0300714629037268,0.0,0,0
CountryRegion name,miller2_FSTCPe,0.0,0.0,0.0,0.0,0.0333333333333333,1.0,0.0,0.0,0.0080052279039372,0.0,0.0274985604700259,0.0,0,0
CountryRegion name,Section ID,0.0,0.0,0.0,0.0,0.8331623931623933,1.0,0.0,0.0,0.0040842999509884,0.0,0.0371752782333763,0.0,0,0
CountryRegion name,miller2_SeN,0.0,0.0,0.0,0.0,0.627972027972028,1.0,0.0,0.0,0.0200947557588629,0.0,0.0281511081210856,0.0,0,0
CountryRegion name,miller2_ConID,0.0,0.0,0.0,0.0,0.02,1.0,0.0,0.0,0.0008168599901976,0.0,0.0303684072614723,0.0,0,0
CountryRegion name,miller2_FCenID,0.0,0.0,0.0,0.0,0.02,1.0,0.0,0.0,0.0084953438980558,0.0,0.0301194167033722,0.0,0,0
CountryRegion name,miller2_YoIss,0.0,0.0,0.0,0.0,0.02,1.0,0.0,0.0,0.0006534879921581,0.0,0.0277125079750714,0.0,0,0
CountryRegion name,miller2_DisaIss,0.0,0.0,0.0,0.0,0.02,1.0,0.0,0.0,0.0006534879921581,0.0,0.0298855164821267,0.0,0,0
CountryRegion name,miller2_ICTAATFoDeve,0.0,0.0,0.0,0.0,0.02,1.0,0.0,0.0,0.0004901159941186,0.0,0.0310673281263146,0.0,0,0
CountryRegion name,miller2_KnowlFoDeve,0.0,0.0,0.0,0.0,0.02,1.0,0.0,0.0,0.0006534879921581,0.0,0.0290763481491691,0.0,0,0
CountryRegion name,miller2_GeEqu,0.0,0.0,0.0,0.0,0.02,1.0,0.0,0.0,0.0006534879921581,0.0,0.0277125079750714,0.0,0,0
CountryRegion name,miller2_OrganID,0.0,0.0,0.0,0.0,0.7373737373737375,1.0,0.0,0.0,0.0553831073354027,0.0,0.0299577856920856,0.0,0,0
CountryRegion name,miller2_OrgCla,0.0,0.0,0.0,0.0,0.506916786916787,1.0,0.0,0.0,0.0009802319882372,0.0,0.0301916859133311,0.0,0,0
CountryRegion name,miller2_OrgaSu,0.0,0.0,0.0,0.0,0.4817508417508418,1.0,0.0,0.0,0.0039209279529488,0.0,0.0301916859133311,0.0,0,0
CountryRegion name,miller2_ConNa,0.0,0.0,0.0,0.0,0.5951515151515152,1.0,0.8690467467047605,0.0,0.0008168599901976,0.0,0.0330965757578321,0.0,0,0
CountryRegion name,miller2_ProjBroCouID,0.0,0.0,0.0,0.0,0.6405303030303031,1.0,0.0,0.0,0.024995915700049,0.0,0.0289729426552623,0.0,0,0
CountryRegion name,miller2_CouReID,0.0,0.0,0.0,0.0,0.6747811447811448,1.0,0.0,0.0,0.0231988237216141,0.0,0.0349476570786569,0.0,0,0
CountryRegion name,miller2_CouRegPerc,0.15872504,0.0,0.1984063,0.0,0.0333333333333333,1.0,0.0,0.0,0.0656755432118934,0.0,0.0383619263012073,0.0,0,0
CountryRegion name,miller2_AmSp,0.0,0.0,0.0,0.0,0.0333333333333333,1.0,0.0,0.0,0.8201274301584708,0.0,0.0278416141278527,0.0,0,0
Organisation name,miller2_FisY,0.0,0.0,0.0,0.0,0.4521212121212121,1.0,0.0,0.0,9.222539887485012e-05,0.0,0.0309901728755141,0.0,0,0
Organisation name,miller2_IndiIss,0.0,0.0,0.0,0.0,0.02,1.0,0.0,0.0,0.0003689015954994,0.0,0.032692319137073,0.0,0,0
Organisation name,miller2_CFLI,0.0,0.0,0.0,0.0,0.02,1.0,0.0,0.0,0.0001844507977497,0.0,0.0280788389111267,0.0,0,0
Organisation name,miller2_PrograPr,0.0,0.0,0.0,0.0,0.5525541125541126,1.0,0.0,0.0,9.222539887485012e-05,0.0,0.0299577856920856,0.0,0,0
Organisation name,miller2_SeID,0.0,0.0,0.0,0.0,0.02,1.0,0.0,0.0,0.0113437240616065,0.0,0.0280788389111267,0.0,0,0
Organisation name,miller2_UrIss,0.0,0.0,0.0,0.0,0.02,1.0,0.0,0.0,0.0003689015954994,0.0,0.0278895679274981,0.0,0,0
Organisation name,miller2_ClimChaAdap,0.0,0.0,0.0,0.0,0.02,1.0,0.0,0.0,0.0002766761966245,0.0,0.0315488069443171,0.0,0,0
Organisation name,miller2_Sta,0.0,0.0,0.0,0.0,0.4559307359307359,1.0,0.0,0.0,0.0002766761966245,0.0,0.0312943583849172,0.0,0,0
Organisation name,miller2_EnviSustai,0.0,0.0,0.0,0.0,0.02,1.0,0.0,0.0,0.0002766761966245,0.0,0.0365149170385714,0.0,0,0
Organisation name,miller2_CouRegNa,0.0,0.0,0.0,0.0,0.4977644577644577,1.0,0.0,0.0,0.0133726828368532,0.0,0.0299577856920856,0.0,0,0
Organisation name,miller2_OrgaNa,0.0,0.0,0.0,0.0,0.601038961038961,1.0,0.0,0.0,0.0312644102185741,0.0,0.035752475044233,0.0,1,1
Organisation name,miller2_FuCenNa,0.0,0.0,0.0,0.0,0.47998667998668,1.0,0.0,0.0,0.0047957207414922,0.0,0.0301916859133311,0.0,0,0
Organisation name,miller2_PBATy,0.0,0.0,0.0,0.0,0.4077922077922078,1.0,0.0,0.0,9.222539887485012e-05,0.0,0.0279618371374571,0.0,0,0
Organisation name,miller2_ClChMit,0.0,0.0,0.0,0.0,0.02,1.0,0.0,0.0,0.0003689015954994,0.0,0.0301194167033722,0.0,0,0
Organisation name,miller2_IRTCPer,0.0,0.0,0.0,0.0,0.0333333333333333,1.0,0.0,0.0,0.0002766761966245,0.0,0.0274985604700259,0.0,0,0
Organisation name,miller2_OrgaT,0.0,0.0,0.0,0.0,0.5454545454545454,1.0,0.0,0.0,0.0003689015954994,0.0,0.0334506956626855,0.0,0,0
Organisation name,miller2_MaxCIDAContr,0.0,0.0,0.0,0.0,0.0333333333333333,1.0,0.0,0.0,0.0474038550216729,0.0,0.0312536072651569,0.0,0,0
Organisation name,miller2_UntAmoProBud,0.0,0.0,0.0,0.0,0.0333333333333333,1.0,0.0,0.0,0.0400258231116849,0.0,0.0312536072651569,0.0,0,0
Organisation name,miller2_DivID,0.0,0.0,0.0,0.0,0.5223722943722944,1.0,0.0,0.0,0.001198930185373,0.0,0.0279618371374571,0.0,0,0
Organisation name,miller2_SecPer,0.0,0.0,0.0,0.0,0.0333333333333333,1.0,0.0,0.0,0.0170616987918472,0.0,0.027664554175426,0.0,0,0
Organisation name,miller2_FSTCPe,0.0,0.0,0.0,0.0,0.0333333333333333,1.0,0.0,0.0,0.0045190445448676,0.0,0.027664554175426,0.0,0,0
Organisation name,Section ID,0.0,0.0,0.0,0.0,0.7476190476190476,1.0,0.0,0.0,0.0023056349718712,0.0,0.0377198078489744,0.0,0,0
Organisation name,miller2_SeN,0.0,0.0,0.0,0.0,0.6175664335664336,1.0,0.0,0.0,0.0113437240616065,0.0,0.0283538984606877,0.0,0,0
Organisation name,miller2_ConID,0.0,0.0,0.0,0.0,0.02,1.0,0.0,0.0,0.0004611269943742,0.0,0.0306339971901124,0.0,0,0
Organisation name,miller2_FCenID,0.0,0.0,0.0,0.0,0.02,1.0,0.0,0.0,0.0047957207414922,0.0,0.0277125079750714,0.0,0,0
Organisation name,miller2_YoIss,0.0,0.0,0.0,0.0,0.02,1.0,0.0,0.0,0.0003689015954994,0.0,0.0278895679274981,0.0,0,0
Organisation name,miller2_DisaIss,0.0,0.0,0.0,0.0,0.02,1.0,0.0,0.0,0.0003689015954994,0.0,0.032692319137073,0.0,0,0
Organisation name,miller2_ICTAATFoDeve,0.0,0.0,0.0,0.0,0.02,1.0,0.0,0.0,0.0002766761966245,0.0,0.0290763481491691,0.0,0,0
Organisation name,miller2_KnowlFoDeve,0.0,0.0,0.0,0.0,0.02,1.0,0.0,0.0,0.0003689015954994,0.0,0.0315488069443171,0.0,0,0
Organisation name,miller2_GeEqu,0.0,0.0,0.0,0.0,0.02,1.0,0.0,0.0,0.0003689015954994,0.0,0.0278895679274981,0.0,0,0
Organisation name,miller2_OrganID,0.20702644,0.0,0.25878304,0.0,0.6492929292929293,1.0,0.0,0.0,0.0312644102185741,0.0,0.0353374907807328,0.0,0,0
Organisation name,miller2_OrgCla,0.0,0.0,0.0,0.0,0.4900779220779221,1.0,0.0,0.0,0.0005533523932491,0.0,0.0330965757578321,0.0,0,0
Organisation name,miller2_OrgaSu,0.0,0.0,0.0,0.0,0.4992207792207792,1.0,0.0,0.0,0.0022134095729964,0.0,0.0330965757578321,0.0,0,0
Organisation name,miller2_ConNa,0.0,0.0,0.0,0.0,0.6477156527682844,1.0,0.0,0.0,0.0004611269943742,0.0,0.0334506956626855,0.0,0,0
Organisation name,miller2_ProjBroCouID,0.0,0.0,0.0,0.0,0.4893135435992579,1.0,0.0,0.0,0.014110486027852,0.0,0.0269234044434949,0.0,0,0
Organisation name,miller2_CouReID,0.0,0.0,0.0,0.0,0.5223722943722944,1.0,0.0,0.0,0.0130960066402287,0.0,0.0301916859133311,0.0,0,0
Organisation name,miller2_CouRegPerc,0.0,0.0,0.0,0.0,0.0333333333333333,1.0,0.0,0.0,0.0370746103476897,0.0,0.0294098594207751,0.0,0,0
Organisation name,miller2_AmSp,0.0,0.0,0.0,0.0,0.0333333333333333,1.0,0.0,0.0,0.4629715023517476,0.0,0.0280308851114813,0.0,0,0
Fund centre name,miller2_FisY,0.0,0.0,0.0,0.0,0.457022977022977,1.0,0.0,0.0,0.0001132759401903,0.0,0.0283538984606877,0.0,0,0
Fund centre name,miller2_IndiIss,0.0,0.0,0.0,0.0,0.02,1.0,0.0,0.0,0.0004531037607612,0.0,0.0303684072614723,0.0,0,0
Fund centre name,miller2_CFLI,0.0,0.0,0.0,0.0,0.02,1.0,0.0,0.0,0.0002265518803806,0.0,0.0282816292507287,0.0,0,0
Fund centre name,miller2_PrograPr,0.0,0.0,0.0,0.0,0.5482047364400305,1.0,0.0,0.0,0.0001132759401903,0.0,0.0301916859133311,0.0,0,0
Fund centre name,miller2_SeID,0.0,0.0,0.0,0.0,0.02,1.0,0.0,0.0,0.0139329406434073,0.0,0.0312220891749583,0.0,0,0
Fund centre name,miller2_UrIss,0.0,0.0,0.0,0.0,0.02,1.0,0.0,0.0,0.0004531037607612,0.0,0.0280788389111267,0.0,0,0
Fund centre name,miller2_ClimChaAdap,0.0,0.0,0.0,0.0,0.02,1.0,0.0,0.0,0.0003398278205709,0.0,0.0294578132204205,0.0,0,0
Fund centre name,miller2_Sta,0.0,0.0,0.0,0.0,0.4113086913086913,1.0,0.0,0.0,0.0003398278205709,0.0,0.031621076154276,0.0,0,0
Fund centre name,miller2_EnviSustai,0.0,0.0,0.0,0.0,0.02,1.0,0.0,0.0,0.0003398278205709,0.0,0.0320869303291434,0.0,0,0
Fund centre name,miller2_CouRegNa,0.0,0.0,0.0,0.0,0.5406967635539064,1.0,0.0,0.0,0.016425011327594,0.0,0.032764588347032,0.0,0,0
Fund centre name,miller2_OrgaNa,0.0,0.0,0.0,0.0,0.5241991341991342,1.0,0.0,0.0,0.0384005437245129,0.0,0.0307062664000713,0.0,0,0
Fund centre name,miller2_FuCenNa,0.0,0.0,0.0,0.0,0.6769325912183055,1.0,0.0,0.0,0.0058903488898957,0.0,0.035752475044233,0.0,1,1
Fund centre name,miller2_PBATy,0.0,0.0,0.0,0.0,0.4094239094239094,1.0,0.0,0.0,0.0001132759401903,0.0,0.0281511081210856,0.0,0,0
Fund centre name,miller2_ClChMit,0.0,0.0,0.0,0.0,0.02,1.0,0.0,0.0,0.0004531037607612,0.0,0.0277125079750714,0.0,0,0
Fund centre name,miller2_IRTCPer,0.0,0.0,0.0,0.0,0.0333333333333333,1.0,0.0,0.0,0.0003398278205709,0.0,0.0303204534618268,0.0,0,0
Fund centre name,miller2_OrgaT,0.0,0.0,0.0,0.0,0.4055944055944056,1.0,0.0,0.0,0.0004531037607612,0.0,0.0309901728755141,0.0,0,0
Fund centre name,miller2_MaxCIDAContr,0.0,0.0,0.0,0.0,0.0333333333333333,1.0,0.0,0.0,0.058223833257816,0.0,0.0315008531446717,0.0,0,0
Fund centre name,miller2_UntAmoProBud,0.0,0.0,0.0,0.0,0.0333333333333333,1.0,0.0,0.0,0.0491617580425917,0.0,0.0315008531446717,0.0,0,0
Fund centre name,miller2_DivID,0.0,0.0,0.0,0.0,0.5315380697733639,1.0,0.0,0.0,0.0014725872224739,0.0,0.0281511081210856,0.0,0,0
Fund centre name,miller2_SecPer,0.0,0.0,0.0,0.0,0.0333333333333333,1.0,0.0,0.0,0.0209560489352061,0.0,0.0333304726530812,0.0,0,0
Fund centre name,miller2_FSTCPe,0.0,0.0,0.0,0.0,0.0333333333333333,1.0,0.0,0.0,0.0055505210693248,0.0,0.0305860433904669,0.0,0,0
Fund centre name,Section ID,0.0,0.0,0.0,0.0,0.7484033613445378,1.0,0.0,0.0,0.0028318985047575,0.0,0.0319729260597394,0.0,0,0
Fund centre name,miller2_SeN,0.0,0.0,0.0,0.0,0.6228438228438229,1.0,0.0,0.0,0.0139329406434073,0.0,0.031621076154276,0.0,0,0
Fund centre name,miller2_ConID,0.0,0.0,0.0,0.0,0.02,1.0,0.0,0.0,0.0005663797009515,0.0,0.0309179036655552,0.0,0,0
Fund centre name,miller2_FCenID,0.0,0.0,0.0,0.0,0.02,1.0,0.0,0.0,0.0058903488898957,0.0,0.0333784264527266,0.0,0,0
Fund centre name,miller2_YoIss,0.0,0.0,0.0,0.0,0.02,1.0,0.0,0.0,0.0004531037607612,0.0,0.0280788389111267,0.0,0,0
Fund centre name,miller2_DisaIss,0.0,0.0,0.0,0.0,0.02,1.0,0.0,0.0,0.0004531037607612,0.0,0.0303684072614723,0.0,0,0
Fund centre name,miller2_ICTAATFoDeve,0.0,0.0,0.0,0.0,0.02,1.0,0.0,0.0,0.0003398278205709,0.0,0.0315488069443171,0.0,0,0
Fund centre name,miller2_KnowlFoDeve,0.0,0.0,0.0,0.0,0.02,1.0,0.0,0.0,0.0004531037607612,0.0,0.0318101811598042,0.0,0,0
Fund centre name,miller2_GeEqu,0.0,0.0,0.0,0.0,0.02,1.0,0.0,0.0,0.0004531037607612,0.0,0.0309179036655552,0.0,0,0
Fund centre name,miller2_OrganID,0.0,0.0,0.0,0.0,0.6507257448433919,1.0,0.0,0.0,0.0384005437245129,0.0,0.0304406764714312,0.0,0,0
Fund centre name,miller2_OrgCla,0.0,0.0,0.0,0.0,0.4057202057202057,1.0,0.0,0.0,0.0006796556411418,0.0,0.0307062664000713,0.0,0,0
Fund centre name,miller2_OrgaSu,0.0,0.0,0.0,0.0,0.4602175602175602,1.0,0.0,0.0,0.0027186225645672,0.0,0.0307062664000713,0.0,0,0
Fund centre name,miller2_ConNa,0.0,0.0,0.0,0.0,0.583934583934584,1.0,0.0,0.0,0.0005663797009515,0.0,0.0338292376299427,0.0,0,0
Fund centre name,miller2_ProjBroCouID,0.0,0.0,0.0,0.0,0.4908757745522452,1.0,0.0,0.0,0.0173312188491164,0.0,0.0270470273832523,0.0,0,0
Fund centre name,miller2_CouReID,0.0,0.0,0.0,0.0,0.5315380697733639,1.0,0.0,0.0,0.0160851835070231,0.0,0.0304406764714312,0.0,0,0
Fund centre name,miller2_CouRegPerc,0.0,0.0,0.0,0.0,0.0333333333333333,1.0,0.0,0.0,0.045536927956502,0.0,0.032038976529498,0.0,0,0
Fund centre name,miller2_AmSp,0.0,0.0,0.0,0.0,0.0333333333333333,1.0,0.0,0.0,0.568645219755324,0.0,0.0311741353753128,0.0,0,0
PBA type,miller2_FisY,0.0,0.0,0.0,0.0,0.2727272727272727,1.0,0.0,0.0,0.0012224938875305,0.0,0.0265896225061499,0.0,0,0
PBA type,miller2_IndiIss,0.0,0.0,0.0,0.0,0.02,1.0,0.0,0.0,0.0048899755501222,0.0,0.02598039974481,0.0,0,0
PBA type,miller2_CFLI,0.0,0.0,0.0,0.0,0.02,1.0,0.0,0.0,0.0024449877750611,0.0,0.026517353296191,0.0,0,0
PBA type,miller2_PrograPr,0.0,0.0,0.0,0.0,0.5313131313131314,1.0,0.0,0.0,0.0012224938875305,0.0,0.0259035151904964,0.0,0,0
PBA type,miller2_SeID,0.0,0.0,0.0,0.0,0.02,1.0,0.0,0.0,0.1503667481662591,0.0,0.026517353296191,0.0,0,0
PBA type,miller2_UrIss,0.0,0.0,0.0,0.0,0.02,1.0,0.0,0.0,0.0048899755501222,0.0,0.0263213226345757,0.0,0,0
PBA type,miller2_ClimChaAdap,0.0,0.0,0.0,0.0,0.02,1.0,0.0,0.0,0.0036674816625916,0.0,0.028499441096968,0.0,0,0
PBA type,miller2_Sta,0.0,0.0,0.0,0.0,0.4268398268398268,1.0,0.0,0.0,0.0036674816625916,0.0,0.0268062879742511,0.0,0,0
PBA type,miller2_EnviSustai,0.0,0.0,0.0,0.0,0.02,1.0,0.0,0.0,0.0036674816625916,0.0,0.0255673585514399,0.0,0,0
PBA type,miller2_CouRegNa,0.0,0.0,0.0,0.0,0.41002997002997,1.0,0.0,0.0,0.1772616136919315,0.0,0.0259035151904964,0.0,0,0
PBA type,miller2_OrgaNa,0.0,0.0,0.0,0.0,0.4520359640359641,1.0,0.0,0.0,0.4144254278728606,0.0,0.0262153821521571,0.0,0,0
PBA type,miller2_FuCenNa,0.0,0.0,0.0,0.0,0.41002997002997,1.0,0.0,0.0,0.0635696821515892,0.0,0.0260526689547689,0.0,0,0
PBA type,miller2_PBATy,0.0,0.0,0.0,0.0,0.7624242424242424,1.0,0.0,0.0,0.0012224938875305,0.0,0.0381554315414528,0.0,1,1
PBA type,miller2_ClChMit,0.0,0.0,0.0,0.0,0.02,1.0,0.0,0.0,0.0048899755501222,0.0,0.02598039974481,0.0,0,0
PBA type,miller2_IRTCPer,0.0,0.0,0.0,0.0,0.0333333333333333,1.0,0.0,0.0,0.0036674816625916,0.0,0.0295121362877048,0.0,0,0
PBA type,miller2_OrgaT,0.0,0.0,0.0,0.0,0.387012987012987,1.0,0.0,0.0,0.0048899755501222,0.0,0.0263935918445346,0.0,0,0
PBA type,miller2_MaxCIDAContr,0.0,0.0,0.0,0.0,0.0333333333333333,1.0,0.0,0.0,0.628361858190709,0.0,0.0282336754510833,0.0,0,0
PBA type,miller2_UntAmoProBud,0.0,0.0,0.0,0.0,0.0333333333333333,1.0,0.0,0.0,0.530562347188264,0.0,0.0282336754510833,0.0,0,0
PBA type,miller2_DivID,0.0,0.0,0.0,0.0,0.3713131313131313,1.0,0.0,0.0,0.0158924205378973,0.0,0.0263935918445346,0.0,0,0
PBA type,miller2_SecPer,0.0,0.0,0.0,0.0,0.0333333333333333,1.0,0.0,0.0,0.226161369193154,0.0,0.0298375626824812,0.0,0,0
PBA type,miller2_FSTCPe,0.18001272,0.0,0.2250159,0.0,0.0333333333333333,1.0,0.0,0.0,0.0599022004889975,0.0,0.0298375626824812,0.0,0,0
PBA type,Section ID,0.0,0.0,0.0,0.0,0.6000000000000001,1.0,0.0,0.0,0.030562347188264,0.0,0.0270470273832523,0.0,0,0
PBA type,miller2_SeN,0.0,0.0,0.0,0.0,0.5459536541889483,1.0,0.0,0.0,0.1503667481662591,0.0,0.0268062879742511,0.0,0,0
PBA type,miller2_ConID,0.0,0.0,0.0,0.0,0.02,1.0,0.0,0.0,0.0061124694376528,0.0,0.0263213226345757,0.0,0,0
PBA type,miller2_FCenID,0.0,0.0,0.0,0.0,0.02,1.0,0.0,0.0,0.0635696821515892,0.0,0.0261431129421981,0.0,0,0
