sourceName,targName,ComaInstResult,ComaInstAdjusted,ComaOptResult,ComaOptAdjusted,CupidResult,CupidAdjusted,DistributionBasedResult,DistributionBasedAdjusted,JaccardLevenMatcherResult,JaccardLevenMatcherAdjusted,SimilarityFloodingResult,SimilarityFloodingAdjusted,SmatResult,groundtruth
Fiscal year,miller2_fsclr,0.116873085,0.0,0.14609136,0.0,0.6363636363636364,1.0,0.0,0.0,0.0333333333333333,0.0,0.0445229370867501,0.0,1,1
Fiscal year,miller2_brnchd,0.0,0.0,0.0,0.0,0.446993006993007,1.0,0.0,0.0,0.1666666666666666,0.0,0.0400838607321679,0.0,0,0
Fiscal year,miller2_rgnstnsb-clss,0.0,0.0,0.0,0.0,0.4717703349282297,1.0,0.0,0.0,0.8,0.0,0.0368693571650566,0.0,0,0
Fiscal year,miller2_cntnntd,0.0,0.0,0.0,0.0,0.02,1.0,0.0,0.0,0.1666666666666666,0.0,0.0394196993285313,0.0,0,0
Fiscal year,miller2_sctrprcnt,0.0,0.0,0.0,0.0,0.0333333333333333,1.0,0.0,0.0,0.1621621621621621,0.0,0.0383349103180747,0.0,0,0
Fiscal year,miller2_sctrnm,0.0,0.0,0.0,0.0,0.4787878787878788,1.0,0.0,0.0,0.2439024390243902,0.0,0.0400838607321679,0.0,0,0
Fiscal year,miller2_stts,0.0,0.0,0.0,0.0,0.446993006993007,1.0,0.0,0.0,0.1,0.0,0.0413616758147463,0.0,0,0
Fiscal year,miller2_prjctnmbr,0.0,0.0,0.0,0.0,0.4377622377622377,1.0,0.0,0.0,0.046656298600311,0.0,0.0385094100054195,0.0,0,0
Fiscal year,miller2_clmtchngmtgtn(mrkr),0.0,0.0,0.0,0.0,0.02,1.0,0.0,0.0,0.1333333333333333,0.0,0.0349576932203376,0.0,0,0
Fiscal year,miller2_gndrqlt(mrkr),0.0,0.0,0.0,0.0,0.02,1.0,0.0,0.0,0.1333333333333333,0.0,0.0367703832017913,0.0,0,0
Fiscal year,miller2_prtcptrdvlpmntndgdgvrnnc,0.0,0.0,0.0,0.0,0.02,1.0,0.0,0.0,0.1333333333333333,0.0,0.0338335443946299,0.0,0,0
Fiscal year,miller2_mxmmcdcntrbtn(prjct-lvl),0.0,0.0,0.0,0.0,0.0333333333333333,1.0,0.0,0.0,0.0583657587548638,0.0,0.0337580186705504,0.0,0,0
Fiscal year,miller2_rgnlprgrm(mrkr),0.0,0.0,0.0,0.0,0.02,1.0,0.0,0.0,0.0666666666666666,0.0,0.0360950673263478,0.0,0,0
Fiscal year,miller2_sctnd,0.0,0.0,0.0,0.0,0.4909090909090909,1.0,0.0,0.0,0.8333333333333334,0.0,0.0406961471259034,0.0,0,0
Fiscal year,miller2_ntdmnt(prjct-lvlbdgt),0.0,0.0,0.0,0.0,0.0333333333333333,1.0,0.0,0.0,0.0691244239631336,0.0,0.0343987835012038,0.0,0,0
Fiscal year,miller2_rbnsss(mrkr),0.0,0.0,0.0,0.0,0.02,1.0,0.0,0.0,0.1333333333333333,0.0,0.0371407177141313,0.0,0,0
Fiscal year,miller2_chldrnsss(mrkr),0.0,0.0,0.0,0.0,0.02,1.0,0.0,0.0,0.1333333333333333,0.0,0.0360950673263478,0.0,0,0
Fiscal year,miller2_thsss(mrkr),0.0,0.0,0.0,0.0,0.02,1.0,0.0,0.0,0.1333333333333333,0.0,0.0375357411939607,0.0,0,0
Fiscal year,miller2_ndgnssss(mrkr),0.0,0.0,0.0,0.0,0.02,1.0,0.0,0.0,0.1333333333333333,0.0,0.0364224932053507,0.0,0,0
Fiscal year,miller2_dsbltsss(mrkr),0.0,0.0,0.0,0.0,0.02,1.0,0.0,0.0,0.1333333333333333,0.0,0.0364224932053507,0.0,0,0
Fiscal year,miller2_ctstlfrdvlpmnt(mrkr),0.0,0.0,0.0,0.0,0.02,1.0,0.0,0.0,0.1,0.0,0.0347098039921046,0.0,0,0
Fiscal year,miller2_knwldgfrdvlpmnt(mrkr),0.0,0.0,0.0,0.0,0.02,1.0,0.0,0.0,0.1333333333333333,0.0,0.0344743092252833,0.0,0,0
Fiscal year,miller2_rgnstnd,0.0,0.0,0.0,0.0,0.4433566433566434,1.0,0.0,0.0,0.0884955752212389,0.0,0.0395186732917967,0.0,0,0
Fiscal year,miller2_rgnstnnm,0.0,0.0,0.0,0.0,0.4403263403263403,1.0,0.0,0.0,0.0884955752212389,0.0,0.0389953515877493,0.0,0,0
Fiscal year,miller2_rgnstntp,0.0,0.0,0.0,0.0,0.4403263403263403,1.0,0.0,0.0,0.1333333333333333,0.0,0.0389953515877493,0.0,0,0
Fiscal year,miller2_rgnstnclss,0.0,0.0,0.0,0.0,0.4954545454545455,1.0,0.0,0.0,0.2,0.0,0.0380569816356642,0.0,0,0
Fiscal year,miller2_cntnntnm,0.0,0.0,0.0,0.0,0.4355644355644356,1.0,0.0,0.0,0.1666666666666666,0.0,0.0389953515877493,0.0,0,0
Fiscal year,miller2_prjctbrwsrcntrd,0.0,0.0,0.0,0.0,0.4450882450882451,1.0,0.0,0.0,0.196078431372549,0.0,0.0361940412896131,0.0,0,0
Fiscal year,miller2_cntrrgnd,0.0,0.0,0.0,0.0,0.4403263403263403,1.0,0.0,0.0,0.2112676056338028,0.0,0.0389953515877493,0.0,0,0
Fiscal year,miller2_cntrrgnnm,0.0,0.0,0.0,0.0,0.4377622377622377,1.0,0.0,0.0,0.2068965517241379,0.0,0.0385094100054195,0.0,0,0
Fiscal year,miller2_cntrrgnprcnt,0.0,0.0,0.0,0.0,0.0333333333333333,1.0,0.0,0.0,0.0746268656716417,0.0,0.0370651919900519,0.0,0,0
Fiscal year,miller2_sctrd,0.0,0.0,0.0,0.0,0.02,1.0,0.0,0.0,0.2439024390243902,0.0,0.040597173162638,0.0,0,0
Fiscal year,miller2_mntspnt,0.0,0.0,0.0,0.0,0.0333333333333333,1.0,0.0,0.0,0.0059760956175298,0.0,0.0393441736044519,0.0,0,0
Branch ID,miller2_fsclr,0.0,0.0,0.0,0.0,0.3616161616161616,1.0,0.0,0.0,0.0086206896551724,0.0,0.0337383471970911,0.0,0,0
Branch ID,miller2_brnchd,0.2593957,0.0,0.19749463,0.0,0.6277777777777779,1.0,0.0,0.0,0.043103448275862,0.0,0.0413616758147463,0.0,1,1
Branch ID,miller2_rgnstnsb-clss,0.0,0.0,0.0,0.0,0.4152046783625731,1.0,0.0,0.0,0.2068965517241379,0.0,0.0345732831885486,0.0,0,0
Branch ID,miller2_cntnntd,0.0,0.0,0.0,0.0,0.02,1.0,0.0,0.0,0.043103448275862,0.0,0.0329435932409446,0.0,0,0
Branch ID,miller2_sctrprcnt,0.0,0.0,0.0,0.0,0.0333333333333333,1.0,0.0,0.0,0.6270270270270271,0.0,0.0322793305998118,0.0,0,0
Branch ID,miller2_sctrnm,0.0,0.0,0.0,0.0,0.4222222222222223,1.0,0.0,0.0,0.943089430894309,0.0,0.0333753315486314,0.0,0,0
Branch ID,miller2_stts,0.0,0.0,0.0,0.0,0.3196581196581197,1.0,0.0,0.0,0.0258620689655172,0.0,0.0297624615234841,0.0,0,0
Branch ID,miller2_prjctnmbr,0.0,0.0,0.0,0.0,0.3955555555555556,1.0,0.0,0.0,0.1804043545878693,0.0,0.0324538302871566,0.0,0,0
Branch ID,miller2_clmtchngmtgtn(mrkr),0.0,0.0,0.0,0.0,0.02,1.0,0.0,0.0,0.0344827586206896,0.0,0.0329435932409446,0.0,0,0
Branch ID,miller2_gndrqlt(mrkr),0.0,0.0,0.0,0.0,0.02,1.0,0.0,0.0,0.0344827586206896,0.0,0.0314128772566059,0.0,0,0
Branch ID,miller2_prtcptrdvlpmntndgdgvrnnc,0.0,0.0,0.0,0.0,0.02,1.0,0.0,0.0,0.0344827586206896,0.0,0.03201022983586,0.0,0,0
Branch ID,miller2_mxmmcdcntrbtn(prjct-lvl),0.0,0.0,0.0,0.0,0.0333333333333333,1.0,0.0,0.0,0.22568093385214,0.0,0.0319347041117806,0.0,0,0
Branch ID,miller2_rgnlprgrm(mrkr),0.0,0.0,0.0,0.0,0.02,1.0,0.0,0.0,0.0172413793103448,0.0,0.0310301982605212,0.0,0,0
Branch ID,miller2_sctnd,0.0,0.0,0.0,0.0,0.3950937950937951,1.0,0.0,0.0,0.2155172413793103,0.0,0.0337383471970911,0.0,0,0
Branch ID,miller2_ntdmnt(prjct-lvlbdgt),0.0,0.0,0.0,0.0,0.0333333333333333,1.0,0.0,0.0,0.2672811059907834,0.0,0.0324652475209865,0.0,0,0
Branch ID,miller2_rbnsss(mrkr),0.0,0.0,0.0,0.0,0.02,1.0,0.0,0.0,0.0344827586206896,0.0,0.031624010495825,0.0,0,0
Branch ID,miller2_chldrnsss(mrkr),0.0,0.0,0.0,0.0,0.02,1.0,0.0,0.0,0.0344827586206896,0.0,0.0339002907311563,0.0,0,0
Branch ID,miller2_thsss(mrkr),0.0,0.0,0.0,0.0,0.02,1.0,0.0,0.0,0.0344827586206896,0.0,0.0318502246807027,0.0,0,0
Branch ID,miller2_ndgnssss(mrkr),0.0,0.0,0.0,0.0,0.02,1.0,0.0,0.0,0.0344827586206896,0.0,0.0312153655166912,0.0,0,0
Branch ID,miller2_dsbltsss(mrkr),0.0,0.0,0.0,0.0,0.02,1.0,0.0,0.0,0.0344827586206896,0.0,0.0282526894179712,0.0,0,0
Branch ID,miller2_ctstlfrdvlpmnt(mrkr),0.0,0.0,0.0,0.0,0.02,1.0,0.0,0.0,0.0258620689655172,0.0,0.030254497592782,0.0,0,0
Branch ID,miller2_knwldgfrdvlpmnt(mrkr),0.0,0.0,0.0,0.0,0.02,1.0,0.0,0.0,0.0344827586206896,0.0,0.0301238532697944,0.0,0,0
Branch ID,miller2_rgnstnd,0.0,0.0,0.0,0.0,0.411965811965812,1.0,0.0,0.0,0.3421828908554572,0.0,0.0330425672042099,0.0,0,0
Branch ID,miller2_rgnstnnm,0.0,0.0,0.0,0.0,0.4031746031746032,1.0,0.0,0.0,0.3421828908554572,0.0,0.0327364240073422,0.0,0,0
Branch ID,miller2_rgnstntp,0.0,0.0,0.0,0.0,0.4031746031746032,1.0,0.0,0.0,0.0344827586206896,0.0,0.0327364240073422,0.0,0,0
Branch ID,miller2_rgnstnclss,0.0,0.0,0.0,0.0,0.4388888888888889,1.0,0.0,0.0,0.0517241379310344,0.0,0.0355937605114411,0.0,0,0
Branch ID,miller2_cntnntnm,0.0,0.0,0.0,0.0,0.3482295482295482,1.0,0.0,0.0,0.043103448275862,0.0,0.0327364240073422,0.0,0,0
Branch ID,miller2_prjctbrwsrcntrd,0.0,0.0,0.0,0.0,0.4031746031746032,1.0,0.0,0.0,0.7581699346405228,0.0,0.0311291722237865,0.0,0,0
Branch ID,miller2_cntrrgnd,0.0,0.0,0.0,0.0,0.4031746031746032,1.0,0.0,0.0,0.8169014084507042,0.0,0.0327364240073422,0.0,0,0
Branch ID,miller2_cntrrgnnm,0.0,0.0,0.0,0.0,0.3955555555555556,1.0,0.0,0.0,0.8,0.0,0.0324538302871566,0.0,0,0
Branch ID,miller2_cntrrgnprcnt,0.0,0.0,0.0,0.0,0.0333333333333333,1.0,0.0,0.0,0.2885572139303483,0.0,0.0347154833600325,0.0,0,0
Branch ID,miller2_sctrd,0.0,0.0,0.0,0.0,0.02,1.0,0.0,0.0,0.943089430894309,0.0,0.0336393732338258,0.0,0,0
Branch ID,miller2_mntspnt,0.0,0.0,0.0,0.0,0.0333333333333333,1.0,0.0,0.0,0.0231075697211155,0.0,0.0328680675168651,0.0,0,0
Organisation sub-class,miller2_fsclr,0.0,0.0,0.0,0.0,0.4199579831932774,1.0,0.0,0.0,0.0001599744040953,0.0,0.0358853254608389,0.0,0,0
Organisation sub-class,miller2_brnchd,0.0,0.0,0.0,0.0,0.3761111111111112,1.0,0.0,0.0,0.0007998720204767,0.0,0.0330425672042099,0.0,0,0
Organisation sub-class,miller2_rgnstnsb-clss,0.20605926,0.0,0.19314231,0.0,0.5755454545454546,1.0,0.8847269872437752,0.0,0.0038393856982882,0.0,0.0531554632774973,0.0,1,1
Organisation sub-class,miller2_cntnntd,0.0,0.0,0.0,0.0,0.02,1.0,0.0,0.0,0.0007998720204767,0.0,0.0352189818663129,0.0,0,0
Organisation sub-class,miller2_sctrprcnt,0.0,0.0,0.0,0.0,0.0333333333333333,1.0,0.0,0.0,0.0295952647576387,0.0,0.0346342782680252,0.0,0,0
Organisation sub-class,miller2_sctrnm,0.0,0.0,0.0,0.0,0.4116666666666667,1.0,0.0,0.0,0.0196768517037274,0.0,0.0355937605114411,0.0,0,0
Organisation sub-class,miller2_stts,0.0,0.0,0.0,0.0,0.3980769230769231,1.0,0.0,0.0,0.000479923212286,0.0,0.0361940412896131,0.0,0,0
Organisation sub-class,miller2_prjctnmbr,0.0,0.0,0.0,0.0,0.3642857142857143,1.0,0.0,0.0,0.1028635418333066,0.0,0.0348087779553699,0.0,0,0
Organisation sub-class,miller2_clmtchngmtgtn(mrkr),0.0,0.0,0.0,0.0,0.02,1.0,0.0,0.0,0.0006398976163813,0.0,0.0327873977323386,0.0,0,0
Organisation sub-class,miller2_gndrqlt(mrkr),0.0,0.0,0.0,0.0,0.02,1.0,0.0,0.0,0.0006398976163813,0.0,0.0338335443946299,0.0,0,0
Organisation sub-class,miller2_prtcptrdvlpmntndgdgvrnnc,0.0,0.0,0.0,0.0,0.02,1.0,0.0,0.0,0.0006398976163813,0.0,0.0337939910100216,0.0,0,0
Organisation sub-class,miller2_mxmmcdcntrbtn(prjct-lvl),0.0,0.0,0.0,0.0,0.0333333333333333,1.0,0.0,0.0,0.0822268437050072,0.0,0.0354192608240963,0.0,0,0
Organisation sub-class,miller2_rgnlprgrm(mrkr),0.0,0.0,0.0,0.0,0.02,1.0,0.0,0.0,0.0003199488081906,0.0,0.0334538319023908,0.0,0,0
Organisation sub-class,miller2_sctnd,0.0,0.0,0.0,0.0,0.4233193277310925,1.0,0.0,0.0,0.0039993601023836,0.0,0.0358853254608389,0.0,0,0
Organisation sub-class,miller2_ntdmnt(prjct-lvlbdgt),0.0,0.0,0.0,0.0,0.0333333333333333,1.0,0.0,0.0,0.0694288913773796,0.0,0.0360195416022683,0.0,0,0
Organisation sub-class,miller2_rbnsss(mrkr),0.0,0.0,0.0,0.0,0.02,1.0,0.0,0.0,0.0006398976163813,0.0,0.0362236989216704,0.0,0,0
Organisation sub-class,miller2_chldrnsss(mrkr),0.0,0.0,0.0,0.0,0.02,1.0,0.0,0.0,0.0006398976163813,0.0,0.0354947865481757,0.0,0,0
Organisation sub-class,miller2_thsss(mrkr),0.0,0.0,0.0,0.0,0.02,1.0,0.0,0.0,0.0006398976163813,0.0,0.0364903741802659,0.0,0,0
Organisation sub-class,miller2_ndgnssss(mrkr),0.0,0.0,0.0,0.0,0.02,1.0,0.0,0.0,0.0006398976163813,0.0,0.0399013931697568,0.0,0,0
Organisation sub-class,miller2_dsbltsss(mrkr),0.0,0.0,0.0,0.0,0.02,1.0,0.0,0.0,0.0006398976163813,0.0,0.0378140531911131,0.0,0,0
Organisation sub-class,miller2_ctstlfrdvlpmnt(mrkr),0.0,0.0,0.0,0.0,0.02,1.0,0.0,0.0,0.000479923212286,0.0,0.0326374500440768,0.0,0,0
Organisation sub-class,miller2_knwldgfrdvlpmnt(mrkr),0.0,0.0,0.0,0.0,0.02,1.0,0.0,0.0,0.0006398976163813,0.0,0.0324933826573156,0.0,0,0
Organisation sub-class,miller2_rgnstnd,0.0,0.0,0.0,0.0,0.5026315789473684,1.0,0.0,0.0,0.0542313229883218,0.0,0.0402824401031091,0.0,0,0
Organisation sub-class,miller2_rgnstnnm,0.0,0.0,0.0,0.0,0.49,1.0,0.0,0.0,0.0542313229883218,0.0,0.0398905071341461,0.0,0,0
Organisation sub-class,miller2_rgnstntp,0.0,0.0,0.0,0.0,0.49,1.0,0.0,0.0,0.0006398976163813,0.0,0.0398905071341461,0.0,0,0
Organisation sub-class,miller2_rgnstnclss,0.0,0.0,0.0,0.0,0.5484449760765551,1.0,0.0,0.0,0.000959846424572,0.0,0.0483497270475968,0.0,0,0
Organisation sub-class,miller2_cntnntnm,0.0,0.0,0.0,0.0,0.37,1.0,0.0,0.0,0.0007998720204767,0.0,0.0350566671836029,0.0,0,0
Organisation sub-class,miller2_prjctbrwsrcntrd,0.0,0.0,0.0,0.0,0.3472222222222222,1.0,0.0,0.0,0.0244760838265877,0.0,0.0335528058656561,0.0,0,0
Organisation sub-class,miller2_cntrrgnd,0.0,0.0,0.0,0.0,0.37,1.0,0.0,0.0,0.0227163653815389,0.0,0.0350566671836029,0.0,0,0
Organisation sub-class,miller2_cntrrgnnm,0.0,0.0,0.0,0.0,0.4023809523809524,1.0,0.0,0.0,0.0231962885938249,0.0,0.0348087779553699,0.0,0,0
Organisation sub-class,miller2_cntrrgnprcnt,0.0,0.0,0.0,0.0,0.0333333333333333,1.0,0.0,0.0,0.0643097104463285,0.0,0.0361481731975909,0.0,0,0
Organisation sub-class,miller2_sctrd,0.0,0.0,0.0,0.0,0.02,1.0,0.0,0.0,0.0196768517037274,0.0,0.033162266952993,0.0,0,0
Organisation sub-class,miller2_mntspnt,0.0,0.0,0.0,0.0,0.0333333333333333,1.0,0.0,0.0,0.8030715085586306,0.0,0.0351434561422335,0.0,0,0
Continent ID,miller2_fsclr,0.0,0.0,0.0,0.0,0.02,1.0,0.0,0.0,0.2,0.0,0.0326506630978741,0.0,0,0
Continent ID,miller2_brnchd,0.0,0.0,0.0,0.0,0.02,1.0,0.0,0.0,1.0,0.0,0.0359004908800086,0.0,0,0
Continent ID,miller2_rgnstnsb-clss,0.0,0.0,0.0,0.0,0.02,1.0,0.0,0.0,0.2083333333333333,0.0,0.036435706259148,0.0,0,0
Continent ID,miller2_cntnntd,0.30034903,0.0,0.0,0.0,0.5944444444444446,1.0,0.9827737769212564,0.0,1.0,0.0,0.0424100051816006,0.0,1,1
Continent ID,miller2_sctrprcnt,0.0,0.0,0.0,0.0,0.05,1.0,0.0,0.0,0.027027027027027,0.0,0.0379040356620619,0.0,0,0
Continent ID,miller2_sctrnm,0.0,0.0,0.0,0.0,0.02,1.0,0.0,0.0,0.040650406504065,0.0,0.0359004908800086,0.0,0,0
Continent ID,miller2_stts,0.0,0.0,0.0,0.0,0.02,1.0,0.0,0.0,0.6,0.0,0.0367835962555886,0.0,0,0
Continent ID,miller2_prjctnmbr,0.0,0.0,0.0,0.0,0.02,1.0,0.0,0.0,0.0077760497667185,0.0,0.0348042221379093,0.0,0,0
Continent ID,miller2_clmtchngmtgtn(mrkr),0.0,0.0,0.0,0.0,0.3919191919191919,1.0,1.0,0.0,0.8,0.0,0.034821840472913,0.0,0,0
Continent ID,miller2_gndrqlt(mrkr),0.0,0.0,0.0,0.0,0.3555555555555555,1.0,0.8931568880040599,0.0,0.8,0.0,0.0365345296861591,0.0,0,0
Continent ID,miller2_prtcptrdvlpmntndgdgvrnnc,0.0,0.0,0.0,0.0,0.4156565656565656,1.0,0.7085799233131607,0.0,0.8,0.0,0.0337514097146342,0.0,0,0
Continent ID,miller2_mxmmcdcntrbtn(prjct-lvl),0.0,0.0,0.0,0.0,0.05,1.0,0.0,0.0,0.0097276264591439,0.0,0.0335854012234888,0.0,0,0
Continent ID,miller2_rgnlprgrm(mrkr),0.0,0.0,0.0,0.0,0.3333333333333333,1.0,0.6747134774408821,0.0,0.4,0.0,0.0332743034338014,0.0,0,0
Continent ID,miller2_sctnd,0.0,0.0,0.0,0.0,0.02,1.0,0.0,0.0,0.2,0.0,0.036324381460287,0.0,0,0
Continent ID,miller2_ntdmnt(prjct-lvlbdgt),0.0,0.0,0.0,0.0,0.05,1.0,0.0,0.0,0.0115207373271889,0.0,0.0341963299977259,0.0,0,0
Continent ID,miller2_rbnsss(mrkr),0.0,0.0,0.0,0.0,0.3368888888888889,1.0,0.6767245189616052,1.0,0.8,0.0,0.0340123272119647,0.0,0,0
Continent ID,miller2_chldrnsss(mrkr),0.0,0.0,0.0,0.0,0.3511111111111111,1.0,0.6946973592667655,1.0,0.8,0.0,0.0332743034338014,0.0,0,0
Continent ID,miller2_thsss(mrkr),0.0,0.0,0.0,0.0,0.3384126984126984,1.0,0.7124554056150147,1.0,0.8,0.0,0.0342900780962197,0.0,0,0
Continent ID,miller2_ndgnssss(mrkr),0.0,0.0,0.0,0.0,0.353202614379085,1.0,1.0,1.0,0.8,0.0,0.033505840305382,0.0,0,0
Continent ID,miller2_dsbltsss(mrkr),0.0,0.0,0.0,0.0,0.3475555555555555,1.0,0.6715008333089676,0.0,0.8,0.0,0.033505840305382,0.0,0,0
Continent ID,miller2_ctstlfrdvlpmnt(mrkr),0.0,0.0,0.0,0.0,0.3868599033816425,1.0,1.0,1.0,0.6,0.0,0.0345863457060917,0.0,0,0
Continent ID,miller2_knwldgfrdvlpmnt(mrkr),0.0,0.0,0.0,0.0,0.3555555555555555,1.0,0.6953283478155561,0.0,0.8,0.0,0.0343623384888714,0.0,0,0
Continent ID,miller2_rgnstnd,0.0,0.0,0.0,0.0,0.02,1.0,0.0,0.0,0.0147492625368731,0.0,0.0389095906782812,0.0,0,0
Continent ID,miller2_rgnstnnm,0.0,0.0,0.0,0.0,0.02,1.0,0.0,0.0,0.0147492625368731,0.0,0.0384236490959515,0.0,0,0
Continent ID,miller2_rgnstntp,0.0,0.0,0.0,0.0,0.02,1.0,0.0,0.0,0.8,0.0,0.0384236490959515,0.0,0,0
Continent ID,miller2_rgnstnclss,0.0,0.0,0.0,0.0,0.02,1.0,0.0,0.0,0.8333333333333334,0.0,0.037548954247758,0.0,0,0
Continent ID,miller2_cntnntnm,0.0,0.0,0.0,0.0,0.02,1.0,0.0,0.0,1.0,0.0,0.0417037547766773,0.0,0,0
Continent ID,miller2_prjctbrwsrcntrd,0.0,0.0,0.0,0.0,0.02,1.0,0.0,0.0,0.0326797385620915,0.0,0.0357995645513709,0.0,0,0
Continent ID,miller2_cntrrgnd,0.0,0.0,0.0,0.0,0.02,1.0,0.0,0.0,0.0352112676056338,0.0,0.0384236490959515,0.0,0,0
Continent ID,miller2_cntrrgnnm,0.0,0.0,0.0,0.0,0.02,1.0,0.0,0.0,0.0344827586206896,0.0,0.0379712207261962,0.0,0,0
Continent ID,miller2_cntrrgnprcnt,0.0,0.0,0.0,0.0,0.05,1.0,0.0,0.0,0.0124378109452736,0.0,0.0395865036620893,0.0,0,0
Continent ID,miller2_sctrd,0.0,0.0,0.0,0.0,0.4214285714285715,1.0,0.0,0.0,0.040650406504065,0.0,0.0364232048872981,0.0,0,0
Continent ID,miller2_mntspnt,0.0,0.0,0.0,0.0,0.05,1.0,0.0,0.0,0.0009960159362549,0.0,0.0388424056141469,0.0,0,0
Sector percent,miller2_fsclr,0.0,0.0,0.0,0.0,0.0333333333333333,1.0,0.0,0.0,8.600670852326481e-05,0.0,0.0354289661891201,0.0,0,0
Sector percent,miller2_brnchd,0.0,0.0,0.0,0.0,0.0333333333333333,1.0,0.0,0.0,0.0004300335426163,0.0,0.0383446156830985,0.0,0,0
Sector percent,miller2_rgnstnsb-clss,0.0,0.0,0.0,0.0,0.0333333333333333,1.0,0.0,0.0,0.0020641610045583,0.0,0.0383446156830985,0.0,0,0
Sector percent,miller2_cntnntd,0.0,0.0,0.0,0.0,0.05,1.0,0.0,0.0,0.0004300335426163,0.0,0.0410686857635598,0.0,0,0
Sector percent,miller2_sctrprcnt,0.0,0.0,0.0,0.0,0.6182051282051282,1.0,0.0,0.0,0.0159112410768039,0.0,0.0521127404427743,0.0,1,1
Sector percent,miller2_sctrnm,0.0,0.0,0.0,0.0,0.0333333333333333,1.0,0.0,0.0,0.0105788251483615,0.0,0.0416247213638243,0.0,0,0
Sector percent,miller2_stts,0.0,0.0,0.0,0.0,0.0333333333333333,1.0,0.0,0.0,0.0002580201255697,0.0,0.0358214574671556,0.0,0,0
Sector percent,miller2_prjctnmbr,0.0,0.0,0.0,0.0,0.0333333333333333,1.0,0.0,0.0,0.0553023135804592,0.0,0.0430002495525157,0.0,0,0
Sector percent,miller2_clmtchngmtgtn(mrkr),0.0,0.0,0.0,0.0,0.05,1.0,0.0,0.0,0.000344026834093,0.0,0.0386741258553429,0.0,0,0
Sector percent,miller2_gndrqlt(mrkr),0.0,0.0,0.0,0.0,0.05,1.0,0.0,0.0,0.000344026834093,0.0,0.0357300310004475,0.0,0,0
Sector percent,miller2_prtcptrdvlpmntndgdgvrnnc,0.0,0.0,0.0,0.0,0.05,1.0,0.0,0.0,0.000344026834093,0.0,0.0392097952878262,0.0,0,0
Sector percent,miller2_mxmmcdcntrbtn(prjct-lvl),0.0,0.0,0.0,0.0,0.5102834008097166,1.0,0.0,0.0,0.0442074481809581,0.0,0.0414213440865237,0.0,0,0
Sector percent,miller2_rgnlprgrm(mrkr),0.0,0.0,0.0,0.0,0.05,1.0,0.0,0.0,0.0001720134170465,0.0,0.0351626613691869,0.0,0,0
Sector percent,miller2_sctnd,0.0,0.0,0.0,0.0,0.0333333333333333,1.0,0.0,0.0,0.0021501677130816,0.0,0.0388305572654283,0.0,0,0
Sector percent,miller2_ntdmnt(prjct-lvlbdgt),0.0,0.0,0.0,0.0,0.4756923076923077,1.0,0.0,0.0,0.0373269114990969,0.0,0.038263952167362,0.0,0,0
Sector percent,miller2_rbnsss(mrkr),0.0,0.0,0.0,0.0,0.05,1.0,0.0,0.0,0.000344026834093,0.0,0.0360387468292217,0.0,0,0
Sector percent,miller2_chldrnsss(mrkr),0.0,0.0,0.0,0.0,0.05,1.0,0.0,0.0,0.000344026834093,0.0,0.0351626613691869,0.0,0,0
Sector percent,miller2_thsss(mrkr),0.0,0.0,0.0,0.0,0.05,1.0,0.0,0.0,0.000344026834093,0.0,0.0363661727082247,0.0,0,0
Sector percent,miller2_ndgnssss(mrkr),0.0,0.0,0.0,0.0,0.05,1.0,0.0,0.0,0.000344026834093,0.0,0.0328872727438186,0.0,0,0
Sector percent,miller2_dsbltsss(mrkr),0.0,0.0,0.0,0.0,0.05,1.0,0.0,0.0,0.000344026834093,0.0,0.0354384660510497,0.0,0,0
Sector percent,miller2_ctstlfrdvlpmnt(mrkr),0.0,0.0,0.0,0.0,0.05,1.0,0.0,0.0,0.0002580201255697,0.0,0.040540852665512,0.0,0,0
Sector percent,miller2_knwldgfrdvlpmnt(mrkr),0.0,0.0,0.0,0.0,0.05,1.0,0.0,0.0,0.000344026834093,0.0,0.0359131066663485,0.0,0,0
Sector percent,miller2_rgnstnd,0.0,0.0,0.0,0.0,0.0333333333333333,1.0,0.0,0.0,0.0291562741893867,0.0,0.0410591859016302,0.0,0,0
Sector percent,miller2_rgnstnnm,0.0,0.0,0.0,0.0,0.0333333333333333,1.0,0.0,0.0,0.0291562741893867,0.0,0.0405313528035824,0.0,0,0
Sector percent,miller2_rgnstntp,0.0,0.0,0.0,0.0,0.0333333333333333,1.0,0.0,0.0,0.000344026834093,0.0,0.0405313528035824,0.0,0,0
Sector percent,miller2_rgnstnclss,0.0,0.0,0.0,0.0,0.0333333333333333,1.0,0.0,0.0,0.0005160402511395,0.0,0.0395746553133707,0.0,0,0
Sector percent,miller2_cntnntnm,0.0,0.0,0.0,0.0,0.0333333333333333,1.0,0.0,0.0,0.0004300335426163,0.0,0.0405313528035824,0.0,0,0
Sector percent,miller2_prjctbrwsrcntrd,0.0,0.0,0.0,0.0,0.0333333333333333,1.0,0.0,0.0,0.0131590264040595,0.0,0.045082130054319,0.0,0,0
Sector percent,miller2_cntrrgnd,0.0,0.0,0.0,0.0,0.0333333333333333,1.0,0.0,0.0,0.0122129526103036,0.0,0.0435927847722597,0.0,0,0
Sector percent,miller2_cntrrgnnm,0.0,0.0,0.0,0.0,0.0333333333333333,1.0,0.0,0.0,0.0124709727358733,0.0,0.0430002495525157,0.0,0,0
Sector percent,miller2_cntrrgnprcnt,0.0,0.0,0.0,0.0,0.5387314439946019,1.0,0.0,0.0,0.0345746968263524,0.0,0.0497600270702614,0.0,0,0
Sector percent,miller2_sctrd,0.0,0.0,0.0,0.0,0.05,1.0,0.0,0.0,0.0105788251483615,0.0,0.0388400571273579,0.0,0,0
Sector percent,miller2_mntspnt,0.0,0.0,0.0,0.0,0.4945054945054945,1.0,0.0,0.0,0.4317536767867894,0.0,0.0412836484957287,0.0,0,0
Sector name,miller2_fsclr,0.0,0.0,0.0,0.0,0.5636363636363637,1.0,0.0,0.0,8.671522719389525e-05,0.0,0.0368693571650566,0.0,0,0
Sector name,miller2_brnchd,0.0,0.0,0.0,0.0,0.446993006993007,1.0,0.0,0.0,0.0004335761359694,0.0,0.036410142369755,0.0,0,0
Sector name,miller2_rgnstnsb-clss,0.0,0.0,0.0,0.0,0.4490982701509017,1.0,0.0,0.0,0.0020811654526534,0.0,0.0339992646944216,0.0,0,0
Sector name,miller2_cntnntd,0.0,0.0,0.0,0.0,0.02,1.0,0.0,0.0,0.0004335761359694,0.0,0.0394196993285313,0.0,0,0
Sector name,miller2_sctrprcnt,0.0,0.0,0.0,0.0,0.0333333333333333,1.0,0.0,0.0,0.0160423170308706,0.0,0.0416150159988005,0.0,0,0
Sector name,miller2_sctrnm,0.0,0.0,0.0,0.0,0.6193939393939394,1.0,0.0,0.0,0.0106659729448491,0.0,0.0474312974569936,0.0,1,1
Sector name,miller2_stts,0.0,0.0,0.0,0.0,0.5054545454545455,1.0,0.0,0.0,0.0002601456815816,0.0,0.0333753315486314,0.0,0,0
Sector name,miller2_prjctnmbr,0.0,0.0,0.0,0.0,0.5054545454545455,1.0,0.0,0.0,0.0557578910856746,0.0,0.0417895156861453,0.0,0,0
Sector name,miller2_clmtchngmtgtn(mrkr),0.0,0.0,0.0,0.0,0.02,1.0,0.0,0.0,0.0003468609087755,0.0,0.0373746131956092,0.0,0,0
Sector name,miller2_gndrqlt(mrkr),0.0,0.0,0.0,0.0,0.02,1.0,0.0,0.0,0.0003468609087755,0.0,0.0367703832017913,0.0,0,0
Sector name,miller2_prtcptrdvlpmntndgdgvrnnc,0.0,0.0,0.0,0.0,0.02,1.0,0.0,0.0,0.0003468609087755,0.0,0.0359694271634746,0.0,0,0
Sector name,miller2_mxmmcdcntrbtn(prjct-lvl),0.0,0.0,0.0,0.0,0.0333333333333333,1.0,0.0,0.0,0.0445716267776621,0.0,0.0358939014393951,0.0,0,0
Sector name,miller2_rgnlprgrm(mrkr),0.0,0.0,0.0,0.0,0.02,1.0,0.0,0.0,0.0001734304543877,0.0,0.0360950673263478,0.0,0,0
Sector name,miller2_sctnd,0.0,0.0,0.0,0.0,0.5636363636363637,1.0,0.0,0.0,0.0021678806798473,0.0,0.0406961471259034,0.0,0,0
Sector name,miller2_ntdmnt(prjct-lvlbdgt),0.0,0.0,0.0,0.0,0.0333333333333333,1.0,0.0,0.0,0.0376344086021505,0.0,0.0343987835012038,0.0,0,0
Sector name,miller2_rbnsss(mrkr),0.0,0.0,0.0,0.0,0.02,1.0,0.0,0.0,0.0003468609087755,0.0,0.0371407177141313,0.0,0,0
Sector name,miller2_chldrnsss(mrkr),0.0,0.0,0.0,0.0,0.02,1.0,0.0,0.0,0.0003468609087755,0.0,0.0387963308281219,0.0,0,0
Sector name,miller2_thsss(mrkr),0.0,0.0,0.0,0.0,0.02,1.0,0.0,0.0,0.0003468609087755,0.0,0.0344743092252833,0.0,0,0
Sector name,miller2_ndgnssss(mrkr),0.0,0.0,0.0,0.0,0.02,1.0,0.0,0.0,0.0003468609087755,0.0,0.0364224932053507,0.0,0,0
Sector name,miller2_dsbltsss(mrkr),0.0,0.0,0.0,0.0,0.02,1.0,0.0,0.0,0.0003468609087755,0.0,0.0336393732338258,0.0,0,0
Sector name,miller2_ctstlfrdvlpmnt(mrkr),0.0,0.0,0.0,0.0,0.02,1.0,0.0,0.0,0.0002601456815816,0.0,0.0394196993285313,0.0,0,0
Sector name,miller2_knwldgfrdvlpmnt(mrkr),0.0,0.0,0.0,0.0,0.02,1.0,0.0,0.0,0.0003468609087755,0.0,0.0344743092252833,0.0,0,0
Sector name,miller2_rgnstnd,0.0,0.0,0.0,0.0,0.4685314685314685,1.0,0.0,0.0,0.0293964620187304,0.0,0.0359862517894766,0.0,0,0
Sector name,miller2_rgnstnnm,0.0,0.0,0.0,0.0,0.4736596736596737,1.0,0.0,0.0,0.0293964620187304,0.0,0.0389953515877493,0.0,0,0
Sector name,miller2_rgnstntp,0.0,0.0,0.0,0.0,0.4641358641358641,1.0,0.0,0.0,0.0003468609087755,0.0,0.0355937605114411,0.0,0,0
Sector name,miller2_rgnstnclss,0.0,0.0,0.0,0.0,0.456993006993007,1.0,0.0,0.0,0.0005202913631633,0.0,0.0348899830473773,0.0,0,0
Sector name,miller2_cntnntnm,0.0,0.0,0.0,0.0,0.4736596736596737,1.0,0.0,0.0,0.0004335761359694,0.0,0.0423969426640575,0.0,0,0
Sector name,miller2_prjctbrwsrcntrd,0.0,0.0,0.0,0.0,0.4978354978354978,1.0,0.0,0.0,0.0132674297606659,0.0,0.0388953047913872,0.0,0,0
Sector name,miller2_cntrrgnd,0.0,0.0,0.0,0.0,0.5168831168831169,1.0,0.0,0.0,0.0123135622615331,0.0,0.0423969426640575,0.0,0,0
Sector name,miller2_cntrrgnnm,0.0,0.0,0.0,0.0,0.5054545454545455,1.0,0.0,0.0,0.0125737079431148,0.0,0.045069621366871,0.0,0,0
Sector name,miller2_cntrrgnprcnt,0.0,0.0,0.0,0.0,0.0333333333333333,1.0,0.0,0.0,0.0348595213319458,0.0,0.0400278680887719,0.0,0,0
Sector name,miller2_sctrd,0.0,0.0,0.0,0.0,0.02,1.0,0.0,0.0,0.0106659729448491,0.0,0.040597173162638,0.0,0,0
Sector name,miller2_mntspnt,0.0,0.0,0.0,0.0,0.0333333333333333,1.0,0.0,0.0,0.4353104405133541,0.0,0.0358117521021318,0.0,0,0
Status,miller2_fsclr,0.0,0.0,0.0,0.0,0.2969696969696969,1.0,0.0,0.0,0.0004095004095004,0.0,0.0302228272330597,0.0,0,0
Status,miller2_brnchd,0.0,0.0,0.0,0.0,0.2,1.0,0.0,0.0,0.002047502047502,0.0,0.0253889872825165,0.0,0,0
Status,miller2_rgnstnsb-clss,0.0,0.0,0.0,0.0,0.368421052631579,1.0,0.0,0.0,0.0098280098280098,0.0,0.0321921694351329,0.0,0,0
Status,miller2_cntnntd,0.0,0.0,0.0,0.0,0.02,1.0,0.0,0.0,0.002047502047502,0.0,0.0340369618011865,0.0,0,0
Status,miller2_sctrprcnt,0.0,0.0,0.0,0.0,0.0333333333333333,1.0,0.0,0.0,0.0757575757575757,0.0,0.0332008318612866,0.0,0,0
Status,miller2_sctrnm,0.0,0.0,0.0,0.0,0.3777777777777778,1.0,0.0,0.0,0.0503685503685503,0.0,0.0299811352355325,0.0,0,0
Status,miller2_stts,0.13683167,0.0,0.1710396,0.0,0.6266666666666667,1.0,0.0,0.0,0.0012285012285012,0.0,0.0406961471259034,0.0,1,1
Status,miller2_prjctnmbr,0.0,0.0,0.0,0.0,0.2711111111111111,1.0,0.0,0.0,0.2633087633087633,0.0,0.0293821594155739,0.0,0,0
Status,miller2_clmtchngmtgtn(mrkr),0.0,0.0,0.0,0.0,0.02,1.0,0.0,0.0,0.0016380016380016,0.0,0.0308562532623009,0.0,0,0
Status,miller2_gndrqlt(mrkr),0.0,0.0,0.0,0.0,0.02,1.0,0.0,0.0,0.0016380016380016,0.0,0.0286916043955593,0.0,0,0
Status,miller2_prtcptrdvlpmntndgdgvrnnc,0.0,0.0,0.0,0.0,0.02,1.0,0.0,0.0,0.0016380016380016,0.0,0.0301238532697944,0.0,0,0
Status,miller2_mxmmcdcntrbtn(prjct-lvl),0.0,0.0,0.0,0.0,0.0333333333333333,1.0,0.0,0.0,0.2104832104832104,0.0,0.0300483275457149,0.0,0,0
Status,miller2_rgnlprgrm(mrkr),0.0,0.0,0.0,0.0,0.02,1.0,0.0,0.0,0.0008190008190008,0.0,0.0252900133192511,0.0,0,0
Status,miller2_sctnd,0.0,0.0,0.0,0.0,0.393939393939394,1.0,0.0,0.0,0.0102375102375102,0.0,0.0302228272330597,0.0,0,0
Status,miller2_ntdmnt(prjct-lvlbdgt),0.0,0.0,0.0,0.0,0.0333333333333333,1.0,0.0,0.0,0.1777231777231777,0.0,0.0304626566843329,0.0,0,0
Status,miller2_rbnsss(mrkr),0.0,0.0,0.0,0.0,0.02,1.0,0.0,0.0,0.0016380016380016,0.0,0.0288224348215712,0.0,0,0
Status,miller2_chldrnsss(mrkr),0.0,0.0,0.0,0.0,0.02,1.0,0.0,0.0,0.0016380016380016,0.0,0.0284570119075381,0.0,0,0
Status,miller2_thsss(mrkr),0.0,0.0,0.0,0.0,0.02,1.0,0.0,0.0,0.0016380016380016,0.0,0.0326374500440768,0.0,0,0
Status,miller2_ndgnssss(mrkr),0.0,0.0,0.0,0.0,0.02,1.0,0.0,0.0,0.0016380016380016,0.0,0.0285701189999769,0.0,0,0
Status,miller2_dsbltsss(mrkr),0.0,0.0,0.0,0.0,0.02,1.0,0.0,0.0,0.0016380016380016,0.0,0.0318502246807027,0.0,0,0
Status,miller2_ctstlfrdvlpmnt(mrkr),0.0,0.0,0.0,0.0,0.02,1.0,0.0,0.0,0.0012285012285012,0.0,0.0306925403227995,0.0,0,0
Status,miller2_knwldgfrdvlpmnt(mrkr),0.0,0.0,0.0,0.0,0.02,1.0,0.0,0.0,0.0016380016380016,0.0,0.0279140978638317,0.0,0,0
Status,miller2_rgnstnd,0.0,0.0,0.0,0.0,0.3641025641025641,1.0,0.0,0.0,0.1388206388206388,0.0,0.0297624615234841,0.0,0,0
Status,miller2_rgnstnnm,0.0,0.0,0.0,0.0,0.3523809523809524,1.0,0.0,0.0,0.1388206388206388,0.0,0.0295636672398038,0.0,0,0
Status,miller2_rgnstntp,0.0,0.0,0.0,0.0,0.4285714285714286,1.0,0.0,0.0,0.0016380016380016,0.0,0.0337383471970911,0.0,0,0
Status,miller2_rgnstnclss,0.0,0.0,0.0,0.0,0.4,1.0,0.0,0.0,0.0024570024570024,0.0,0.0330425672042099,0.0,0,0
Status,miller2_cntnntnm,0.0,0.0,0.0,0.0,0.3523809523809524,1.0,0.0,0.0,0.002047502047502,0.0,0.0337383471970911,0.0,0,0
Status,miller2_prjctbrwsrcntrd,0.0,0.0,0.0,0.0,0.3015873015873016,1.0,0.0,0.0,0.0626535626535626,0.0,0.0317229844590903,0.0,0,0
Status,miller2_cntrrgnd,0.0,0.0,0.0,0.0,0.2761904761904762,1.0,0.0,0.0,0.0581490581490581,0.0,0.0295636672398038,0.0,0,0
Status,miller2_cntrrgnnm,0.0,0.0,0.0,0.0,0.2711111111111111,1.0,0.0,0.0,0.0593775593775593,0.0,0.0293821594155739,0.0,0,0
Status,miller2_cntrrgnprcnt,0.0,0.0,0.0,0.0,0.0333333333333333,1.0,0.0,0.0,0.1646191646191646,0.0,0.0322793305998118,0.0,0,0
Status,miller2_sctrd,0.0,0.0,0.0,0.0,0.02,1.0,0.0,0.0,0.0503685503685503,0.0,0.0301238532697944,0.0,0,0
Status,miller2_mntspnt,0.0,0.0,0.0,0.0,0.0333333333333333,1.0,0.0,0.0,0.4864541832669323,0.0,0.033961436077107,0.0,0,0
Project number,miller2_fsclr,0.0,0.0,0.0,0.0,0.4543123543123543,1.0,0.0,0.0,9.075233687267448e-05,0.0,0.0355937605114411,0.0,0,0
Project number,miller2_brnchd,0.0,0.0,0.0,0.0,0.5128205128205129,1.0,0.0,0.0,0.0004537616843633,0.0,0.0352293043246937,0.0,0,0
Project number,miller2_rgnstnsb-clss,0.0,0.0,0.0,0.0,0.4667206477732794,1.0,0.0,0.0,0.0021780560849441,0.0,0.0358853254608389,0.0,0,0
Project number,miller2_cntnntd,0.0,0.0,0.0,0.0,0.02,1.0,0.0,0.0,0.0004537616843633,0.0,0.0379580076723989,0.0,0,0
Project number,miller2_sctrprcnt,0.0,0.0,0.0,0.0,0.0333333333333333,1.0,0.0,0.0,0.0167891823214447,0.0,0.0370651919900519,0.0,0,0
Project number,miller2_sctrnm,0.0,0.0,0.0,0.0,0.5128205128205129,1.0,0.0,0.0,0.0111625374353389,0.0,0.0417895156861453,0.0,0,0
Project number,miller2_stts,0.0,0.0,0.0,0.0,0.4573426573426573,1.0,0.0,0.0,0.000272257010618,0.0,0.0359862517894766,0.0,0,0
Project number,miller2_prjctnmbr,0.0,0.0,0.0,0.0,0.6489743589743591,1.0,0.0,0.0,0.0583537526091296,0.0,0.0490903960722768,0.0,1,1
Project number,miller2_clmtchngmtgtn(mrkr),0.0,0.0,0.0,0.0,0.02,1.0,0.0,0.0,0.0003630093474906,0.0,0.0387304463524689,0.0,0,0
Project number,miller2_gndrqlt(mrkr),0.0,0.0,0.0,0.0,0.02,1.0,0.0,0.0,0.0003630093474906,0.0,0.0357863514975736,0.0,0,0
Project number,miller2_prtcptrdvlpmntndgdgvrnnc,0.0,0.0,0.0,0.0,0.02,1.0,0.0,0.0,0.0003630093474906,0.0,0.0352729436518948,0.0,0,0
Project number,miller2_mxmmcdcntrbtn(prjct-lvl),0.0,0.0,0.0,0.0,0.0333333333333333,1.0,0.0,0.0,0.0466467011525546,0.0,0.0351974179278153,0.0,0,0
Project number,miller2_rgnlprgrm(mrkr),0.0,0.0,0.0,0.0,0.02,1.0,0.0,0.0,0.0001815046737453,0.0,0.0352189818663129,0.0,0,0
Project number,miller2_sctnd,0.0,0.0,0.0,0.0,0.517948717948718,1.0,0.0,0.0,0.0022688084218168,0.0,0.0389953515877493,0.0,0,0
Project number,miller2_ntdmnt(prjct-lvlbdgt),0.0,0.0,0.0,0.0,0.0333333333333333,1.0,0.0,0.0,0.0393865142027407,0.0,0.0358939014393951,0.0,0,0
Project number,miller2_rbnsss(mrkr),0.0,0.0,0.0,0.0,0.02,1.0,0.0,0.0,0.0003630093474906,0.0,0.0360950673263478,0.0,0,0
Project number,miller2_chldrnsss(mrkr),0.0,0.0,0.0,0.0,0.02,1.0,0.0,0.0,0.0003630093474906,0.0,0.0377012240030784,0.0,0,0
Project number,miller2_thsss(mrkr),0.0,0.0,0.0,0.0,0.02,1.0,0.0,0.0,0.0003630093474906,0.0,0.0364224932053507,0.0,0,0
Project number,miller2_ndgnssss(mrkr),0.0,0.0,0.0,0.0,0.02,1.0,0.0,0.0,0.0003630093474906,0.0,0.0354947865481757,0.0,0,0
Project number,miller2_dsbltsss(mrkr),0.0,0.0,0.0,0.0,0.02,1.0,0.0,0.0,0.0003630093474906,0.0,0.0354947865481757,0.0,0,0
Project number,miller2_ctstlfrdvlpmnt(mrkr),0.0,0.0,0.0,0.0,0.02,1.0,0.0,0.0,0.000272257010618,0.0,0.0384104360421542,0.0,0,0
Project number,miller2_knwldgfrdvlpmnt(mrkr),0.0,0.0,0.0,0.0,0.02,1.0,0.0,0.0,0.0003630093474906,0.0,0.0338335443946299,0.0,0,0
Project number,miller2_rgnstnd,0.0,0.0,0.0,0.0,0.4989010989010989,1.0,0.0,0.0,0.0307650421998366,0.0,0.0348899830473773,0.0,0,0
Project number,miller2_rgnstnnm,0.0,0.0,0.0,0.0,0.4950915750915751,1.0,0.0,0.0,0.0307650421998366,0.0,0.037634715157226,0.0,0,0
Project number,miller2_rgnstntp,0.0,0.0,0.0,0.0,0.4912820512820513,1.0,0.0,0.0,0.0003630093474906,0.0,0.0345732831885486,0.0,0,0
Project number,miller2_rgnstnclss,0.0,0.0,0.0,0.0,0.4787330316742082,1.0,0.0,0.0,0.000544514021236,0.0,0.0339992646944216,0.0,0,0
Project number,miller2_cntnntnm,0.0,0.0,0.0,0.0,0.4950915750915751,1.0,0.0,0.0,0.0004537616843633,0.0,0.0406961471259034,0.0,0,0
Project number,miller2_prjctbrwsrcntrd,0.0,0.0,0.0,0.0,0.5664335664335665,1.0,0.0,0.0,0.0138851075415191,0.0,0.0402824401031091,0.0,0,0
Project number,miller2_cntrrgnd,0.0,0.0,0.0,0.0,0.4950915750915751,1.0,0.0,0.0,0.0128868318359197,0.0,0.037634715157226,0.0,0,0
Project number,miller2_cntrrgnnm,0.0,0.0,0.0,0.0,0.487948717948718,1.0,0.0,0.0,0.0131590888465377,0.0,0.0402023677761167,0.0,0,0
Project number,miller2_cntrrgnprcnt,0.0,0.0,0.0,0.0,0.0333333333333333,1.0,0.0,0.0,0.0364824394228151,0.0,0.0387208051040425,0.0,0,0
Project number,miller2_sctrd,0.0,0.0,0.0,0.0,0.02,1.0,0.0,0.0,0.0111625374353389,0.0,0.0388963776244839,0.0,0,0
Project number,miller2_mntspnt,0.0,0.0,0.0,0.0,0.0333333333333333,1.0,0.0,0.0,0.4555767311008258,0.0,0.0347154833600325,0.0,0,0
Climate change mitigation (marker),miller2_fsclr,0.0,0.0,0.0,0.0,0.02,1.0,0.0,0.0,0.25,0.0,0.0331196484207354,0.0,0,0
Climate change mitigation (marker),miller2_brnchd,0.0,0.0,0.0,0.0,0.02,1.0,0.0,0.0,0.8,0.0,0.0329568062947419,0.0,0,0
Climate change mitigation (marker),miller2_rgnstnsb-clss,0.0,0.0,0.0,0.0,0.02,1.0,0.0,0.0,0.1666666666666666,0.0,0.0336525862876231,0.0,0,0
Climate change mitigation (marker),miller2_cntnntd,0.0,0.0,0.0,0.0,0.4745959922430511,1.0,0.8180753187795047,0.0,0.8,0.0,0.0366481264196908,0.0,0,0
Climate change mitigation (marker),miller2_sctrprcnt,0.0,0.0,0.0,0.0,0.05,1.0,0.0,0.0,0.0216216216216216,0.0,0.0360410953160107,0.0,0,0
Climate change mitigation (marker),miller2_sctrnm,0.0,0.0,0.0,0.0,0.02,1.0,0.0,0.0,0.032520325203252,0.0,0.0367835962555886,0.0,0,0
Climate change mitigation (marker),miller2_stts,0.0,0.0,0.0,0.0,0.02,1.0,0.0,0.0,0.75,0.0,0.0332895706391633,0.0,0,0
Climate change mitigation (marker),miller2_prjctnmbr,0.0,0.0,0.0,0.0,0.02,1.0,0.0,0.0,0.0062208398133748,0.0,0.0379091227146612,0.0,0,0
Climate change mitigation (marker),miller2_clmtchngmtgtn(mrkr),0.0,0.0,0.0,0.0,0.6288178640581387,1.0,1.0,0.0,1.0,0.0,0.0525032508342528,0.0,1,1
Climate change mitigation (marker),miller2_gndrqlt(mrkr),0.0,0.0,0.0,0.0,0.5453836919383138,1.0,0.7419200364007903,0.0,1.0,0.0,0.0421007696292089,0.0,0,0
Climate change mitigation (marker),miller2_prtcptrdvlpmntndgdgvrnnc,0.0,0.0,0.0,0.0,0.4536199790089734,1.0,0.8171178153376946,1.0,1.0,0.0,0.0351429697003967,0.0,0,0
Climate change mitigation (marker),miller2_mxmmcdcntrbtn(prjct-lvl),0.0,0.0,0.0,0.0,0.05,1.0,0.0,0.0,0.0077821011673151,0.0,0.0391516411665385,0.0,0,0
Climate change mitigation (marker),miller2_rgnlprgrm(mrkr),0.0,0.0,0.0,0.0,0.5561005940837874,1.0,0.9957042701723208,0.0,0.5,0.0,0.0431261296187181,0.0,0,0
Climate change mitigation (marker),miller2_sctnd,0.0,0.0,0.0,0.0,0.02,1.0,0.0,0.0,0.16,0.0,0.0350737539326571,0.0,0,0
Climate change mitigation (marker),miller2_ntdmnt(prjct-lvlbdgt),0.0,0.0,0.0,0.0,0.05,1.0,0.0,0.0,0.0092165898617511,0.0,0.0368986392848279,0.0,0,0
Climate change mitigation (marker),miller2_rbnsss(mrkr),0.0,0.0,0.0,0.0,0.5332434512266446,1.0,0.989875652288613,0.0,1.0,0.0,0.0407092096434465,0.0,0,0
Climate change mitigation (marker),miller2_chldrnsss(mrkr),0.0,0.0,0.0,0.0,0.5865767845599779,1.0,0.9727602527383976,0.0,1.0,0.0,0.0431261296187181,0.0,0,0
Climate change mitigation (marker),miller2_thsss(mrkr),0.0,0.0,0.0,0.0,0.536706654689848,1.0,0.9399541721057848,1.0,1.0,0.0,0.0409980239801141,0.0,0,0
Climate change mitigation (marker),miller2_ndgnssss(mrkr),0.0,0.0,0.0,0.0,0.560454335580386,1.0,1.0,1.0,1.0,0.0,0.0434426310440513,0.0,0,0
Climate change mitigation (marker),miller2_dsbltsss(mrkr),0.0,0.0,0.0,0.0,0.5432068211900145,1.0,0.9787387098789876,0.0,1.0,0.0,0.0401625253633255,0.0,0,0
Climate change mitigation (marker),miller2_ctstlfrdvlpmnt(mrkr),0.0,0.0,0.0,0.0,0.5741077969649399,1.0,1.0,0.0,0.75,0.0,0.0431781063923798,0.0,0,0
Climate change mitigation (marker),miller2_knwldgfrdvlpmnt(mrkr),0.0,0.0,0.0,0.0,0.5480857517832308,1.0,0.971525738730974,1.0,1.0,0.0,0.0428959467639303,0.0,0,0
Climate change mitigation (marker),miller2_rgnstnd,0.0,0.0,0.0,0.0,0.02,1.0,0.0,0.0,0.0117994100294985,0.0,0.0346749568894078,0.0,0,0
Climate change mitigation (marker),miller2_rgnstnnm,0.0,0.0,0.0,0.0,0.02,1.0,0.0,0.0,0.0117994100294985,0.0,0.036324381460287,0.0,0,0
Climate change mitigation (marker),miller2_rgnstntp,0.0,0.0,0.0,0.0,0.02,1.0,0.0,0.0,1.0,0.0,0.0344875222790806,0.0,0,0
Climate change mitigation (marker),miller2_rgnstnclss,0.0,0.0,0.0,0.0,0.02,1.0,0.0,0.0,0.6666666666666666,0.0,0.0341342801288486,0.0,0,0
Climate change mitigation (marker),miller2_cntnntnm,0.0,0.0,0.0,0.0,0.02,1.0,0.0,0.0,0.8,0.0,0.0399980998226999,0.0,0,0
Climate change mitigation (marker),miller2_prjctbrwsrcntrd,0.0,0.0,0.0,0.0,0.02,1.0,0.0,0.0,0.0261437908496732,0.0,0.0349709062741349,0.0,0,0
Climate change mitigation (marker),miller2_cntrrgnd,0.0,0.0,0.0,0.0,0.02,1.0,0.0,0.0,0.028169014084507,0.0,0.0381612406414934,0.0,0,0
Climate change mitigation (marker),miller2_cntrrgnnm,0.0,0.0,0.0,0.0,0.02,1.0,0.0,0.0,0.0275862068965517,0.0,0.0397099650491773,0.0,0,0
Climate change mitigation (marker),miller2_cntrrgnprcnt,0.0,0.0,0.0,0.0,0.05,1.0,0.0,0.0,0.0099502487562189,0.0,0.0388424056141469,0.0,0,0
Climate change mitigation (marker),miller2_sctrd,0.0,0.0,0.0,0.0,0.4675807852278441,1.0,0.0,0.0,0.032520325203252,0.0,0.0351725773596682,0.0,0,0
Climate change mitigation (marker),miller2_mntspnt,0.0,0.0,0.0,0.0,0.05,1.0,0.0,0.0,0.0007968127490039,0.0,0.0346077718252734,0.0,0,0
Gender equality (marker),miller2_fsclr,0.0,0.0,0.0,0.0,0.02,1.0,0.0,0.0,0.25,0.0,0.0352321949201102,0.0,0,0
Gender equality (marker),miller2_brnchd,0.0,0.0,0.0,0.0,0.02,1.0,0.0,0.0,0.8,0.0,0.0325539862988633,0.0,0,0
Gender equality (marker),miller2_rgnstnsb-clss,0.0,0.0,0.0,0.0,0.02,1.0,0.0,0.0,0.1666666666666666,0.0,0.0314260903104032,0.0,0,0
Gender equality (marker),miller2_cntnntd,0.0,0.0,0.0,0.0,0.4674871794871795,1.0,0.9853537341608912,1.0,0.8,0.0,0.0324668928046997,0.0,0,0
Gender equality (marker),miller2_sctrprcnt,0.0,0.0,0.0,0.0,0.05,1.0,0.0,0.0,0.0216216216216216,0.0,0.0364364021699289,0.0,0,0
Gender equality (marker),miller2_sctrnm,0.0,0.0,0.0,0.0,0.02,1.0,0.0,0.0,0.032520325203252,0.0,0.0349709062741349,0.0,0,0
Gender equality (marker),miller2_stts,0.0,0.0,0.0,0.0,0.02,1.0,0.0,0.0,0.75,0.0,0.0329568062947419,0.0,0,0
Gender equality (marker),miller2_prjctnmbr,0.0,0.0,0.0,0.0,0.02,1.0,0.0,0.0,0.0062208398133748,0.0,0.0365035872340632,0.0,0,0
Gender equality (marker),miller2_clmtchngmtgtn(mrkr),0.0,0.0,0.0,0.0,0.5693644367328579,1.0,1.0,0.0,1.0,0.0,0.0434104731452206,0.0,0,0
Gender equality (marker),miller2_gndrqlt(mrkr),0.30512083,0.0,0.0,0.0,0.6923076923076923,1.0,0.905051218278594,0.0,1.0,0.0,0.0519344601952635,0.0,1,1
Gender equality (marker),miller2_prtcptrdvlpmntndgdgvrnnc,0.0,0.0,0.0,0.0,0.4502564102564103,1.0,0.9812285308966978,1.0,1.0,0.0,0.033602314001874,0.0,0,0
Gender equality (marker),miller2_mxmmcdcntrbtn(prjct-lvl),0.0,0.0,0.0,0.0,0.05,1.0,0.0,0.0,0.0077821011673151,0.0,0.0367164111914543,0.0,0,0
Gender equality (marker),miller2_rgnlprgrm(mrkr),0.0,0.0,0.0,0.0,0.5993162393162393,1.0,0.8859885885906443,0.0,0.5,0.0,0.0429889994073551,0.0,0,0
Gender equality (marker),miller2_sctnd,0.0,0.0,0.0,0.0,0.02,1.0,0.0,0.0,0.16,0.0,0.0327499527833448,0.0,0,0
Gender equality (marker),miller2_ntdmnt(prjct-lvlbdgt),0.0,0.0,0.0,0.0,0.05,1.0,0.0,0.0,0.0092165898617511,0.0,0.0373662434489565,0.0,0,0
Gender equality (marker),miller2_rbnsss(mrkr),0.0,0.0,0.0,0.0,0.555897435897436,1.0,0.7979749280104879,0.0,1.0,0.0,0.0421007696292089,0.0,0,0
Gender equality (marker),miller2_chldrnsss(mrkr),0.0,0.0,0.0,0.0,0.5692307692307692,1.0,0.8230847096248965,1.0,1.0,0.0,0.0429889994073551,0.0,0,0
Gender equality (marker),miller2_thsss(mrkr),0.0,0.0,0.0,0.0,0.556923076923077,1.0,0.8481313512831568,1.0,1.0,0.0,0.0446249947196617,0.0,0,0
Gender equality (marker),miller2_ndgnssss(mrkr),0.0,0.0,0.0,0.0,0.5717704517704518,1.0,1.0,1.0,1.0,0.0,0.0433713243988181,0.0,0,0
Gender equality (marker),miller2_dsbltsss(mrkr),0.0,0.0,0.0,0.0,0.5825641025641026,1.0,0.7907216976829081,0.0,1.0,0.0,0.0453679104653468,0.0,0,0
Gender equality (marker),miller2_ctstlfrdvlpmnt(mrkr),0.0,0.0,0.0,0.0,0.5643822843822844,1.0,1.0,1.0,0.75,0.0,0.0430641573116598,0.0,0,0
Gender equality (marker),miller2_knwldgfrdvlpmnt(mrkr),0.0,0.0,0.0,0.0,0.5771810797897755,1.0,0.8239706248332223,0.0,1.0,0.0,0.0461966820401323,0.0,0,0
Gender equality (marker),miller2_rgnstnd,0.0,0.0,0.0,0.0,0.02,1.0,0.0,0.0,0.0117994100294985,0.0,0.0323680693776885,0.0,0,0
Gender equality (marker),miller2_rgnstnnm,0.0,0.0,0.0,0.0,0.02,1.0,0.0,0.0,0.0117994100294985,0.0,0.0344875222790806,0.0,0,0
Gender equality (marker),miller2_rgnstntp,0.0,0.0,0.0,0.0,0.02,1.0,0.0,0.0,1.0,0.0,0.0321914483025725,0.0,0,0
Gender equality (marker),miller2_rgnstnclss,0.0,0.0,0.0,0.0,0.02,1.0,0.0,0.0,0.6666666666666666,0.0,0.0318634377345,0.0,0,0
Gender equality (marker),miller2_cntnntnm,0.0,0.0,0.0,0.0,0.02,1.0,0.0,0.0,0.8,0.0,0.0344875222790806,0.0,0,0
Gender equality (marker),miller2_prjctbrwsrcntrd,0.0,0.0,0.0,0.0,0.02,1.0,0.0,0.0,0.0261437908496732,0.0,0.0350737539326571,0.0,0,0
Gender equality (marker),miller2_cntrrgnd,0.0,0.0,0.0,0.0,0.02,1.0,0.0,0.0,0.028169014084507,0.0,0.0367835962555886,0.0,0,0
Gender equality (marker),miller2_cntrrgnnm,0.0,0.0,0.0,0.0,0.02,1.0,0.0,0.0,0.0275862068965517,0.0,0.0365035872340632,0.0,0,0
Gender equality (marker),miller2_cntrrgnprcnt,0.0,0.0,0.0,0.0,0.05,1.0,0.0,0.0,0.0099502487562189,0.0,0.0356727412021324,0.0,0,0
Gender equality (marker),miller2_sctrd,0.0,0.0,0.0,0.0,0.4506293706293707,1.0,0.0,0.0,0.032520325203252,0.0,0.0353310183471213,0.0,0,0
Gender equality (marker),miller2_mntspnt,0.0,0.0,0.0,0.0,0.05,1.0,0.0,0.0,0.0007968127490039,0.0,0.0323008843135542,0.0,0,0
Participatory development and good governance,miller2_fsclr,0.0,0.0,0.0,0.0,0.02,1.0,0.0,0.0,0.25,0.0,0.0332207228437658,0.0,0,0
Participatory development and good governance,miller2_brnchd,0.0,0.0,0.0,0.0,0.02,1.0,0.0,0.0,0.8,0.0,0.0346431883113862,0.0,0,0
Participatory development and good governance,miller2_rgnstnsb-clss,0.0,0.0,0.0,0.0,0.02,1.0,0.0,0.0,0.1666666666666666,0.0,0.0350441462733856,0.0,0,0
Participatory development and good governance,miller2_cntnntd,0.0,0.0,0.0,0.0,0.3746563675975441,1.0,1.0,1.0,0.8,0.0,0.0361170616904304,0.0,0,0
Participatory development and good governance,miller2_sctrprcnt,0.0,0.0,0.0,0.0,0.05,1.0,0.0,0.0,0.0216216216216216,0.0,0.0356054076544342,0.0,0,0
Participatory development and good governance,miller2_sctrnm,0.0,0.0,0.0,0.0,0.02,1.0,0.0,0.0,0.032520325203252,0.0,0.0346431883113862,0.0,0,0
Participatory development and good governance,miller2_stts,0.0,0.0,0.0,0.0,0.02,1.0,0.0,0.0,0.75,0.0,0.0317483463071061,0.0,0,0
Participatory development and good governance,miller2_prjctnmbr,0.0,0.0,0.0,0.0,0.02,1.0,0.0,0.0,0.0062208398133748,0.0,0.0341912546692086,0.0,0,0
Participatory development and good governance,miller2_clmtchngmtgtn(mrkr),0.0,0.0,0.0,0.0,0.3971988795518207,1.0,1.0,0.0,1.0,0.0,0.0368824196825997,0.0,0,0
Participatory development and good governance,miller2_gndrqlt(mrkr),0.0,0.0,0.0,0.0,0.4287751464222052,1.0,1.0,0.0,1.0,0.0,0.0337514097146342,0.0,0,0
Participatory development and good governance,miller2_prtcptrdvlpmntndgdgvrnnc,0.0,0.0,0.0,0.0,0.4545961087137558,1.0,1.0,1.0,1.0,0.0,0.0528356609479478,0.0,1,1
Participatory development and good governance,miller2_mxmmcdcntrbtn(prjct-lvl),0.0,0.0,0.0,0.0,0.05,1.0,0.0,0.0,0.0077821011673151,0.0,0.0347781669255709,0.0,0,0
Participatory development and good governance,miller2_rgnlprgrm(mrkr),0.0,0.0,0.0,0.0,0.3979949462302404,1.0,0.8345010559436815,0.0,0.5,0.0,0.033505840305382,0.0,0,0
Participatory development and good governance,miller2_sctnd,0.0,0.0,0.0,0.0,0.02,1.0,0.0,0.0,0.16,0.0,0.0348042221379093,0.0,0,0
Participatory development and good governance,miller2_ntdmnt(prjct-lvlbdgt),0.0,0.0,0.0,0.0,0.05,1.0,0.0,0.0,0.0092165898617511,0.0,0.0351650098559759,0.0,0,0
Participatory development and good governance,miller2_rbnsss(mrkr),0.0,0.0,0.0,0.0,0.3632119514472456,1.0,1.0,0.0,1.0,0.0,0.0324668928046997,0.0,0,0
Participatory development and good governance,miller2_chldrnsss(mrkr),0.0,0.0,0.0,0.0,0.3746024185652669,1.0,1.0,0.0,1.0,0.0,0.033505840305382,0.0,0,0
Participatory development and good governance,miller2_thsss(mrkr),0.0,0.0,0.0,0.0,0.3472455648926237,1.0,1.0,0.0,1.0,0.0,0.0325772809766472,0.0,0,0
Participatory development and good governance,miller2_ndgnssss(mrkr),0.0,0.0,0.0,0.0,0.3774042950513539,1.0,1.0,1.0,1.0,0.0,0.0349975828362125,0.0,0,0
Participatory development and good governance,miller2_dsbltsss(mrkr),0.0,0.0,0.0,0.0,0.3987910953855227,1.0,0.8239178934056988,0.0,1.0,0.0,0.0336267924024764,0.0,0,0
Participatory development and good governance,miller2_ctstlfrdvlpmnt(mrkr),0.0,0.0,0.0,0.0,0.4482614379084968,1.0,1.0,0.0,0.75,0.0,0.0404995225223042,0.0,0,0
Participatory development and good governance,miller2_knwldgfrdvlpmnt(mrkr),0.0,0.0,0.0,0.0,0.4552379137889974,1.0,0.860080983329834,0.0,1.0,0.0,0.0378132604838868,0.0,0,0
Participatory development and good governance,miller2_rgnstnd,0.0,0.0,0.0,0.0,0.02,1.0,0.0,0.0,0.0117994100294985,0.0,0.0360182382634193,0.0,0,0
Participatory development and good governance,miller2_rgnstnnm,0.0,0.0,0.0,0.0,0.02,1.0,0.0,0.0,0.0117994100294985,0.0,0.0358425823307902,0.0,0,0
Participatory development and good governance,miller2_rgnstntp,0.0,0.0,0.0,0.0,0.02,1.0,0.0,0.0,1.0,0.0,0.0343369600511128,0.0,0,0
Participatory development and good governance,miller2_rgnstnclss,0.0,0.0,0.0,0.0,0.02,1.0,0.0,0.0,0.6666666666666666,0.0,0.035507999601973,0.0,0,0
Participatory development and good governance,miller2_cntnntnm,0.0,0.0,0.0,0.0,0.02,1.0,0.0,0.0,0.8,0.0,0.0373482046104676,0.0,0,0
Participatory development and good governance,miller2_prjctbrwsrcntrd,0.0,0.0,0.0,0.0,0.02,1.0,0.0,0.0,0.0261437908496732,0.0,0.034757648629258,0.0,0,0
Participatory development and good governance,miller2_cntrrgnd,0.0,0.0,0.0,0.0,0.02,1.0,0.0,0.0,0.028169014084507,0.0,0.0358425823307902,0.0,0,0
Participatory development and good governance,miller2_cntrrgnnm,0.0,0.0,0.0,0.0,0.02,1.0,0.0,0.0,0.0275862068965517,0.0,0.0371539307679286,0.0,0,0
Participatory development and good governance,miller2_cntrrgnprcnt,0.0,0.0,0.0,0.0,0.05,1.0,0.0,0.0,0.0099502487562189,0.0,0.0365397901163382,0.0,0,0
Participatory development and good governance,miller2_sctrd,0.0,0.0,0.0,0.0,0.4108932461873639,1.0,0.0,0.0,0.032520325203252,0.0,0.0333195462707769,0.0,0,0
Participatory development and good governance,miller2_mntspnt,0.0,0.0,0.0,0.0,0.05,1.0,0.0,0.0,0.0007968127490039,0.0,0.0344203372149462,0.0,0,0
Maximum CIDA contribution (project-level),miller2_fsclr,0.0,0.0,0.0,0.0,0.0333333333333333,1.0,0.0,0.0,8.600670852326481e-05,0.0,0.033728170650966,0.0,0,0
Maximum CIDA contribution (project-level),miller2_brnchd,0.0,0.0,0.0,0.0,0.0333333333333333,1.0,0.0,0.0,0.0004300335426163,0.0,0.0335735528747701,0.0,0,0
Maximum CIDA contribution (project-level),miller2_rgnstnsb-clss,0.0,0.0,0.0,0.0,0.0333333333333333,1.0,0.0,0.0,0.0020641610045583,0.0,0.0341122212563556,0.0,0,0
Maximum CIDA contribution (project-level),miller2_cntnntd,0.0,0.0,0.0,0.0,0.05,1.0,0.0,0.0,0.0004300335426163,0.0,0.0350740098643024,0.0,0,0
Maximum CIDA contribution (project-level),miller2_sctrprcnt,0.0,0.0,0.0,0.0,0.4505050505050505,1.0,0.0,0.0,0.0159112410768039,0.0,0.0381166499074417,0.0,0,0
Maximum CIDA contribution (project-level),miller2_sctrnm,0.0,0.0,0.0,0.0,0.0333333333333333,1.0,0.0,0.0,0.0105788251483615,0.0,0.0335735528747701,0.0,0,0
Maximum CIDA contribution (project-level),miller2_stts,0.0,0.0,0.0,0.0,0.0333333333333333,1.0,0.0,0.0,0.0002580201255697,0.0,0.0321557370402197,0.0,0,0
Maximum CIDA contribution (project-level),miller2_prjctnmbr,0.0,0.0,0.0,0.0,0.0333333333333333,1.0,0.0,0.0,0.0553023135804592,0.0,0.0363086880191998,0.0,0,0
Maximum CIDA contribution (project-level),miller2_clmtchngmtgtn(mrkr),0.0,0.0,0.0,0.0,0.05,1.0,0.0,0.0,0.000344026834093,0.0,0.0387400103309959,0.0,0,0
Maximum CIDA contribution (project-level),miller2_gndrqlt(mrkr),0.0,0.0,0.0,0.0,0.05,1.0,0.0,0.0,0.000344026834093,0.0,0.0356030591676453,0.0,0,0
Maximum CIDA contribution (project-level),miller2_prtcptrdvlpmntndgdgvrnnc,0.0,0.0,0.0,0.0,0.05,1.0,0.0,0.0,0.000344026834093,0.0,0.0352986746369548,0.0,0,0
Maximum CIDA contribution (project-level),miller2_mxmmcdcntrbtn(prjct-lvl),0.14620055,0.0,0.18275069,0.0,0.6202710902542836,1.0,0.0,0.0,0.0442074481809581,0.0,0.051869232818222,0.0,1,1
Maximum CIDA contribution (project-level),miller2_rgnlprgrm(mrkr),0.0,0.0,0.0,0.0,0.05,1.0,0.0,0.0,0.0001720134170465,0.0,0.0338439702340302,0.0,0,0
Maximum CIDA contribution (project-level),miller2_sctnd,0.0,0.0,0.0,0.0,0.0333333333333333,1.0,0.0,0.0,0.0021501677130816,0.0,0.033728170650966,0.0,0,0
Maximum CIDA contribution (project-level),miller2_ntdmnt(prjct-lvlbdgt),0.0,0.0,0.0,0.0,0.5266291131837351,1.0,0.0,0.0,0.0373269114990969,0.0,0.0451292896386485,0.0,0,0
Maximum CIDA contribution (project-level),miller2_rbnsss(mrkr),0.0,0.0,0.0,0.0,0.05,1.0,0.0,0.0,0.000344026834093,0.0,0.0357730487798669,0.0,0,0
Maximum CIDA contribution (project-level),miller2_chldrnsss(mrkr),0.0,0.0,0.0,0.0,0.05,1.0,0.0,0.0,0.000344026834093,0.0,0.0352790164693478,0.0,0,0
Maximum CIDA contribution (project-level),miller2_thsss(mrkr),0.0,0.0,0.0,0.0,0.05,1.0,0.0,0.0,0.000344026834093,0.0,0.0344179887281572,0.0,0,0
Maximum CIDA contribution (project-level),miller2_ndgnssss(mrkr),0.0,0.0,0.0,0.0,0.05,1.0,0.0,0.0,0.000344026834093,0.0,0.0339806413040605,0.0,0,0
Maximum CIDA contribution (project-level),miller2_dsbltsss(mrkr),0.0,0.0,0.0,0.0,0.05,1.0,0.0,0.0,0.000344026834093,0.0,0.0354384660510497,0.0,0,0
Maximum CIDA contribution (project-level),miller2_ctstlfrdvlpmnt(mrkr),0.0,0.0,0.0,0.0,0.05,1.0,0.0,0.0,0.0002580201255697,0.0,0.0372132092212975,0.0,0,0
Maximum CIDA contribution (project-level),miller2_knwldgfrdvlpmnt(mrkr),0.0,0.0,0.0,0.0,0.05,1.0,0.0,0.0,0.000344026834093,0.0,0.0344179887281572,0.0,0,0
Maximum CIDA contribution (project-level),miller2_rgnstnd,0.0,0.0,0.0,0.0,0.0333333333333333,1.0,0.0,0.0,0.0291562741893867,0.0,0.031784404321647,0.0,0,0
Maximum CIDA contribution (project-level),miller2_rgnstnnm,0.0,0.0,0.0,0.0,0.0333333333333333,1.0,0.0,0.0,0.0291562741893867,0.0,0.0316693128942531,0.0,0,0
Maximum CIDA contribution (project-level),miller2_rgnstntp,0.0,0.0,0.0,0.0,0.0333333333333333,1.0,0.0,0.0,0.000344026834093,0.0,0.0332805928777675,0.0,0,0
Maximum CIDA contribution (project-level),miller2_rgnstnclss,0.0,0.0,0.0,0.0,0.0333333333333333,1.0,0.0,0.0,0.0005160402511395,0.0,0.0345641548985332,0.0,0,0
Maximum CIDA contribution (project-level),miller2_cntnntnm,0.0,0.0,0.0,0.0,0.0333333333333333,1.0,0.0,0.0,0.0004300335426163,0.0,0.0348918728612819,0.0,0,0
Maximum CIDA contribution (project-level),miller2_prjctbrwsrcntrd,0.0,0.0,0.0,0.0,0.0333333333333333,1.0,0.0,0.0,0.0131590264040595,0.0,0.0352695166074181,0.0,0,0
Maximum CIDA contribution (project-level),miller2_cntrrgnd,0.0,0.0,0.0,0.0,0.0333333333333333,1.0,0.0,0.0,0.0122129526103036,0.0,0.0348918728612819,0.0,0,0
Maximum CIDA contribution (project-level),miller2_cntrrgnnm,0.0,0.0,0.0,0.0,0.0333333333333333,1.0,0.0,0.0,0.0124709727358733,0.0,0.0347251887250563,0.0,0,0
Maximum CIDA contribution (project-level),miller2_cntrrgnprcnt,0.0,0.0,0.0,0.0,0.4542106782106782,1.0,0.0,0.0,0.0345746968263524,0.0,0.0405048783510679,0.0,0,0
Maximum CIDA contribution (project-level),miller2_sctrd,0.0,0.0,0.0,0.0,0.05,1.0,0.0,0.0,0.0105788251483615,0.0,0.0337376705128956,0.0,0,0
Maximum CIDA contribution (project-level),miller2_mntspnt,0.0,0.0,0.0,0.0,0.4113100934153566,1.0,0.0,0.0,0.4317536767867894,0.0,0.0352889725964712,0.0,0,0
Regional program (marker),miller2_fsclr,0.0,0.0,0.0,0.0,0.02,1.0,0.0,0.0,0.5,0.0,0.0349709062741349,0.0,0,0
Regional program (marker),miller2_brnchd,0.0,0.0,0.0,0.0,0.02,1.0,0.0,0.0,0.4,0.0,0.0347230170459019,0.0,0,0
Regional program (marker),miller2_rgnstnsb-clss,0.0,0.0,0.0,0.0,0.02,1.0,0.0,0.0,0.0833333333333333,0.0,0.0332895706391633,0.0,0,0
Regional program (marker),miller2_cntnntd,0.0,0.0,0.0,0.0,0.4345494505494506,1.0,0.7509769094138544,0.0,0.4,0.0,0.0345863457060917,0.0,0,0
Regional program (marker),miller2_sctrprcnt,0.0,0.0,0.0,0.0,0.05,1.0,0.0,0.0,0.0108108108108108,0.0,0.0361697269113333,0.0,0,0
Regional program (marker),miller2_sctrnm,0.0,0.0,0.0,0.0,0.02,1.0,0.0,0.0,0.016260162601626,0.0,0.0370779647141153,0.0,0,0
Regional program (marker),miller2_stts,0.0,0.0,0.0,0.0,0.02,1.0,0.0,0.0,0.6666666666666666,0.0,0.0352321949201102,0.0,0,0
Regional program (marker),miller2_prjctnmbr,0.0,0.0,0.0,0.0,0.02,1.0,0.0,0.0,0.0031104199066874,0.0,0.0384236490959515,0.0,0,0
Regional program (marker),miller2_clmtchngmtgtn(mrkr),0.0,0.0,0.0,0.0,0.5855788655788656,1.0,0.8733875881139906,0.0,0.5,0.0,0.0448303680628199,0.0,0,0
Regional program (marker),miller2_gndrqlt(mrkr),0.0,0.0,0.0,0.0,0.6300233100233101,1.0,0.9389753855573878,0.0,0.5,0.0,0.0473644965318755,0.0,0,0
Regional program (marker),miller2_prtcptrdvlpmntndgdgvrnnc,0.0,0.0,0.0,0.0,0.4729396195202647,1.0,0.923437894134523,1.0,0.5,0.0,0.0366810096846604,0.0,0,0
Regional program (marker),miller2_mxmmcdcntrbtn(prjct-lvl),0.0,0.0,0.0,0.0,0.05,1.0,0.0,0.0,0.0038910505836575,0.0,0.0381262811770294,0.0,0,0
Regional program (marker),miller2_rgnlprgrm(mrkr),0.0,0.0,0.0,0.0,0.7042835595776773,1.0,0.869178440607012,0.0,1.0,0.0,0.05410297450641,0.0,1,1
Regional program (marker),miller2_sctnd,0.0,0.0,0.0,0.0,0.02,1.0,0.0,0.0,0.08,0.0,0.0349709062741349,0.0,0,0
Regional program (marker),miller2_ntdmnt(prjct-lvlbdgt),0.0,0.0,0.0,0.0,0.05,1.0,0.0,0.0,0.0046082949308755,0.0,0.0371416100759928,0.0,0,0
Regional program (marker),miller2_rbnsss(mrkr),0.0,0.0,0.0,0.0,0.5995471195471196,1.0,0.8696552143489344,0.0,0.5,0.0,0.0458115962579088,0.0,0,0
Regional program (marker),miller2_chldrnsss(mrkr),0.0,0.0,0.0,0.0,0.5902847479318067,1.0,0.9000594295731922,1.0,0.5,0.0,0.0445359996042932,0.0,0,0
Regional program (marker),miller2_thsss(mrkr),0.0,0.0,0.0,0.0,0.558912198912199,1.0,0.9256829621601992,1.0,0.5,0.0,0.0441881096078526,0.0,0,0
Regional program (marker),miller2_ndgnssss(mrkr),0.0,0.0,0.0,0.0,0.5922455322455322,1.0,0.8657139152027532,1.0,0.5,0.0,0.0449431049192769,0.0,0,0
Regional program (marker),miller2_dsbltsss(mrkr),0.0,0.0,0.0,0.0,0.5755788655788656,1.0,0.8625801114905339,0.0,0.5,0.0,0.0429889994073551,0.0,0,0
Regional program (marker),miller2_ctstlfrdvlpmnt(mrkr),0.0,0.0,0.0,0.0,0.5843090243090243,1.0,0.8809190304479314,0.0,0.6666666666666666,0.0,0.0444637960201263,0.0,0,0
Regional program (marker),miller2_knwldgfrdvlpmnt(mrkr),0.0,0.0,0.0,0.0,0.5952758352758354,1.0,0.8956705100311027,1.0,0.5,0.0,0.0458115962579088,0.0,0,0
Regional program (marker),miller2_rgnstnd,0.0,0.0,0.0,0.0,0.02,1.0,0.0,0.0,0.0058997050147492,0.0,0.0344875222790806,0.0,0,0
Regional program (marker),miller2_rgnstnnm,0.0,0.0,0.0,0.0,0.02,1.0,0.0,0.0,0.0058997050147492,0.0,0.0365035872340632,0.0,0,0
Regional program (marker),miller2_rgnstntp,0.0,0.0,0.0,0.0,0.02,1.0,0.0,0.0,0.5,0.0,0.0342635150618603,0.0,0,0
Regional program (marker),miller2_rgnstnclss,0.0,0.0,0.0,0.0,0.02,1.0,0.0,0.0,0.3333333333333333,0.0,0.0338467574484272,0.0,0,0
Regional program (marker),miller2_cntnntnm,0.0,0.0,0.0,0.0,0.02,1.0,0.0,0.0,0.4,0.0,0.0342635150618603,0.0,0,0
Regional program (marker),miller2_prjctbrwsrcntrd,0.0,0.0,0.0,0.0,0.02,1.0,0.0,0.0,0.0130718954248366,0.0,0.038696991236012,0.0,0,0
Regional program (marker),miller2_cntrrgnd,0.0,0.0,0.0,0.0,0.02,1.0,0.0,0.0,0.0140845070422535,0.0,0.0365035872340632,0.0,0,0
Regional program (marker),miller2_cntrrgnnm,0.0,0.0,0.0,0.0,0.02,1.0,0.0,0.0,0.0137931034482758,0.0,0.0362369119754676,0.0,0,0
Regional program (marker),miller2_cntrrgnprcnt,0.0,0.0,0.0,0.0,0.05,1.0,0.0,0.0,0.0049751243781094,0.0,0.0374817691836236,0.0,0,0
Regional program (marker),miller2_sctrd,0.0,0.0,0.0,0.0,0.4461165501165501,1.0,0.0,0.0,0.016260162601626,0.0,0.035069729701146,0.0,0,0
Regional program (marker),miller2_mntspnt,0.0,0.0,0.0,0.0,0.05,1.0,0.0,0.0,0.0003984063745019,0.0,0.0344203372149462,0.0,0,0
Section ID,miller2_fsclr,0.0,0.0,0.0,0.0,0.4222222222222223,1.0,0.0,0.0,0.0009310986964618,0.0,0.0333753315486314,0.0,0,0
Section ID,miller2_brnchd,0.0,0.0,0.0,0.0,0.3752136752136752,1.0,0.0,0.0,0.0046554934823091,0.0,0.0330425672042099,0.0,0,0
Section ID,miller2_rgnstnsb-clss,0.0,0.0,0.0,0.0,0.4088888888888889,1.0,0.0,0.0,0.0223463687150838,0.0,0.0342770155786766,0.0,0,0
Section ID,miller2_cntnntd,0.0,0.0,0.0,0.0,0.02,1.0,0.0,0.0,0.0046554934823091,0.0,0.0399848867689026,0.0,0,0
Section ID,miller2_sctrprcnt,0.0,0.0,0.0,0.0,0.0333333333333333,1.0,0.0,0.0,0.1722532588454376,0.0,0.0388208519004045,0.0,0,0
Section ID,miller2_sctrnm,0.0,0.0,0.0,0.0,0.5350427350427351,1.0,0.0,0.0,0.1145251396648044,0.0,0.0406961471259034,0.0,0,0
Section ID,miller2_stts,0.0,0.0,0.0,0.0,0.4343434343434343,1.0,0.0,0.0,0.0027932960893854,0.0,0.0337383471970911,0.0,0,0
Section ID,miller2_prjctnmbr,0.0,0.0,0.0,0.0,0.4388888888888889,1.0,0.0,0.0,0.5986964618249534,0.0,0.0389953515877493,0.0,0,0
Section ID,miller2_clmtchngmtgtn(mrkr),0.0,0.0,0.0,0.0,0.02,1.0,0.0,0.0,0.0037243947858473,0.0,0.0352189818663129,0.0,0,0
Section ID,miller2_gndrqlt(mrkr),0.0,0.0,0.0,0.0,0.02,1.0,0.0,0.0,0.0037243947858473,0.0,0.0312153655166912,0.0,0,0
Section ID,miller2_prtcptrdvlpmntndgdgvrnnc,0.0,0.0,0.0,0.0,0.02,1.0,0.0,0.0,0.0037243947858473,0.0,0.0340369618011865,0.0,0,0
Section ID,miller2_mxmmcdcntrbtn(prjct-lvl),0.0,0.0,0.0,0.0,0.0333333333333333,1.0,0.0,0.0,0.478584729981378,0.0,0.033961436077107,0.0,0,0
Section ID,miller2_rgnlprgrm(mrkr),0.0,0.0,0.0,0.0,0.02,1.0,0.0,0.0,0.0018621973929236,0.0,0.0308562532623009,0.0,0,0
Section ID,miller2_sctnd,0.0,0.0,0.0,0.0,0.5682539682539682,1.0,0.8887236574694688,1.0,0.0232774674115456,0.0,0.0413616758147463,0.0,1,1
Section ID,miller2_ntdmnt(prjct-lvlbdgt),0.0,0.0,0.0,0.0,0.0333333333333333,1.0,0.0,0.0,0.404096834264432,0.0,0.0322793305998118,0.0,0,0
Section ID,miller2_rbnsss(mrkr),0.0,0.0,0.0,0.0,0.02,1.0,0.0,0.0,0.0037243947858473,0.0,0.0314128772566059,0.0,0,0
Section ID,miller2_chldrnsss(mrkr),0.0,0.0,0.0,0.0,0.02,1.0,0.0,0.0,0.0037243947858473,0.0,0.0336393732338258,0.0,0,0
Section ID,miller2_thsss(mrkr),0.0,0.0,0.0,0.0,0.02,1.0,0.0,0.0,0.0037243947858473,0.0,0.031624010495825,0.0,0,0
Section ID,miller2_ndgnssss(mrkr),0.0,0.0,0.0,0.0,0.02,1.0,0.0,0.0,0.0037243947858473,0.0,0.0310301982605212,0.0,0,0
Section ID,miller2_dsbltsss(mrkr),0.0,0.0,0.0,0.0,0.02,1.0,0.0,0.0,0.0037243947858473,0.0,0.0310301982605212,0.0,0,0
Section ID,miller2_ctstlfrdvlpmnt(mrkr),0.0,0.0,0.0,0.0,0.02,1.0,0.0,0.0,0.0027932960893854,0.0,0.0349576932203376,0.0,0,0
Section ID,miller2_knwldgfrdvlpmnt(mrkr),0.0,0.0,0.0,0.0,0.02,1.0,0.0,0.0,0.0037243947858473,0.0,0.0299999086556779,0.0,0,0
Section ID,miller2_rgnstnd,0.0,0.0,0.0,0.0,0.4603174603174603,1.0,0.0,0.0,0.3156424581005586,0.0,0.036410142369755,0.0,0,0
Section ID,miller2_rgnstnnm,0.0,0.0,0.0,0.0,0.4488888888888889,1.0,0.0,0.0,0.3156424581005586,0.0,0.0359862517894766,0.0,0,0
Section ID,miller2_rgnstntp,0.0,0.0,0.0,0.0,0.4488888888888889,1.0,0.0,0.0,0.0037243947858473,0.0,0.0359862517894766,0.0,0,0
Section ID,miller2_rgnstnclss,0.0,0.0,0.0,0.0,0.4300653594771242,1.0,0.0,0.0,0.0055865921787709,0.0,0.0352293043246937,0.0,0,0
Section ID,miller2_cntnntnm,0.0,0.0,0.0,0.0,0.4488888888888889,1.0,0.0,0.0,0.0046554934823091,0.0,0.0395186732917967,0.0,0,0
Section ID,miller2_prjctbrwsrcntrd,0.0,0.0,0.0,0.0,0.397979797979798,1.0,0.0,0.0,0.1424581005586592,0.0,0.036521467168616,0.0,0,0
Section ID,miller2_cntrrgnd,0.0,0.0,0.0,0.0,0.4488888888888889,1.0,0.0,0.0,0.1322160148975791,0.0,0.0395186732917967,0.0,0,0
