source,target,conf,realConf
Fiscal year,miller2_FiYe,0.6315151515151516,1
Fiscal year,miller2_CouReN,0.5175135975135976,0
Fiscal year,miller2_OrgaID,0.45130869130869133,0
Fiscal year,miller2_IndigIs,0.020000000000000004,0
Fiscal year,miller2_BrN,0.5775424575424575,0
Fiscal year,miller2_SecPer,0.033333333333333326,0
Fiscal year,miller2_OrganTy,0.5314125874125875,0
Fiscal year,miller2_SecID,0.5584415584415585,0
Fiscal year,miller2_ChIss,0.020000000000000004,0
Fiscal year,miller2_ProBroCounID,0.4855658627087199,0
Fiscal year,miller2_Biodiv,0.020000000000000004,0
Fiscal year,miller2_ConNa,0.5220779220779221,0
Fiscal year,Sector ID,0.020000000000000004,0
Fiscal year,miller2_OrganiCl,0.5447272727272727,0
Fiscal year,miller2_DiID,0.45130869130869133,0
Fiscal year,miller2_CliChaAda,0.020000000000000004,0
Fiscal year,miller2_ClChaMiti,0.020000000000000004,0
Fiscal year,miller2_Deser,0.020000000000000004,0
Fiscal year,miller2_PartiDevAGoGov,0.020000000000000004,0
Fiscal year,miller2_TrDevelo,0.020000000000000004,0
Fiscal year,miller2_UrIs,0.020000000000000004,0
Fiscal year,miller2_YoIss,0.020000000000000004,0
Fiscal year,miller2_DisIs,0.020000000000000004,0
Fiscal year,miller2_ICTAATFoDeve,0.020000000000000004,0
Fiscal year,miller2_KnoFDevelo,0.020000000000000004,0
Fiscal year,miller2_GeEqu,0.020000000000000004,0
Fiscal year,miller2_OrgN,0.5276723276723276,0
Fiscal year,miller2_OrgSu,0.45130869130869133,0
Fiscal year,miller2_ContiID,0.020000000000000004,0
Fiscal year,miller2_CouRegID,0.4438154438154438,0
Fiscal year,miller2_CouRegPer,0.033333333333333326,0
Fiscal year,miller2_SecNa,0.5584415584415585,0
Fiscal year,miller2_AmSp,0.033333333333333326,0
CountryRegion name,miller2_FiYe,0.4377104377104377,0
CountryRegion name,miller2_CouReN,0.6525874125874127,1
CountryRegion name,miller2_OrgaID,0.6481144781144781,0
CountryRegion name,miller2_IndigIs,0.020000000000000004,0
CountryRegion name,miller2_BrN,0.6546386946386946,0
CountryRegion name,miller2_SecPer,0.033333333333333326,0
CountryRegion name,miller2_OrganTy,0.6833432362844127,0
CountryRegion name,miller2_SecID,0.7003367003367005,0
CountryRegion name,miller2_ChIss,0.020000000000000004,0
CountryRegion name,miller2_ProBroCounID,0.6957575757575758,0
CountryRegion name,miller2_Biodiv,0.020000000000000004,0
CountryRegion name,miller2_ConNa,0.5951515151515152,0
CountryRegion name,Sector ID,0.020000000000000004,0
CountryRegion name,miller2_OrganiCl,0.625920745920746,0
CountryRegion name,miller2_DiID,0.6281144781144781,0
CountryRegion name,miller2_CliChaAda,0.020000000000000004,0
CountryRegion name,miller2_ClChaMiti,0.020000000000000004,0
CountryRegion name,miller2_Deser,0.020000000000000004,0
CountryRegion name,miller2_PartiDevAGoGov,0.020000000000000004,0
CountryRegion name,miller2_TrDevelo,0.020000000000000004,0
CountryRegion name,miller2_UrIs,0.020000000000000004,0
CountryRegion name,miller2_YoIss,0.020000000000000004,0
CountryRegion name,miller2_DisIs,0.020000000000000004,0
CountryRegion name,miller2_ICTAATFoDeve,0.020000000000000004,0
CountryRegion name,miller2_KnoFDevelo,0.020000000000000004,0
CountryRegion name,miller2_GeEqu,0.020000000000000004,0
CountryRegion name,miller2_OrgN,0.6051800051800051,0
CountryRegion name,miller2_OrgSu,0.4984511784511785,0
CountryRegion name,miller2_ContiID,0.020000000000000004,0
CountryRegion name,miller2_CouRegID,0.6831457431457431,0
CountryRegion name,miller2_CouRegPer,0.033333333333333326,0
CountryRegion name,miller2_SecNa,0.6586435786435787,0
CountryRegion name,miller2_AmSp,0.033333333333333326,0
Organisation ID,miller2_FiYe,0.41841269841269846,0
Organisation ID,miller2_CouReN,0.44135947712418305,0
Organisation ID,miller2_OrgaID,0.7269841269841271,1
Organisation ID,miller2_IndigIs,0.020000000000000004,0
Organisation ID,miller2_BrN,0.5529492207139266,0
Organisation ID,miller2_SecPer,0.033333333333333326,0
Organisation ID,miller2_OrganTy,0.534984126984127,0
Organisation ID,miller2_SecID,0.768888888888889,0
Organisation ID,miller2_ChIss,0.020000000000000004,0
Organisation ID,miller2_ProBroCounID,0.6545124716553288,0
Organisation ID,miller2_Biodiv,0.020000000000000004,0
Organisation ID,miller2_ConNa,0.5991722896986055,0
Organisation ID,Sector ID,0.020000000000000004,0
Organisation ID,miller2_OrganiCl,0.5941196581196582,0
Organisation ID,miller2_DiID,0.7269841269841271,0
Organisation ID,miller2_CliChaAda,0.020000000000000004,0
Organisation ID,miller2_ClChaMiti,0.020000000000000004,0
Organisation ID,miller2_Deser,0.020000000000000004,0
Organisation ID,miller2_PartiDevAGoGov,0.020000000000000004,0
Organisation ID,miller2_TrDevelo,0.020000000000000004,0
Organisation ID,miller2_UrIs,0.020000000000000004,0
Organisation ID,miller2_YoIss,0.020000000000000004,0
Organisation ID,miller2_DisIs,0.020000000000000004,0
Organisation ID,miller2_ICTAATFoDeve,0.020000000000000004,0
Organisation ID,miller2_KnoFDevelo,0.020000000000000004,0
Organisation ID,miller2_GeEqu,0.020000000000000004,0
Organisation ID,miller2_OrgN,0.4840261437908497,0
Organisation ID,miller2_OrgSu,0.421968253968254,0
Organisation ID,miller2_ContiID,0.020000000000000004,0
Organisation ID,miller2_CouRegID,0.6258201058201058,0
Organisation ID,miller2_CouRegPer,0.033333333333333326,0
Organisation ID,miller2_SecNa,0.5473504273504273,0
Organisation ID,miller2_AmSp,0.033333333333333326,0
Indigenous issues (marker),miller2_FiYe,0.020000000000000004,0
Indigenous issues (marker),miller2_CouReN,0.020000000000000004,0
Indigenous issues (marker),miller2_OrgaID,0.020000000000000004,0
Indigenous issues (marker),miller2_IndigIs,0.6102564102564103,1
Indigenous issues (marker),miller2_BrN,0.020000000000000004,0
Indigenous issues (marker),miller2_SecPer,0.05,0
Indigenous issues (marker),miller2_OrganTy,0.020000000000000004,0
Indigenous issues (marker),miller2_SecID,0.020000000000000004,0
Indigenous issues (marker),miller2_ChIss,0.541880341880342,0
Indigenous issues (marker),miller2_ProBroCounID,0.020000000000000004,0
Indigenous issues (marker),miller2_Biodiv,0.516923076923077,0
Indigenous issues (marker),miller2_ConNa,0.020000000000000004,0
Indigenous issues (marker),Sector ID,0.5640100250626566,0
Indigenous issues (marker),miller2_OrganiCl,0.020000000000000004,0
Indigenous issues (marker),miller2_DiID,0.020000000000000004,0
Indigenous issues (marker),miller2_CliChaAda,0.46593611803695834,0
Indigenous issues (marker),miller2_ClChaMiti,0.5129949415663702,0
Indigenous issues (marker),miller2_Deser,0.533874125874126,0
Indigenous issues (marker),miller2_PartiDevAGoGov,0.520979020979021,0
Indigenous issues (marker),miller2_TrDevelo,0.49743589743589745,0
Indigenous issues (marker),miller2_UrIs,0.49457013574660635,0
Indigenous issues (marker),miller2_YoIss,0.5641025641025641,0
Indigenous issues (marker),miller2_DisIs,0.5275615887380594,0
Indigenous issues (marker),miller2_ICTAATFoDeve,0.470727367870225,0
Indigenous issues (marker),miller2_KnoFDevelo,0.5611721611721612,0
Indigenous issues (marker),miller2_GeEqu,0.49059829059829063,0
Indigenous issues (marker),miller2_OrgN,0.020000000000000004,0
Indigenous issues (marker),miller2_OrgSu,0.020000000000000004,0
Indigenous issues (marker),miller2_ContiID,0.49235653235653243,0
Indigenous issues (marker),miller2_CouRegID,0.020000000000000004,0
Indigenous issues (marker),miller2_CouRegPer,0.05,0
Indigenous issues (marker),miller2_SecNa,0.020000000000000004,0
Indigenous issues (marker),miller2_AmSp,0.05,0
Branch name,miller2_FiYe,0.39431235431235434,0
Branch name,miller2_CouReN,0.5439937839937841,0
Branch name,miller2_OrgaID,0.5061818181818182,0
Branch name,miller2_IndigIs,0.020000000000000004,0
Branch name,miller2_BrN,0.6288605512134924,1
Branch name,miller2_SecPer,0.033333333333333326,0
Branch name,miller2_OrganTy,0.5781818181818182,0
Branch name,miller2_SecID,0.6339712918660287,0
Branch name,miller2_ChIss,0.020000000000000004,0
Branch name,miller2_ProBroCounID,0.5517171717171717,0
Branch name,miller2_Biodiv,0.020000000000000004,0
Branch name,miller2_ConNa,0.6127215007215008,0
Branch name,Sector ID,0.020000000000000004,0
Branch name,miller2_OrganiCl,0.6151048951048952,0
Branch name,miller2_DiID,0.4315151515151515,0
Branch name,miller2_CliChaAda,0.020000000000000004,0
Branch name,miller2_ClChaMiti,0.020000000000000004,0
Branch name,miller2_Deser,0.020000000000000004,0
Branch name,miller2_PartiDevAGoGov,0.020000000000000004,0
Branch name,miller2_TrDevelo,0.020000000000000004,0
Branch name,miller2_UrIs,0.020000000000000004,0
Branch name,miller2_YoIss,0.020000000000000004,0
Branch name,miller2_DisIs,0.020000000000000004,0
Branch name,miller2_ICTAATFoDeve,0.020000000000000004,0
Branch name,miller2_KnoFDevelo,0.020000000000000004,0
Branch name,miller2_GeEqu,0.020000000000000004,0
Branch name,miller2_OrgN,0.5439937839937841,0
Branch name,miller2_OrgSu,0.3874747474747475,0
Branch name,miller2_ContiID,0.020000000000000004,0
Branch name,miller2_CouRegID,0.4606541606541607,0
Branch name,miller2_CouRegPer,0.033333333333333326,0
Branch name,miller2_SecNa,0.6768284347231714,0
Branch name,miller2_AmSp,0.033333333333333326,0
Sector percent,miller2_FiYe,0.033333333333333326,0
Sector percent,miller2_CouReN,0.033333333333333326,0
Sector percent,miller2_OrgaID,0.033333333333333326,0
Sector percent,miller2_IndigIs,0.05,0
Sector percent,miller2_BrN,0.033333333333333326,0
Sector percent,miller2_SecPer,0.6118974358974358,1
Sector percent,miller2_OrganTy,0.033333333333333326,0
Sector percent,miller2_SecID,0.033333333333333326,0
Sector percent,miller2_ChIss,0.05,0
Sector percent,miller2_ProBroCounID,0.033333333333333326,0
Sector percent,miller2_Biodiv,0.05,0
Sector percent,miller2_ConNa,0.033333333333333326,0
Sector percent,Sector ID,0.05,0
Sector percent,miller2_OrganiCl,0.033333333333333326,0
Sector percent,miller2_DiID,0.033333333333333326,0
Sector percent,miller2_CliChaAda,0.05,0
Sector percent,miller2_ClChaMiti,0.05,0
Sector percent,miller2_Deser,0.05,0
Sector percent,miller2_PartiDevAGoGov,0.05,0
Sector percent,miller2_TrDevelo,0.05,0
Sector percent,miller2_UrIs,0.05,0
Sector percent,miller2_YoIss,0.05,0
Sector percent,miller2_DisIs,0.05,0
Sector percent,miller2_ICTAATFoDeve,0.05,0
Sector percent,miller2_KnoFDevelo,0.05,0
Sector percent,miller2_GeEqu,0.05,0
Sector percent,miller2_OrgN,0.033333333333333326,0
Sector percent,miller2_OrgSu,0.033333333333333326,0
Sector percent,miller2_ContiID,0.05,0
Sector percent,miller2_CouRegID,0.033333333333333326,0
Sector percent,miller2_CouRegPer,0.5728774928774929,0
Sector percent,miller2_SecNa,0.033333333333333326,0
Sector percent,miller2_AmSp,0.43021978021978025,0
Organisation type,miller2_FiYe,0.4881385281385282,0
Organisation type,miller2_CouReN,0.5779536541889483,0
Organisation type,miller2_OrgaID,0.563059163059163,0
Organisation type,miller2_IndigIs,0.020000000000000004,0
Organisation type,miller2_BrN,0.689543397778692,0
Organisation type,miller2_SecPer,0.033333333333333326,0
Organisation type,miller2_OrganTy,0.670995670995671,1
Organisation type,miller2_SecID,0.6049639249639249,0
Organisation type,miller2_ChIss,0.020000000000000004,0
Organisation type,miller2_ProBroCounID,0.5547999869804381,0
Organisation type,miller2_Biodiv,0.020000000000000004,0
Organisation type,miller2_ConNa,0.5814795730585205,0
Organisation type,Sector ID,0.020000000000000004,0
Organisation type,miller2_OrganiCl,0.6256969696969696,0
Organisation type,miller2_DiID,0.5059163059163059,0
Organisation type,miller2_CliChaAda,0.020000000000000004,0
Organisation type,miller2_ClChaMiti,0.020000000000000004,0
Organisation type,miller2_Deser,0.020000000000000004,0
Organisation type,miller2_PartiDevAGoGov,0.020000000000000004,0
Organisation type,miller2_TrDevelo,0.020000000000000004,0
Organisation type,miller2_UrIs,0.020000000000000004,0
Organisation type,miller2_YoIss,0.020000000000000004,0
Organisation type,miller2_DisIs,0.020000000000000004,0
Organisation type,miller2_ICTAATFoDeve,0.020000000000000004,0
Organisation type,miller2_KnoFDevelo,0.020000000000000004,0
Organisation type,miller2_GeEqu,0.020000000000000004,0
Organisation type,miller2_OrgN,0.6206203208556149,0
Organisation type,miller2_OrgSu,0.40903896103896104,0
Organisation type,miller2_ContiID,0.020000000000000004,0
Organisation type,miller2_CouRegID,0.4917556517556518,0
Organisation type,miller2_CouRegPer,0.033333333333333326,0
Organisation type,miller2_SecNa,0.5516550116550116,0
Organisation type,miller2_AmSp,0.033333333333333326,0
Section ID,miller2_FiYe,0.4666666666666667,0
Section ID,miller2_CouReN,0.569359477124183,0
Section ID,miller2_OrgaID,0.6787641117052883,0
Section ID,miller2_IndigIs,0.020000000000000004,0
Section ID,miller2_BrN,0.5906928104575163,0
Section ID,miller2_SecPer,0.033333333333333326,0
Section ID,miller2_OrganTy,0.5680000000000001,0
Section ID,miller2_SecID,0.7913450292397661,1
Section ID,miller2_ChIss,0.020000000000000004,0
Section ID,miller2_ProBroCounID,0.6825804261098379,0
Section ID,miller2_Biodiv,0.020000000000000004,0
Section ID,miller2_ConNa,0.576068376068376,0
Section ID,Sector ID,0.020000000000000004,0
Section ID,miller2_OrganiCl,0.5340170940170941,0
Section ID,miller2_DiID,0.7296732026143793,0
Section ID,miller2_CliChaAda,0.020000000000000004,0
Section ID,miller2_ClChaMiti,0.020000000000000004,0
Section ID,miller2_Deser,0.020000000000000004,0
Section ID,miller2_PartiDevAGoGov,0.020000000000000004,0
Section ID,miller2_TrDevelo,0.020000000000000004,0
Section ID,miller2_UrIs,0.020000000000000004,0
Section ID,miller2_YoIss,0.020000000000000004,0
Section ID,miller2_DisIs,0.020000000000000004,0
Section ID,miller2_ICTAATFoDeve,0.020000000000000004,0
Section ID,miller2_KnoFDevelo,0.020000000000000004,0
Section ID,miller2_GeEqu,0.020000000000000004,0
Section ID,miller2_OrgN,0.537359477124183,0
Section ID,miller2_OrgSu,0.37422222222222223,0
Section ID,miller2_ContiID,0.020000000000000004,0
Section ID,miller2_CouRegID,0.654727668845316,0
Section ID,miller2_CouRegPer,0.033333333333333326,0
Section ID,miller2_SecNa,0.5739091318038687,0
Section ID,miller2_AmSp,0.033333333333333326,0
Children issues (marker),miller2_FiYe,0.020000000000000004,0
Children issues (marker),miller2_CouReN,0.020000000000000004,0
Children issues (marker),miller2_OrgaID,0.020000000000000004,0
Children issues (marker),miller2_IndigIs,0.5101538461538462,0
Children issues (marker),miller2_BrN,0.020000000000000004,0
Children issues (marker),miller2_SecPer,0.05,0
Children issues (marker),miller2_OrganTy,0.020000000000000004,0
Children issues (marker),miller2_SecID,0.020000000000000004,0
Children issues (marker),miller2_ChIss,0.6075213675213675,1
Children issues (marker),miller2_ProBroCounID,0.020000000000000004,0
Children issues (marker),miller2_Biodiv,0.5066373626373626,0
Children issues (marker),miller2_ConNa,0.020000000000000004,0
Children issues (marker),Sector ID,0.5880100250626566,0
Children issues (marker),miller2_OrganiCl,0.020000000000000004,0
Children issues (marker),miller2_DiID,0.020000000000000004,0
Children issues (marker),miller2_CliChaAda,0.5021435707149993,0
Children issues (marker),miller2_ClChaMiti,0.49650349650349657,0
Children issues (marker),miller2_Deser,0.528055944055944,0
Children issues (marker),miller2_PartiDevAGoGov,0.46437562437562435,0
Children issues (marker),miller2_TrDevelo,0.48886446886446894,0
Children issues (marker),miller2_UrIs,0.5209230769230769,0
Children issues (marker),miller2_YoIss,0.5541880341880343,0
Children issues (marker),miller2_DisIs,0.5539145299145299,0
Children issues (marker),miller2_ICTAATFoDeve,0.48923076923076925,0
Children issues (marker),miller2_KnoFDevelo,0.5440572126286412,0
Children issues (marker),miller2_GeEqu,0.49150997150997155,0
Children issues (marker),miller2_OrgN,0.020000000000000004,0
Children issues (marker),miller2_OrgSu,0.020000000000000004,0
Children issues (marker),miller2_ContiID,0.5156043956043956,0
Children issues (marker),miller2_CouRegID,0.020000000000000004,0
Children issues (marker),miller2_CouRegPer,0.05,0
Children issues (marker),miller2_SecNa,0.020000000000000004,0
Children issues (marker),miller2_AmSp,0.05,0
Project Browser country ID,miller2_FiYe,0.45578231292517013,0
Project Browser country ID,miller2_CouReN,0.5261760088650845,0
Project Browser country ID,miller2_OrgaID,0.6903731189445474,0
Project Browser country ID,miller2_IndigIs,0.020000000000000004,0
Project Browser country ID,miller2_BrN,0.5261760088650845,0
Project Browser country ID,miller2_SecPer,0.033333333333333326,0
Project Browser country ID,miller2_OrganTy,0.5516820061357877,0
Project Browser country ID,miller2_SecID,0.7195369375820504,0
Project Browser country ID,miller2_ChIss,0.020000000000000004,0
Project Browser country ID,miller2_ProBroCounID,0.747327240660574,1
Project Browser country ID,miller2_Biodiv,0.020000000000000004,0
Project Browser country ID,miller2_ConNa,0.6030559916274202,0
Project Browser country ID,Sector ID,0.020000000000000004,0
Project Browser country ID,miller2_OrganiCl,0.5324332810047097,0
Project Browser country ID,miller2_DiID,0.7004893185344314,0
Project Browser country ID,miller2_CliChaAda,0.020000000000000004,0
Project Browser country ID,miller2_ClChaMiti,0.020000000000000004,0
Project Browser country ID,miller2_Deser,0.020000000000000004,0
Project Browser country ID,miller2_PartiDevAGoGov,0.020000000000000004,0
Project Browser country ID,miller2_TrDevelo,0.020000000000000004,0
Project Browser country ID,miller2_UrIs,0.020000000000000004,0
Project Browser country ID,miller2_YoIss,0.020000000000000004,0
Project Browser country ID,miller2_DisIs,0.020000000000000004,0
Project Browser country ID,miller2_ICTAATFoDeve,0.020000000000000004,0
Project Browser country ID,miller2_KnoFDevelo,0.020000000000000004,0
Project Browser country ID,miller2_GeEqu,0.020000000000000004,0
Project Browser country ID,miller2_OrgN,0.4910111737002494,0
Project Browser country ID,miller2_OrgSu,0.4434467120181406,0
Project Browser country ID,miller2_ContiID,0.020000000000000004,0
Project Browser country ID,miller2_CouRegID,0.6963492063492064,0
Project Browser country ID,miller2_CouRegPer,0.033333333333333326,0
Project Browser country ID,miller2_SecNa,0.5451596023024594,0
Project Browser country ID,miller2_AmSp,0.033333333333333326,0
Biodiversity (marker),miller2_FiYe,0.020000000000000004,0
Biodiversity (marker),miller2_CouReN,0.020000000000000004,0
Biodiversity (marker),miller2_OrgaID,0.020000000000000004,0
Biodiversity (marker),miller2_IndigIs,0.5257918552036199,0
Biodiversity (marker),miller2_BrN,0.020000000000000004,0
Biodiversity (marker),miller2_SecPer,0.05,0
Biodiversity (marker),miller2_OrganTy,0.020000000000000004,0
Biodiversity (marker),miller2_SecID,0.020000000000000004,0
Biodiversity (marker),miller2_ChIss,0.4408852901484481,0
Biodiversity (marker),miller2_ProBroCounID,0.020000000000000004,0
Biodiversity (marker),miller2_Biodiv,0.6512820512820513,1
Biodiversity (marker),miller2_ConNa,0.020000000000000004,0
Biodiversity (marker),Sector ID,0.6089340999557719,0
Biodiversity (marker),miller2_OrganiCl,0.020000000000000004,0
Biodiversity (marker),miller2_DiID,0.020000000000000004,0
Biodiversity (marker),miller2_CliChaAda,0.47996587748909736,0
Biodiversity (marker),miller2_ClChaMiti,0.4766299976826293,0
Biodiversity (marker),miller2_Deser,0.527930892636775,0
Biodiversity (marker),miller2_PartiDevAGoGov,0.4767486147937276,0
Biodiversity (marker),miller2_TrDevelo,0.4943589743589744,0
Biodiversity (marker),miller2_UrIs,0.5227732793522267,0
Biodiversity (marker),miller2_YoIss,0.463742433005591,0
Biodiversity (marker),miller2_DisIs,0.4977732793522267,0
Biodiversity (marker),miller2_ICTAATFoDeve,0.506039886039886,0
Biodiversity (marker),miller2_KnoFDevelo,0.5578347578347579,0
Biodiversity (marker),miller2_GeEqu,0.4871075123706703,0
Biodiversity (marker),miller2_OrgN,0.020000000000000004,0
Biodiversity (marker),miller2_OrgSu,0.020000000000000004,0
Biodiversity (marker),miller2_ContiID,0.5044371108767394,0
Biodiversity (marker),miller2_CouRegID,0.020000000000000004,0
Biodiversity (marker),miller2_CouRegPer,0.05,0
Biodiversity (marker),miller2_SecNa,0.020000000000000004,0
Biodiversity (marker),miller2_AmSp,0.05,0
Continent name,miller2_FiYe,0.4387878787878788,0
Continent name,miller2_CouReN,0.5617715617715617,0
Continent name,miller2_OrgaID,0.47818181818181826,0
Continent name,miller2_IndigIs,0.020000000000000004,0
Continent name,miller2_BrN,0.6068997668997669,0
Continent name,miller2_SecPer,0.033333333333333326,0
Continent name,miller2_OrganTy,0.4894949494949495,0
Continent name,miller2_SecID,0.5581818181818182,0
Continent name,miller2_ChIss,0.020000000000000004,0
Continent name,miller2_ProBroCounID,0.5504961704961706,0
Continent name,miller2_Biodiv,0.020000000000000004,0
Continent name,miller2_ConNa,0.6216103896103897,1
Continent name,Sector ID,0.020000000000000004,0
Continent name,miller2_OrganiCl,0.5991048951048952,0
Continent name,miller2_DiID,0.4672727272727273,0
Continent name,miller2_CliChaAda,0.020000000000000004,0
Continent name,miller2_ClChaMiti,0.020000000000000004,0
Continent name,miller2_Deser,0.020000000000000004,0
Continent name,miller2_PartiDevAGoGov,0.020000000000000004,0
Continent name,miller2_TrDevelo,0.020000000000000004,0
Continent name,miller2_UrIs,0.020000000000000004,0
Continent name,miller2_YoIss,0.020000000000000004,0
Continent name,miller2_DisIs,0.020000000000000004,0
Continent name,miller2_ICTAATFoDeve,0.020000000000000004,0
Continent name,miller2_KnoFDevelo,0.020000000000000004,0
Continent name,miller2_GeEqu,0.020000000000000004,0
Continent name,miller2_OrgN,0.5351048951048951,0
Continent name,miller2_OrgSu,0.38303030303030305,0
Continent name,miller2_ContiID,0.020000000000000004,0
Continent name,miller2_CouRegID,0.4810245310245311,0
Continent name,miller2_CouRegPer,0.033333333333333326,0
Continent name,miller2_SecNa,0.601038961038961,0
Continent name,miller2_AmSp,0.033333333333333326,0
Sector ID,miller2_FiYe,0.020000000000000004,0
Sector ID,miller2_CouReN,0.020000000000000004,0
Sector ID,miller2_OrgaID,0.020000000000000004,0
Sector ID,miller2_IndigIs,0.5516483516483517,0
Sector ID,miller2_BrN,0.020000000000000004,0
Sector ID,miller2_SecPer,0.05,0
Sector ID,miller2_OrganTy,0.020000000000000004,0
Sector ID,miller2_SecID,0.020000000000000004,0
Sector ID,miller2_ChIss,0.4664615384615385,0
Sector ID,miller2_ProBroCounID,0.020000000000000004,0
Sector ID,miller2_Biodiv,0.5230769230769231,0
Sector ID,miller2_ConNa,0.020000000000000004,0
Sector ID,Sector ID,1.0,1
Sector ID,miller2_OrganiCl,0.020000000000000004,0
Sector ID,miller2_DiID,0.020000000000000004,0
Sector ID,miller2_CliChaAda,0.43398667609193925,0
Sector ID,miller2_ClChaMiti,0.5373219373219373,0
Sector ID,miller2_Deser,0.5368631368631369,0
Sector ID,miller2_PartiDevAGoGov,0.47035757892900754,0
Sector ID,miller2_TrDevelo,0.5025641025641026,0
Sector ID,miller2_UrIs,0.6748717948717948,0
Sector ID,miller2_YoIss,0.4664615384615385,0
Sector ID,miller2_DisIs,0.540903540903541,0
Sector ID,miller2_ICTAATFoDeve,0.4632478632478633,0
Sector ID,miller2_KnoFDevelo,0.5399363164069046,0
Sector ID,miller2_GeEqu,0.5082783882783883,0
Sector ID,miller2_OrgN,0.020000000000000004,0
Sector ID,miller2_OrgSu,0.020000000000000004,0
Sector ID,miller2_ContiID,0.7163014763014763,0
Sector ID,miller2_CouRegID,0.020000000000000004,0
Sector ID,miller2_CouRegPer,0.05,0
Sector ID,miller2_SecNa,0.020000000000000004,0
Sector ID,miller2_AmSp,0.05,0
Organisation class,miller2_FiYe,0.29904761904761906,0
Organisation class,miller2_CouReN,0.4586666666666667,0
Organisation class,miller2_OrgaID,0.5495238095238095,0
Organisation class,miller2_IndigIs,0.020000000000000004,0
Organisation class,miller2_BrN,0.5835897435897437,0
Organisation class,miller2_SecPer,0.033333333333333326,0
Organisation class,miller2_OrganTy,0.5722128851540615,0
Organisation class,miller2_SecID,0.6203174603174604,0
Organisation class,miller2_ChIss,0.020000000000000004,0
Organisation class,miller2_ProBroCounID,0.48965986394557826,0
Organisation class,miller2_Biodiv,0.020000000000000004,0
Organisation class,miller2_ConNa,0.5740026990553306,0
Organisation class,Sector ID,0.020000000000000004,0
Organisation class,miller2_OrganiCl,0.6320000000000001,1
Organisation class,miller2_DiID,0.49238095238095236,0
Organisation class,miller2_CliChaAda,0.020000000000000004,0
Organisation class,miller2_ClChaMiti,0.020000000000000004,0
Organisation class,miller2_Deser,0.020000000000000004,0
Organisation class,miller2_PartiDevAGoGov,0.020000000000000004,0
Organisation class,miller2_TrDevelo,0.020000000000000004,0
Organisation class,miller2_UrIs,0.020000000000000004,0
Organisation class,miller2_YoIss,0.020000000000000004,0
Organisation class,miller2_DisIs,0.020000000000000004,0
Organisation class,miller2_ICTAATFoDeve,0.020000000000000004,0
Organisation class,miller2_KnoFDevelo,0.020000000000000004,0
Organisation class,miller2_GeEqu,0.020000000000000004,0
Organisation class,miller2_OrgN,0.4826666666666667,0
Organisation class,miller2_OrgSu,0.4460952380952381,0
Organisation class,miller2_ContiID,0.020000000000000004,0
Organisation class,miller2_CouRegID,0.4934920634920635,0
Organisation class,miller2_CouRegPer,0.033333333333333326,0
Organisation class,miller2_SecNa,0.5781196581196582,0
Organisation class,miller2_AmSp,0.033333333333333326,0
Division ID,miller2_FiYe,0.4275555555555555,0
Division ID,miller2_CouReN,0.44911705288175874,0
Division ID,miller2_OrgaID,0.6622222222222223,0
Division ID,miller2_IndigIs,0.020000000000000004,0
Division ID,miller2_BrN,0.5480261437908498,0
Division ID,miller2_SecPer,0.033333333333333326,0
Division ID,miller2_OrganTy,0.5470849673202614,0
Division ID,miller2_SecID,0.8044444444444445,0
Division ID,miller2_ChIss,0.020000000000000004,0
Division ID,miller2_ProBroCounID,0.6461760461760462,0
Division ID,miller2_Biodiv,0.020000000000000004,0
Division ID,miller2_ConNa,0.5815979189892233,0
Division ID,Sector ID,0.020000000000000004,0
Division ID,miller2_OrganiCl,0.5225006105006105,0
Division ID,miller2_DiID,0.7155555555555557,1
Division ID,miller2_CliChaAda,0.020000000000000004,0
Division ID,miller2_ClChaMiti,0.020000000000000004,0
Division ID,miller2_Deser,0.020000000000000004,0
Division ID,miller2_PartiDevAGoGov,0.020000000000000004,0
Division ID,miller2_TrDevelo,0.020000000000000004,0
Division ID,miller2_UrIs,0.020000000000000004,0
Division ID,miller2_YoIss,0.020000000000000004,0
Division ID,miller2_DisIs,0.020000000000000004,0
Division ID,miller2_ICTAATFoDeve,0.020000000000000004,0
Division ID,miller2_KnoFDevelo,0.020000000000000004,0
Division ID,miller2_GeEqu,0.020000000000000004,0
Division ID,miller2_OrgN,0.44911705288175874,0
Division ID,miller2_OrgSu,0.3642020202020202,0
Division ID,miller2_ContiID,0.020000000000000004,0
Division ID,miller2_CouRegID,0.5872053872053873,0
Division ID,miller2_CouRegPer,0.033333333333333326,0
Division ID,miller2_SecNa,0.5829059829059831,0
Division ID,miller2_AmSp,0.033333333333333326,0
Project number,miller2_FiYe,0.4232478632478633,0
Project number,miller2_CouReN,0.571965811965812,0
Project number,miller2_OrgaID,0.6658461538461539,0
Project number,miller2_IndigIs,0.020000000000000004,0
Project number,miller2_BrN,0.6164102564102565,0
Project number,miller2_SecPer,0.033333333333333326,0
Project number,miller2_OrganTy,0.6379578591343297,0
Project number,miller2_SecID,0.7298461538461538,0
Project number,miller2_ChIss,0.020000000000000004,0
Project number,miller2_ProBroCounID,0.6597313797313797,0
Project number,miller2_Biodiv,0.020000000000000004,0
Project number,miller2_ConNa,0.6324102564102565,0
Project number,Sector ID,0.020000000000000004,0
Project number,miller2_OrganiCl,0.5774358974358975,0
Project number,miller2_DiID,0.633846153846154,0
Project number,miller2_CliChaAda,0.020000000000000004,0
Project number,miller2_ClChaMiti,0.020000000000000004,0
Project number,miller2_Deser,0.020000000000000004,0
Project number,miller2_PartiDevAGoGov,0.020000000000000004,0
Project number,miller2_TrDevelo,0.020000000000000004,0
Project number,miller2_UrIs,0.020000000000000004,0
Project number,miller2_YoIss,0.020000000000000004,0
Project number,miller2_DisIs,0.020000000000000004,0
Project number,miller2_ICTAATFoDeve,0.020000000000000004,0
Project number,miller2_KnoFDevelo,0.020000000000000004,0
Project number,miller2_GeEqu,0.020000000000000004,0
Project number,miller2_OrgN,0.571965811965812,0
Project number,miller2_OrgSu,0.4552478632478633,0
Project number,miller2_ContiID,0.020000000000000004,0
Project number,miller2_CouRegID,0.6445014245014244,0
Project number,miller2_CouRegPer,0.033333333333333326,0
Project number,miller2_SecNa,0.5950769230769231,0
Project number,miller2_AmSp,0.033333333333333326,0
Status,miller2_FiYe,0.2,0
Status,miller2_CouReN,0.40444444444444444,0
Status,miller2_OrgaID,0.3630769230769231,0
Status,miller2_IndigIs,0.020000000000000004,0
Status,miller2_BrN,0.44000000000000006,0
Status,miller2_SecPer,0.033333333333333326,0
Status,miller2_OrganTy,0.3642857142857143,0
Status,miller2_SecID,0.4215384615384616,0
Status,miller2_ChIss,0.020000000000000004,0
Status,miller2_ProBroCounID,0.3565811965811966,0
Status,miller2_Biodiv,0.020000000000000004,0
Status,miller2_ConNa,0.39487179487179486,0
Status,Sector ID,0.020000000000000004,0
Status,miller2_OrganiCl,0.39333333333333337,0
Status,miller2_DiID,0.3230769230769231,0
Status,miller2_CliChaAda,0.020000000000000004,0
Status,miller2_ClChaMiti,0.020000000000000004,0
Status,miller2_Deser,0.020000000000000004,0
Status,miller2_PartiDevAGoGov,0.020000000000000004,0
Status,miller2_TrDevelo,0.020000000000000004,0
Status,miller2_UrIs,0.020000000000000004,0
Status,miller2_YoIss,0.020000000000000004,0
Status,miller2_DisIs,0.020000000000000004,0
Status,miller2_ICTAATFoDeve,0.020000000000000004,0
Status,miller2_KnoFDevelo,0.020000000000000004,0
Status,miller2_GeEqu,0.020000000000000004,0
Status,miller2_OrgN,0.36000000000000004,0
Status,miller2_OrgSu,0.4,0
Status,miller2_ContiID,0.020000000000000004,0
Status,miller2_CouRegID,0.334017094017094,0
Status,miller2_CouRegPer,0.033333333333333326,0
Status,miller2_SecNa,0.4215384615384616,0
Status,miller2_AmSp,0.033333333333333326,0
Maximum CIDA contribution (project-level),miller2_FiYe,0.033333333333333326,0
Maximum CIDA contribution (project-level),miller2_CouReN,0.033333333333333326,0
Maximum CIDA contribution (project-level),miller2_OrgaID,0.033333333333333326,0
Maximum CIDA contribution (project-level),miller2_IndigIs,0.05,0
Maximum CIDA contribution (project-level),miller2_BrN,0.033333333333333326,0
Maximum CIDA contribution (project-level),miller2_SecPer,0.49610389610389616,0
Maximum CIDA contribution (project-level),miller2_OrganTy,0.033333333333333326,0
Maximum CIDA contribution (project-level),miller2_SecID,0.033333333333333326,0
Maximum CIDA contribution (project-level),miller2_ChIss,0.05,0
Maximum CIDA contribution (project-level),miller2_ProBroCounID,0.033333333333333326,0
Maximum CIDA contribution (project-level),miller2_Biodiv,0.05,0
Maximum CIDA contribution (project-level),miller2_ConNa,0.033333333333333326,0
Maximum CIDA contribution (project-level),Sector ID,0.05,0
Maximum CIDA contribution (project-level),miller2_OrganiCl,0.033333333333333326,0
Maximum CIDA contribution (project-level),miller2_DiID,0.033333333333333326,0
Maximum CIDA contribution (project-level),miller2_CliChaAda,0.05,0
Maximum CIDA contribution (project-level),miller2_ClChaMiti,0.05,0
Maximum CIDA contribution (project-level),miller2_Deser,0.05,0
Maximum CIDA contribution (project-level),miller2_PartiDevAGoGov,0.05,0
Maximum CIDA contribution (project-level),miller2_TrDevelo,0.05,0
Maximum CIDA contribution (project-level),miller2_UrIs,0.05,0
Maximum CIDA contribution (project-level),miller2_YoIss,0.05,0
Maximum CIDA contribution (project-level),miller2_DisIs,0.05,0
Maximum CIDA contribution (project-level),miller2_ICTAATFoDeve,0.05,0
Maximum CIDA contribution (project-level),miller2_KnoFDevelo,0.05,0
Maximum CIDA contribution (project-level),miller2_GeEqu,0.05,0
Maximum CIDA contribution (project-level),miller2_OrgN,0.033333333333333326,0
Maximum CIDA contribution (project-level),miller2_OrgSu,0.033333333333333326,0
Maximum CIDA contribution (project-level),miller2_ContiID,0.05,0
Maximum CIDA contribution (project-level),miller2_CouRegID,0.033333333333333326,0
Maximum CIDA contribution (project-level),miller2_CouRegPer,0.4407142857142858,0
Maximum CIDA contribution (project-level),miller2_SecNa,0.033333333333333326,0
Maximum CIDA contribution (project-level),miller2_AmSp,0.3589124325966431,0
Branch ID,miller2_FiYe,0.4201709401709402,0
Branch ID,miller2_CouReN,0.4373856209150327,0
Branch ID,miller2_OrgaID,0.6835555555555556,0
Branch ID,miller2_IndigIs,0.020000000000000004,0
Branch ID,miller2_BrN,0.4990849673202615,0
Branch ID,miller2_SecPer,0.033333333333333326,0
Branch ID,miller2_OrganTy,0.5324444444444445,0
Branch ID,miller2_SecID,0.7913450292397661,0
Branch ID,miller2_ChIss,0.020000000000000004,0
Branch ID,miller2_ProBroCounID,0.6546031746031746,0
Branch ID,miller2_Biodiv,0.020000000000000004,0
Branch ID,miller2_ConNa,0.5692307692307692,0
Branch ID,Sector ID,0.020000000000000004,0
Branch ID,miller2_OrganiCl,0.5133577533577534,0
Branch ID,miller2_DiID,0.6888888888888889,0
Branch ID,miller2_CliChaAda,0.020000000000000004,0
Branch ID,miller2_ClChaMiti,0.020000000000000004,0
Branch ID,miller2_Deser,0.020000000000000004,0
Branch ID,miller2_PartiDevAGoGov,0.020000000000000004,0
Branch ID,miller2_TrDevelo,0.020000000000000004,0
Branch ID,miller2_UrIs,0.020000000000000004,0
Branch ID,miller2_YoIss,0.020000000000000004,0
Branch ID,miller2_DisIs,0.020000000000000004,0
Branch ID,miller2_ICTAATFoDeve,0.020000000000000004,0
Branch ID,miller2_KnoFDevelo,0.020000000000000004,0
Branch ID,miller2_GeEqu,0.020000000000000004,0
Branch ID,miller2_OrgN,0.4373856209150327,0
Branch ID,miller2_OrgSu,0.3422222222222222,0
Branch ID,miller2_ContiID,0.020000000000000004,0
Branch ID,miller2_CouRegID,0.6000000000000001,0
Branch ID,miller2_CouRegPer,0.033333333333333326,0
Branch ID,miller2_SecNa,0.5698065677013046,0
Branch ID,miller2_AmSp,0.033333333333333326,0
Division name,miller2_FiYe,0.4336969696969697,0
Division name,miller2_CouReN,0.5481958041958042,0
Division name,miller2_OrgaID,0.5181818181818183,0
Division name,miller2_IndigIs,0.020000000000000004,0
Division name,miller2_BrN,0.6495664335664336,0
Division name,miller2_SecPer,0.033333333333333326,0
Division name,miller2_OrganTy,0.5928223410576352,0
Division name,miller2_SecID,0.6670707070707071,0
Division name,miller2_ChIss,0.020000000000000004,0
Division name,miller2_ProBroCounID,0.5518614718614718,0
Division name,miller2_Biodiv,0.020000000000000004,0
Division name,miller2_ConNa,0.6250886504799549,0
Division name,Sector ID,0.020000000000000004,0
Division name,miller2_OrganiCl,0.596819180819181,0
Division name,miller2_DiID,0.5421818181818182,0
Division name,miller2_CliChaAda,0.020000000000000004,0
Division name,miller2_ClChaMiti,0.020000000000000004,0
Division name,miller2_Deser,0.020000000000000004,0
Division name,miller2_PartiDevAGoGov,0.020000000000000004,0
Division name,miller2_TrDevelo,0.020000000000000004,0
Division name,miller2_UrIs,0.020000000000000004,0
Division name,miller2_YoIss,0.020000000000000004,0
Division name,miller2_DisIs,0.020000000000000004,0
Division name,miller2_ICTAATFoDeve,0.020000000000000004,0
Division name,miller2_KnoFDevelo,0.020000000000000004,0
Division name,miller2_GeEqu,0.020000000000000004,0
Division name,miller2_OrgN,0.5481958041958042,0
Division name,miller2_OrgSu,0.4094545454545455,0
Division name,miller2_ContiID,0.020000000000000004,0
Division name,miller2_CouRegID,0.4941558441558442,0
Division name,miller2_CouRegPer,0.033333333333333326,0
Division name,miller2_SecNa,0.68992784992785,0
Division name,miller2_AmSp,0.033333333333333326,0
Section name,miller2_FiYe,0.44080808080808087,0
Section name,miller2_CouReN,0.6339766899766899,0
Section name,miller2_OrgaID,0.5464171122994652,0
Section name,miller2_IndigIs,0.020000000000000004,0
Section name,miller2_BrN,0.6684382284382284,0
Section name,miller2_SecPer,0.033333333333333326,0
Section name,miller2_OrganTy,0.6137373737373737,0
Section name,miller2_SecID,0.6680889389248522,0
Section name,miller2_ChIss,0.020000000000000004,0
Section name,miller2_ProBroCounID,0.5983498854087089,0
Section name,miller2_Biodiv,0.020000000000000004,0
Section name,miller2_ConNa,0.6154565434565434,0
Section name,Sector ID,0.020000000000000004,0
Section name,miller2_OrganiCl,0.6058741258741259,0
Section name,miller2_DiID,0.5419726678550207,0
Section name,miller2_CliChaAda,0.020000000000000004,0
Section name,miller2_ClChaMiti,0.020000000000000004,0
Section name,miller2_Deser,0.020000000000000004,0
Section name,miller2_PartiDevAGoGov,0.020000000000000004,0
Section name,miller2_TrDevelo,0.020000000000000004,0
Section name,miller2_UrIs,0.020000000000000004,0
Section name,miller2_YoIss,0.020000000000000004,0
Section name,miller2_DisIs,0.020000000000000004,0
Section name,miller2_ICTAATFoDeve,0.020000000000000004,0
Section name,miller2_KnoFDevelo,0.020000000000000004,0
Section name,miller2_GeEqu,0.020000000000000004,0
Section name,miller2_OrgN,0.6019766899766901,0
Section name,miller2_OrgSu,0.4194747474747475,0
Section name,miller2_ContiID,0.020000000000000004,0
Section name,miller2_CouRegID,0.5467761650114591,0
Section name,miller2_CouRegPer,0.033333333333333326,0
Section name,miller2_SecNa,0.6768284347231714,0
Section name,miller2_AmSp,0.033333333333333326,0
Regional program (marker),miller2_FiYe,0.020000000000000004,0
Regional program (marker),miller2_CouReN,0.020000000000000004,0
Regional program (marker),miller2_OrgaID,0.020000000000000004,0
Regional program (marker),miller2_IndigIs,0.47282051282051285,0
Regional program (marker),miller2_BrN,0.020000000000000004,0
Regional program (marker),miller2_SecPer,0.05,0
Regional program (marker),miller2_OrganTy,0.020000000000000004,0
Regional program (marker),miller2_SecID,0.020000000000000004,0
Regional program (marker),miller2_ChIss,0.401922521922522,0
Regional program (marker),miller2_ProBroCounID,0.020000000000000004,0
Regional program (marker),miller2_Biodiv,0.46373626373626375,0
Regional program (marker),miller2_ConNa,0.020000000000000004,0
Regional program (marker),Sector ID,0.6485036119711043,0
Regional program (marker),miller2_OrganiCl,0.020000000000000004,0
Regional program (marker),miller2_DiID,0.020000000000000004,0
Regional program (marker),miller2_CliChaAda,0.5997348683062969,0
Regional program (marker),miller2_ClChaMiti,0.5095926295926296,0
Regional program (marker),miller2_Deser,0.47520745920745927,0
Regional program (marker),miller2_PartiDevAGoGov,0.5572571872571873,0
Regional program (marker),miller2_TrDevelo,0.4622303622303623,0
Regional program (marker),miller2_UrIs,0.4732161172161173,0
Regional program (marker),miller2_YoIss,0.4421341621341621,0
Regional program (marker),miller2_DisIs,0.5785942684766214,0
Regional program (marker),miller2_ICTAATFoDeve,0.45695447409733125,0
Regional program (marker),miller2_KnoFDevelo,0.5415454386882959,0
Regional program (marker),miller2_GeEqu,0.5451248533601476,0
Regional program (marker),miller2_OrgN,0.020000000000000004,0
Regional program (marker),miller2_OrgSu,0.020000000000000004,0
Regional program (marker),miller2_ContiID,0.5619909502262443,0
Regional program (marker),miller2_CouRegID,0.020000000000000004,0
Regional program (marker),miller2_CouRegPer,0.05,0
Regional program (marker),miller2_SecNa,0.020000000000000004,0
Regional program (marker),miller2_AmSp,0.05,0
Fund centre ID,miller2_FiYe,0.020000000000000004,0
Fund centre ID,miller2_CouReN,0.020000000000000004,0
Fund centre ID,miller2_OrgaID,0.020000000000000004,0
Fund centre ID,miller2_IndigIs,0.5524297924297925,0
Fund centre ID,miller2_BrN,0.020000000000000004,0
Fund centre ID,miller2_SecPer,0.05,0
Fund centre ID,miller2_OrganTy,0.020000000000000004,0
Fund centre ID,miller2_SecID,0.020000000000000004,0
Fund centre ID,miller2_ChIss,0.42205128205128206,0
Fund centre ID,miller2_ProBroCounID,0.020000000000000004,0
Fund centre ID,miller2_Biodiv,0.4904615384615385,0
Fund centre ID,miller2_ConNa,0.020000000000000004,0
Fund centre ID,Sector ID,0.8514285714285714,0
Fund centre ID,miller2_OrganiCl,0.020000000000000004,0
Fund centre ID,miller2_DiID,0.020000000000000004,0
Fund centre ID,miller2_CliChaAda,0.44606744182153296,0
Fund centre ID,miller2_ClChaMiti,0.48042560613989194,0
Fund centre ID,miller2_Deser,0.4468642468642469,0
Fund centre ID,miller2_PartiDevAGoGov,0.46034906270200393,0
Fund centre ID,miller2_TrDevelo,0.47880341880341876,0
Fund centre ID,miller2_UrIs,0.5998974358974359,0
Fund centre ID,miller2_YoIss,0.38871794871794874,0
Fund centre ID,miller2_DisIs,0.555897435897436,0
Fund centre ID,miller2_ICTAATFoDeve,0.4729137529137529,0
Fund centre ID,miller2_KnoFDevelo,0.48992273832609967,0
Fund centre ID,miller2_GeEqu,0.5471520682046997,0
Fund centre ID,miller2_OrgN,0.020000000000000004,0
Fund centre ID,miller2_OrgSu,0.020000000000000004,0
Fund centre ID,miller2_ContiID,0.6921842863019334,0
Fund centre ID,miller2_CouRegID,0.020000000000000004,0
Fund centre ID,miller2_CouRegPer,0.05,0
Fund centre ID,miller2_SecNa,0.020000000000000004,0
Fund centre ID,miller2_AmSp,0.05,0
Fund centre name,miller2_FiYe,0.47132867132867134,0
Fund centre name,miller2_CouReN,0.5655544455544457,0
Fund centre name,miller2_OrgaID,0.5220142602495543,0
Fund centre name,miller2_IndigIs,0.020000000000000004,0
Fund centre name,miller2_BrN,0.6107171260112436,0
Fund centre name,miller2_SecPer,0.033333333333333326,0
Fund centre name,miller2_OrganTy,0.6056277056277057,0
Fund centre name,miller2_SecID,0.612365137442537,0
Fund centre name,miller2_ChIss,0.020000000000000004,0
Fund centre name,miller2_ProBroCounID,0.5962329174093881,0
Fund centre name,miller2_Biodiv,0.020000000000000004,0
Fund centre name,miller2_ConNa,0.583934583934584,0
Fund centre name,Sector ID,0.020000000000000004,0
Fund centre name,miller2_OrganiCl,0.5497302697302697,0
Fund centre name,miller2_DiID,0.5442364824717767,0
Fund centre name,miller2_CliChaAda,0.020000000000000004,0
Fund centre name,miller2_ClChaMiti,0.020000000000000004,0
Fund centre name,miller2_Deser,0.020000000000000004,0
Fund centre name,miller2_PartiDevAGoGov,0.020000000000000004,0
Fund centre name,miller2_TrDevelo,0.020000000000000004,0
Fund centre name,miller2_UrIs,0.020000000000000004,0
Fund centre name,miller2_YoIss,0.020000000000000004,0
Fund centre name,miller2_DisIs,0.020000000000000004,0
Fund centre name,miller2_ICTAATFoDeve,0.020000000000000004,0
Fund centre name,miller2_KnoFDevelo,0.020000000000000004,0
Fund centre name,miller2_GeEqu,0.020000000000000004,0
Fund centre name,miller2_OrgN,0.5570888370888372,0
Fund centre name,miller2_OrgSu,0.4565138565138565,0
Fund centre name,miller2_ContiID,0.020000000000000004,0
Fund centre name,miller2_CouRegID,0.5349691391708198,0
Fund centre name,miller2_CouRegPer,0.033333333333333326,0
Fund centre name,miller2_SecNa,0.5945500113921167,0
Fund centre name,miller2_AmSp,0.033333333333333326,0
Untied amount(Project-level budget),miller2_FiYe,0.033333333333333326,0
Untied amount(Project-level budget),miller2_CouReN,0.033333333333333326,0
Untied amount(Project-level budget),miller2_OrgaID,0.033333333333333326,0
Untied amount(Project-level budget),miller2_IndigIs,0.05,0
Untied amount(Project-level budget),miller2_BrN,0.033333333333333326,0
Untied amount(Project-level budget),miller2_SecPer,0.5698587127158556,0
Untied amount(Project-level budget),miller2_OrganTy,0.033333333333333326,0
Untied amount(Project-level budget),miller2_SecID,0.033333333333333326,0
Untied amount(Project-level budget),miller2_ChIss,0.05,0
Untied amount(Project-level budget),miller2_ProBroCounID,0.033333333333333326,0
Untied amount(Project-level budget),miller2_Biodiv,0.05,0
Untied amount(Project-level budget),miller2_ConNa,0.033333333333333326,0
Untied amount(Project-level budget),Sector ID,0.05,0
Untied amount(Project-level budget),miller2_OrganiCl,0.033333333333333326,0
Untied amount(Project-level budget),miller2_DiID,0.033333333333333326,0
Untied amount(Project-level budget),miller2_CliChaAda,0.05,0
Untied amount(Project-level budget),miller2_ClChaMiti,0.05,0
Untied amount(Project-level budget),miller2_Deser,0.05,0
Untied amount(Project-level budget),miller2_PartiDevAGoGov,0.05,0
Untied amount(Project-level budget),miller2_TrDevelo,0.05,0
Untied amount(Project-level budget),miller2_UrIs,0.05,0
Untied amount(Project-level budget),miller2_YoIss,0.05,0
Untied amount(Project-level budget),miller2_DisIs,0.05,0
Untied amount(Project-level budget),miller2_ICTAATFoDeve,0.05,0
Untied amount(Project-level budget),miller2_KnoFDevelo,0.05,0
Untied amount(Project-level budget),miller2_GeEqu,0.05,0
Untied amount(Project-level budget),miller2_OrgN,0.033333333333333326,0
Untied amount(Project-level budget),miller2_OrgSu,0.033333333333333326,0
Untied amount(Project-level budget),miller2_ContiID,0.05,0
Untied amount(Project-level budget),miller2_CouRegID,0.033333333333333326,0
Untied amount(Project-level budget),miller2_CouRegPer,0.44764957264957267,0
Untied amount(Project-level budget),miller2_SecNa,0.033333333333333326,0
Untied amount(Project-level budget),miller2_AmSp,0.36752136752136755,0
FSTC percent,miller2_FiYe,0.033333333333333326,0
FSTC percent,miller2_CouReN,0.033333333333333326,0
FSTC percent,miller2_OrgaID,0.033333333333333326,0
FSTC percent,miller2_IndigIs,0.05,0
FSTC percent,miller2_BrN,0.033333333333333326,0
FSTC percent,miller2_SecPer,0.6205714285714286,0
FSTC percent,miller2_OrganTy,0.033333333333333326,0
FSTC percent,miller2_SecID,0.033333333333333326,0
FSTC percent,miller2_ChIss,0.05,0
FSTC percent,miller2_ProBroCounID,0.033333333333333326,0
FSTC percent,miller2_Biodiv,0.05,0
FSTC percent,miller2_ConNa,0.033333333333333326,0
FSTC percent,Sector ID,0.05,0
FSTC percent,miller2_OrganiCl,0.033333333333333326,0
FSTC percent,miller2_DiID,0.033333333333333326,0
FSTC percent,miller2_CliChaAda,0.05,0
FSTC percent,miller2_ClChaMiti,0.05,0
FSTC percent,miller2_Deser,0.05,0
FSTC percent,miller2_PartiDevAGoGov,0.05,0
FSTC percent,miller2_TrDevelo,0.05,0
FSTC percent,miller2_UrIs,0.05,0
FSTC percent,miller2_YoIss,0.05,0
FSTC percent,miller2_DisIs,0.05,0
FSTC percent,miller2_ICTAATFoDeve,0.05,0
FSTC percent,miller2_KnoFDevelo,0.05,0
FSTC percent,miller2_GeEqu,0.05,0
FSTC percent,miller2_OrgN,0.033333333333333326,0
FSTC percent,miller2_OrgSu,0.033333333333333326,0
FSTC percent,miller2_ContiID,0.05,0
FSTC percent,miller2_CouRegID,0.033333333333333326,0
FSTC percent,miller2_CouRegPer,0.5276190476190477,0
FSTC percent,miller2_SecNa,0.033333333333333326,0
FSTC percent,miller2_AmSp,0.44761904761904764,0
IRTC percent,miller2_FiYe,0.033333333333333326,0
IRTC percent,miller2_CouReN,0.033333333333333326,0
IRTC percent,miller2_OrgaID,0.033333333333333326,0
IRTC percent,miller2_IndigIs,0.05,0
IRTC percent,miller2_BrN,0.033333333333333326,0
IRTC percent,miller2_SecPer,0.5723636363636364,0
IRTC percent,miller2_OrganTy,0.033333333333333326,0
IRTC percent,miller2_SecID,0.033333333333333326,0
IRTC percent,miller2_ChIss,0.05,0
IRTC percent,miller2_ProBroCounID,0.033333333333333326,0
IRTC percent,miller2_Biodiv,0.05,0
IRTC percent,miller2_ConNa,0.033333333333333326,0
IRTC percent,Sector ID,0.05,0
IRTC percent,miller2_OrganiCl,0.033333333333333326,0
IRTC percent,miller2_DiID,0.033333333333333326,0
IRTC percent,miller2_CliChaAda,0.05,0
IRTC percent,miller2_ClChaMiti,0.05,0
IRTC percent,miller2_Deser,0.05,0
IRTC percent,miller2_PartiDevAGoGov,0.05,0
IRTC percent,miller2_TrDevelo,0.05,0
IRTC percent,miller2_UrIs,0.05,0
IRTC percent,miller2_YoIss,0.05,0
IRTC percent,miller2_DisIs,0.05,0
IRTC percent,miller2_ICTAATFoDeve,0.05,0
IRTC percent,miller2_KnoFDevelo,0.05,0
IRTC percent,miller2_GeEqu,0.05,0
IRTC percent,miller2_OrgN,0.033333333333333326,0
IRTC percent,miller2_OrgSu,0.033333333333333326,0
IRTC percent,miller2_ContiID,0.05,0
IRTC percent,miller2_CouRegID,0.033333333333333326,0
IRTC percent,miller2_CouRegPer,0.5483982683982684,0
IRTC percent,miller2_SecNa,0.033333333333333326,0
IRTC percent,miller2_AmSp,0.4470418470418471,0
CFLI (marker),miller2_FiYe,0.020000000000000004,0
CFLI (marker),miller2_CouReN,0.020000000000000004,0
CFLI (marker),miller2_OrgaID,0.020000000000000004,0
CFLI (marker),miller2_IndigIs,0.47350427350427354,0
CFLI (marker),miller2_BrN,0.020000000000000004,0
CFLI (marker),miller2_SecPer,0.05,0
CFLI (marker),miller2_OrganTy,0.020000000000000004,0
CFLI (marker),miller2_SecID,0.020000000000000004,0
CFLI (marker),miller2_ChIss,0.5000732600732601,0
CFLI (marker),miller2_ProBroCounID,0.020000000000000004,0
CFLI (marker),miller2_Biodiv,0.46461538461538465,0
CFLI (marker),miller2_ConNa,0.020000000000000004,0
CFLI (marker),Sector ID,0.6050125313283208,0
CFLI (marker),miller2_OrganiCl,0.020000000000000004,0
CFLI (marker),miller2_DiID,0.020000000000000004,0
CFLI (marker),miller2_CliChaAda,0.6278388278388278,0
CFLI (marker),miller2_ClChaMiti,0.5722832722832722,0
CFLI (marker),miller2_Deser,0.4937062937062937,0
CFLI (marker),miller2_PartiDevAGoGov,0.43049965907108767,0
CFLI (marker),miller2_TrDevelo,0.4516923076923077,0
CFLI (marker),miller2_UrIs,0.495979020979021,0
CFLI (marker),miller2_YoIss,0.43912087912087916,0
CFLI (marker),miller2_DisIs,0.4989010989010989,0
CFLI (marker),miller2_ICTAATFoDeve,0.4741880341880342,0
CFLI (marker),miller2_KnoFDevelo,0.548945868945869,0
CFLI (marker),miller2_GeEqu,0.46567210567210565,0
CFLI (marker),miller2_OrgN,0.020000000000000004,0
CFLI (marker),miller2_OrgSu,0.020000000000000004,0
CFLI (marker),miller2_ContiID,0.5584859584859585,0
CFLI (marker),miller2_CouRegID,0.020000000000000004,0
CFLI (marker),miller2_CouRegPer,0.05,0
CFLI (marker),miller2_SecNa,0.020000000000000004,0
CFLI (marker),miller2_AmSp,0.05,0
CIDA business delivery model (old),miller2_FiYe,0.4552380952380952,0
CIDA business delivery model (old),miller2_CouReN,0.4973160173160174,0
CIDA business delivery model (old),miller2_OrgaID,0.57996336996337,0
CIDA business delivery model (old),miller2_IndigIs,0.020000000000000004,0
CIDA business delivery model (old),miller2_BrN,0.5335930735930736,0
CIDA business delivery model (old),miller2_SecPer,0.033333333333333326,0
CIDA business delivery model (old),miller2_OrganTy,0.5377046783625732,0
CIDA business delivery model (old),miller2_SecID,0.6404675716440422,0
CIDA business delivery model (old),miller2_ChIss,0.020000000000000004,0
CIDA business delivery model (old),miller2_ProBroCounID,0.6130526315789475,0
CIDA business delivery model (old),miller2_Biodiv,0.020000000000000004,0
CIDA business delivery model (old),miller2_ConNa,0.6016959064327485,0
CIDA business delivery model (old),Sector ID,0.020000000000000004,0
CIDA business delivery model (old),miller2_OrganiCl,0.5555555555555556,0
CIDA business delivery model (old),miller2_DiID,0.6028205128205129,0
CIDA business delivery model (old),miller2_CliChaAda,0.020000000000000004,0
CIDA business delivery model (old),miller2_ClChaMiti,0.020000000000000004,0
CIDA business delivery model (old),miller2_Deser,0.020000000000000004,0
CIDA business delivery model (old),miller2_PartiDevAGoGov,0.020000000000000004,0
CIDA business delivery model (old),miller2_TrDevelo,0.020000000000000004,0
CIDA business delivery model (old),miller2_UrIs,0.020000000000000004,0
CIDA business delivery model (old),miller2_YoIss,0.020000000000000004,0
CIDA business delivery model (old),miller2_DisIs,0.020000000000000004,0
CIDA business delivery model (old),miller2_ICTAATFoDeve,0.020000000000000004,0
CIDA business delivery model (old),miller2_KnoFDevelo,0.020000000000000004,0
CIDA business delivery model (old),miller2_GeEqu,0.020000000000000004,0
CIDA business delivery model (old),miller2_OrgN,0.486926406926407,0
CIDA business delivery model (old),miller2_OrgSu,0.4448484848484848,0
CIDA business delivery model (old),miller2_ContiID,0.020000000000000004,0
CIDA business delivery model (old),miller2_CouRegID,0.5684330484330484,0
CIDA business delivery model (old),miller2_CouRegPer,0.033333333333333326,0
CIDA business delivery model (old),miller2_SecNa,0.5643137254901962,0
CIDA business delivery model (old),miller2_AmSp,0.033333333333333326,0
Programming process (new),miller2_FiYe,0.4160683760683761,0
Programming process (new),miller2_CouReN,0.4462433862433863,0
Programming process (new),miller2_OrgaID,0.5296296296296297,0
Programming process (new),miller2_IndigIs,0.020000000000000004,0
Programming process (new),miller2_BrN,0.47883597883597884,0
Programming process (new),miller2_SecPer,0.033333333333333326,0
Programming process (new),miller2_OrganTy,0.5111111111111111,0
Programming process (new),miller2_SecID,0.5766884531590415,0
Programming process (new),miller2_ChIss,0.020000000000000004,0
Programming process (new),miller2_ProBroCounID,0.5510877684407096,0
Programming process (new),miller2_Biodiv,0.020000000000000004,0
Programming process (new),miller2_ConNa,0.5942411584516847,0
Programming process (new),Sector ID,0.020000000000000004,0
Programming process (new),miller2_OrganiCl,0.5477124183006536,0
Programming process (new),miller2_DiID,0.4905346070051953,0
Programming process (new),miller2_CliChaAda,0.020000000000000004,0
Programming process (new),miller2_ClChaMiti,0.020000000000000004,0
Programming process (new),miller2_Deser,0.020000000000000004,0
Programming process (new),miller2_PartiDevAGoGov,0.020000000000000004,0
Programming process (new),miller2_TrDevelo,0.020000000000000004,0
Programming process (new),miller2_UrIs,0.020000000000000004,0
Programming process (new),miller2_YoIss,0.020000000000000004,0
Programming process (new),miller2_DisIs,0.020000000000000004,0
Programming process (new),miller2_ICTAATFoDeve,0.020000000000000004,0
Programming process (new),miller2_KnoFDevelo,0.020000000000000004,0
Programming process (new),miller2_GeEqu,0.020000000000000004,0
Programming process (new),miller2_OrgN,0.4957671957671958,0
Programming process (new),miller2_OrgSu,0.4298412698412699,0
Programming process (new),miller2_ContiID,0.020000000000000004,0
Programming process (new),miller2_CouRegID,0.5152567693744164,0
Programming process (new),miller2_CouRegPer,0.033333333333333326,0
Programming process (new),miller2_SecNa,0.5140740740740741,0
Programming process (new),miller2_AmSp,0.033333333333333326,0
Bilateral aid (international marker),miller2_FiYe,0.020000000000000004,0
Bilateral aid (international marker),miller2_CouReN,0.020000000000000004,0
Bilateral aid (international marker),miller2_OrgaID,0.020000000000000004,0
Bilateral aid (international marker),miller2_IndigIs,0.5726495726495727,0
Bilateral aid (international marker),miller2_BrN,0.020000000000000004,0
Bilateral aid (international marker),miller2_SecPer,0.05,0
Bilateral aid (international marker),miller2_OrganTy,0.020000000000000004,0
Bilateral aid (international marker),miller2_SecID,0.020000000000000004,0
Bilateral aid (international marker),miller2_ChIss,0.47750915750915757,0
Bilateral aid (international marker),miller2_ProBroCounID,0.020000000000000004,0
Bilateral aid (international marker),miller2_Biodiv,0.5533903133903135,0
Bilateral aid (international marker),miller2_ConNa,0.020000000000000004,0
Bilateral aid (international marker),Sector ID,0.5731829573934837,0
Bilateral aid (international marker),miller2_OrganiCl,0.020000000000000004,0
Bilateral aid (international marker),miller2_DiID,0.020000000000000004,0
Bilateral aid (international marker),miller2_CliChaAda,0.515369532428356,0
Bilateral aid (international marker),miller2_ClChaMiti,0.5547812971342383,0
Bilateral aid (international marker),miller2_Deser,0.5166899766899767,0
Bilateral aid (international marker),miller2_PartiDevAGoGov,0.6017663817663819,0
Bilateral aid (international marker),miller2_TrDevelo,0.4987501387501388,0
Bilateral aid (international marker),miller2_UrIs,0.5115384615384615,0
Bilateral aid (international marker),miller2_YoIss,0.4927472527472528,0
Bilateral aid (international marker),miller2_DisIs,0.5289894419306185,0
Bilateral aid (international marker),miller2_ICTAATFoDeve,0.5275072296124927,0
Bilateral aid (international marker),miller2_KnoFDevelo,0.5678571428571428,0
Bilateral aid (international marker),miller2_GeEqu,0.5181440781440783,0
Bilateral aid (international marker),miller2_OrgN,0.020000000000000004,0
Bilateral aid (international marker),miller2_OrgSu,0.020000000000000004,0
Bilateral aid (international marker),miller2_ContiID,0.5379173207744636,0
Bilateral aid (international marker),miller2_CouRegID,0.020000000000000004,0
Bilateral aid (international marker),miller2_CouRegPer,0.05,0
Bilateral aid (international marker),miller2_SecNa,0.020000000000000004,0
Bilateral aid (international marker),miller2_AmSp,0.05,0
PBA type,miller2_FiYe,0.44242424242424244,0
PBA type,miller2_CouReN,0.492620320855615,0
PBA type,miller2_OrgaID,0.46274170274170273,0
PBA type,miller2_IndigIs,0.020000000000000004,0
PBA type,miller2_BrN,0.6438930481283422,0
PBA type,miller2_SecPer,0.033333333333333326,0
PBA type,miller2_OrganTy,0.5765418894830661,0
PBA type,miller2_SecID,0.4313131313131313,0
PBA type,miller2_ChIss,0.020000000000000004,0
PBA type,miller2_ProBroCounID,0.49212425001898685,0
PBA type,miller2_Biodiv,0.020000000000000004,0
PBA type,miller2_ConNa,0.5591961722488039,0
PBA type,Sector ID,0.020000000000000004,0
PBA type,miller2_OrganiCl,0.47474747474747475,0
PBA type,miller2_DiID,0.3713131313131313,0
PBA type,miller2_CliChaAda,0.020000000000000004,0
PBA type,miller2_ClChaMiti,0.020000000000000004,0
PBA type,miller2_Deser,0.020000000000000004,0
PBA type,miller2_PartiDevAGoGov,0.020000000000000004,0
PBA type,miller2_TrDevelo,0.020000000000000004,0
PBA type,miller2_UrIs,0.020000000000000004,0
PBA type,miller2_YoIss,0.020000000000000004,0
PBA type,miller2_DisIs,0.020000000000000004,0
PBA type,miller2_ICTAATFoDeve,0.020000000000000004,0
PBA type,miller2_KnoFDevelo,0.020000000000000004,0
PBA type,miller2_GeEqu,0.020000000000000004,0
PBA type,miller2_OrgN,0.492620320855615,0
PBA type,miller2_OrgSu,0.2581818181818182,0
PBA type,miller2_ContiID,0.020000000000000004,0
PBA type,miller2_CouRegID,0.3808561808561809,0
PBA type,miller2_CouRegPer,0.033333333333333326,0
PBA type,miller2_SecNa,0.4770909090909091,0
PBA type,miller2_AmSp,0.033333333333333326,0
Enviromental sustainability (marker),miller2_FiYe,0.020000000000000004,0
Enviromental sustainability (marker),miller2_CouReN,0.020000000000000004,0
Enviromental sustainability (marker),miller2_OrgaID,0.020000000000000004,0
Enviromental sustainability (marker),miller2_IndigIs,0.4863919980947845,0
Enviromental sustainability (marker),miller2_BrN,0.020000000000000004,0
Enviromental sustainability (marker),miller2_SecPer,0.05,0
Enviromental sustainability (marker),miller2_OrganTy,0.020000000000000004,0
Enviromental sustainability (marker),miller2_SecID,0.020000000000000004,0
Enviromental sustainability (marker),miller2_ChIss,0.4138921965547353,0
Enviromental sustainability (marker),miller2_ProBroCounID,0.020000000000000004,0
Enviromental sustainability (marker),miller2_Biodiv,0.4792478632478633,0
Enviromental sustainability (marker),miller2_ConNa,0.020000000000000004,0
Enviromental sustainability (marker),Sector ID,0.5862322472848789,0
Enviromental sustainability (marker),miller2_OrganiCl,0.020000000000000004,0
Enviromental sustainability (marker),miller2_DiID,0.020000000000000004,0
Enviromental sustainability (marker),miller2_CliChaAda,0.4605937381700318,0
Enviromental sustainability (marker),miller2_ClChaMiti,0.4794627594627595,0
Enviromental sustainability (marker),miller2_Deser,0.4739973751738458,0
Enviromental sustainability (marker),miller2_PartiDevAGoGov,0.45687645687645695,0
Enviromental sustainability (marker),miller2_TrDevelo,0.5003256003256004,0
Enviromental sustainability (marker),miller2_UrIs,0.471852708694814,0
Enviromental sustainability (marker),miller2_YoIss,0.43293981560235434,0
Enviromental sustainability (marker),miller2_DisIs,0.4667098515519569,0
Enviromental sustainability (marker),miller2_ICTAATFoDeve,0.5283516483516484,0
Enviromental sustainability (marker),miller2_KnoFDevelo,0.5829059829059828,0
Enviromental sustainability (marker),miller2_GeEqu,0.4696656170340381,0
Enviromental sustainability (marker),miller2_OrgN,0.020000000000000004,0
