source,target,conf,realConf
Fiscal year,FiY,0.4666666666666667,1
Fiscal year,UrIs,0.020000000000000004,0
Fiscal year,SecID,0.020000000000000004,0
Fiscal year,ICTAAToFoDeve,0.020000000000000004,0
Fiscal year,OrganiSu,0.38,0
Fiscal year,SecNa,0.5753246753246752,0
Fiscal year,FCeID,0.020000000000000004,0
Fiscal year,IRTCPerc,0.033333333333333326,0
Fiscal year,Dese,0.020000000000000004,0
Fiscal year,DivN,0.5126262626262627,0
Fiscal year,OrgCl,0.5753246753246752,0
Fiscal year,BilaAMar,0.020000000000000004,0
Fiscal year,GenEqua,0.020000000000000004,0
Fiscal year,TraDevel,0.020000000000000004,0
Fiscal year,SecPerc,0.033333333333333326,0
Fiscal year,Sta,0.5132275132275133,0
Fiscal year,ProjNu,0.39,0
Fiscal year,IndIss,0.020000000000000004,0
Fiscal year,RegProg,0.020000000000000004,0
Fiscal year,ProBroCouID,0.4801790801790802,0
Fiscal year,ClChaAdap,0.020000000000000004,0
Fiscal year,BrID,0.5357142857142857,0
Fiscal year,SeN,0.5297202797202798,0
Fiscal year,FuCenN,0.5002597402597402,0
Fiscal year,SeID,0.4246642246642247,0
Fiscal year,ChIss,0.020000000000000004,0
Fiscal year,YouIss,0.020000000000000004,0
Fiscal year,DisabIss,0.020000000000000004,0
Fiscal year,KnowlFDeve,0.020000000000000004,0
Fiscal year,OrgaID,0.4042857142857143,0
Fiscal year,OrganiN,0.5081818181818182,0
Fiscal year,OrganiTy,0.4066666666666667,0
Fiscal year,ContID,0.020000000000000004,0
Fiscal year,ConN,0.6181818181818182,0
Fiscal year,CouRegID,0.40825396825396826,0
Fiscal year,CouReNa,0.4031746031746032,0
Fiscal year,CounRegPerc,0.033333333333333326,0
Fiscal year,AmSp,0.033333333333333326,0
Urban issues (marker),FiY,0.020000000000000004,0
Urban issues (marker),UrIs,0.4307692307692308,1
Urban issues (marker),SecID,0.5682539682539682,0
Urban issues (marker),ICTAAToFoDeve,0.41333333333333333,0
Urban issues (marker),OrganiSu,0.020000000000000004,0
Urban issues (marker),SecNa,0.020000000000000004,0
Urban issues (marker),FCeID,0.6015873015873017,0
Urban issues (marker),IRTCPerc,0.05,0
Urban issues (marker),Dese,0.4,0
Urban issues (marker),DivN,0.020000000000000004,0
Urban issues (marker),OrgCl,0.020000000000000004,0
Urban issues (marker),BilaAMar,0.48088888888888887,0
Urban issues (marker),GenEqua,0.5377777777777777,0
Urban issues (marker),TraDevel,0.4537373737373737,0
Urban issues (marker),SecPerc,0.05,0
Urban issues (marker),Sta,0.020000000000000004,0
Urban issues (marker),ProjNu,0.020000000000000004,0
Urban issues (marker),IndIss,0.4933333333333334,0
Urban issues (marker),RegProg,0.45333333333333337,0
Urban issues (marker),ProBroCouID,0.020000000000000004,0
Urban issues (marker),ClChaAdap,0.4447811447811448,0
Urban issues (marker),BrID,0.020000000000000004,0
Urban issues (marker),SeN,0.020000000000000004,0
Urban issues (marker),FuCenN,0.020000000000000004,0
Urban issues (marker),SeID,0.020000000000000004,0
Urban issues (marker),ChIss,0.4133333333333334,0
Urban issues (marker),YouIss,0.46666666666666673,0
Urban issues (marker),DisabIss,0.5326060606060605,0
Urban issues (marker),KnowlFDeve,0.4911111111111111,0
Urban issues (marker),OrgaID,0.020000000000000004,0
Urban issues (marker),OrganiN,0.020000000000000004,0
Urban issues (marker),OrganiTy,0.020000000000000004,0
Urban issues (marker),ContID,0.44825396825396824,0
Urban issues (marker),ConN,0.020000000000000004,0
Urban issues (marker),CouRegID,0.020000000000000004,0
Urban issues (marker),CouReNa,0.020000000000000004,0
Urban issues (marker),CounRegPerc,0.05,0
Urban issues (marker),AmSp,0.05,0
Sector ID,FiY,0.020000000000000004,0
Sector ID,UrIs,0.7511111111111111,0
Sector ID,SecID,0.8177777777777777,1
Sector ID,ICTAAToFoDeve,0.4763636363636364,0
Sector ID,OrganiSu,0.020000000000000004,0
Sector ID,SecNa,0.020000000000000004,0
Sector ID,FCeID,0.7825641025641026,0
Sector ID,IRTCPerc,0.05,0
Sector ID,Dese,0.5022222222222222,0
Sector ID,DivN,0.020000000000000004,0
Sector ID,OrgCl,0.020000000000000004,0
Sector ID,BilaAMar,0.517948717948718,0
Sector ID,GenEqua,0.4841558441558442,0
Sector ID,TraDevel,0.4920634920634921,0
Sector ID,SecPerc,0.05,0
Sector ID,Sta,0.020000000000000004,0
Sector ID,ProjNu,0.020000000000000004,0
Sector ID,IndIss,0.6444444444444445,0
Sector ID,RegProg,0.3288888888888889,0
Sector ID,ProBroCouID,0.020000000000000004,0
Sector ID,ClChaAdap,0.5555555555555556,0
Sector ID,BrID,0.020000000000000004,0
Sector ID,SeN,0.020000000000000004,0
Sector ID,FuCenN,0.020000000000000004,0
Sector ID,SeID,0.020000000000000004,0
Sector ID,ChIss,0.46,0
Sector ID,YouIss,0.4725925925925926,0
Sector ID,DisabIss,0.4615873015873016,0
Sector ID,KnowlFDeve,0.5522281639928699,0
Sector ID,OrgaID,0.020000000000000004,0
Sector ID,OrganiN,0.020000000000000004,0
Sector ID,OrganiTy,0.020000000000000004,0
Sector ID,ContID,0.7911111111111111,0
Sector ID,ConN,0.020000000000000004,0
Sector ID,CouRegID,0.020000000000000004,0
Sector ID,CouReNa,0.020000000000000004,0
Sector ID,CounRegPerc,0.05,0
Sector ID,AmSp,0.05,0
ICT as a tool for development (marker),FiY,0.020000000000000004,0
ICT as a tool for development (marker),UrIs,0.5237472766884532,0
ICT as a tool for development (marker),SecID,0.597196333078686,0
ICT as a tool for development (marker),ICTAAToFoDeve,0.6251575799401886,1
ICT as a tool for development (marker),OrganiSu,0.020000000000000004,0
ICT as a tool for development (marker),SecNa,0.020000000000000004,0
ICT as a tool for development (marker),FCeID,0.6480112044817927,0
ICT as a tool for development (marker),IRTCPerc,0.05,0
ICT as a tool for development (marker),Dese,0.36000000000000004,0
ICT as a tool for development (marker),DivN,0.020000000000000004,0
ICT as a tool for development (marker),OrgCl,0.020000000000000004,0
ICT as a tool for development (marker),BilaAMar,0.5171618504951838,0
ICT as a tool for development (marker),GenEqua,0.45963369963369965,0
ICT as a tool for development (marker),TraDevel,0.5232804232804233,0
ICT as a tool for development (marker),SecPerc,0.05,0
ICT as a tool for development (marker),Sta,0.020000000000000004,0
ICT as a tool for development (marker),ProjNu,0.020000000000000004,0
ICT as a tool for development (marker),IndIss,0.3523809523809524,0
ICT as a tool for development (marker),RegProg,0.4042328042328043,0
ICT as a tool for development (marker),ProBroCouID,0.020000000000000004,0
ICT as a tool for development (marker),ClChaAdap,0.4853679653679654,0
ICT as a tool for development (marker),BrID,0.020000000000000004,0
ICT as a tool for development (marker),SeN,0.020000000000000004,0
ICT as a tool for development (marker),FuCenN,0.020000000000000004,0
ICT as a tool for development (marker),SeID,0.020000000000000004,0
ICT as a tool for development (marker),ChIss,0.35111111111111115,0
ICT as a tool for development (marker),YouIss,0.30962962962962964,0
ICT as a tool for development (marker),DisabIss,0.3631313131313132,0
ICT as a tool for development (marker),KnowlFDeve,0.5758730158730159,0
ICT as a tool for development (marker),OrgaID,0.020000000000000004,0
ICT as a tool for development (marker),OrganiN,0.020000000000000004,0
ICT as a tool for development (marker),OrganiTy,0.020000000000000004,0
ICT as a tool for development (marker),ContID,0.6477591036414565,0
ICT as a tool for development (marker),ConN,0.020000000000000004,0
ICT as a tool for development (marker),CouRegID,0.020000000000000004,0
ICT as a tool for development (marker),CouReNa,0.020000000000000004,0
ICT as a tool for development (marker),CounRegPerc,0.05,0
ICT as a tool for development (marker),AmSp,0.05,0
Organisation sub-class,FiY,0.2761904761904762,0
Organisation sub-class,UrIs,0.020000000000000004,0
Organisation sub-class,SecID,0.020000000000000004,0
Organisation sub-class,ICTAAToFoDeve,0.020000000000000004,0
Organisation sub-class,OrganiSu,0.6121212121212121,1
Organisation sub-class,SecNa,0.594871794871795,0
Organisation sub-class,FCeID,0.020000000000000004,0
Organisation sub-class,IRTCPerc,0.033333333333333326,0
Organisation sub-class,Dese,0.020000000000000004,0
Organisation sub-class,DivN,0.3866666666666667,0
Organisation sub-class,OrgCl,0.5927272727272728,0
Organisation sub-class,BilaAMar,0.020000000000000004,0
Organisation sub-class,GenEqua,0.020000000000000004,0
Organisation sub-class,TraDevel,0.020000000000000004,0
Organisation sub-class,SecPerc,0.033333333333333326,0
Organisation sub-class,Sta,0.44888888888888895,0
Organisation sub-class,ProjNu,0.4006493506493507,0
Organisation sub-class,IndIss,0.020000000000000004,0
Organisation sub-class,RegProg,0.020000000000000004,0
Organisation sub-class,ProBroCouID,0.4768253968253969,0
Organisation sub-class,ClChaAdap,0.020000000000000004,0
Organisation sub-class,BrID,0.5968031968031968,0
Organisation sub-class,SeN,0.46303030303030307,0
Organisation sub-class,FuCenN,0.4128484848484848,0
Organisation sub-class,SeID,0.5316017316017316,0
Organisation sub-class,ChIss,0.020000000000000004,0
Organisation sub-class,YouIss,0.020000000000000004,0
Organisation sub-class,DisabIss,0.020000000000000004,0
Organisation sub-class,KnowlFDeve,0.020000000000000004,0
Organisation sub-class,OrgaID,0.5593406593406594,0
Organisation sub-class,OrganiN,0.5733333333333335,0
Organisation sub-class,OrganiTy,0.5219047619047619,0
Organisation sub-class,ContID,0.020000000000000004,0
Organisation sub-class,ConN,0.5659649122807018,0
Organisation sub-class,CouRegID,0.47885714285714287,0
Organisation sub-class,CouReNa,0.3927738927738928,0
Organisation sub-class,CounRegPerc,0.033333333333333326,0
Organisation sub-class,AmSp,0.033333333333333326,0
Sector name,FiY,0.2,0
Sector name,UrIs,0.020000000000000004,0
Sector name,SecID,0.020000000000000004,0
Sector name,ICTAAToFoDeve,0.020000000000000004,0
Sector name,OrganiSu,0.42333333333333334,0
Sector name,SecNa,0.641904761904762,1
Sector name,FCeID,0.020000000000000004,0
Sector name,IRTCPerc,0.033333333333333326,0
Sector name,Dese,0.020000000000000004,0
Sector name,DivN,0.6087912087912088,0
Sector name,OrgCl,0.6786324786324787,0
Sector name,BilaAMar,0.020000000000000004,0
Sector name,GenEqua,0.020000000000000004,0
Sector name,TraDevel,0.020000000000000004,0
Sector name,SecPerc,0.033333333333333326,0
Sector name,Sta,0.5132275132275133,0
Sector name,ProjNu,0.43831932773109245,0
Sector name,IndIss,0.020000000000000004,0
Sector name,RegProg,0.020000000000000004,0
Sector name,ProBroCouID,0.597037037037037,0
Sector name,ClChaAdap,0.020000000000000004,0
Sector name,BrID,0.6803418803418804,0
Sector name,SeN,0.7318681318681319,0
Sector name,FuCenN,0.5727472527472528,0
Sector name,SeID,0.6683760683760684,0
Sector name,ChIss,0.020000000000000004,0
Sector name,YouIss,0.020000000000000004,0
Sector name,DisabIss,0.020000000000000004,0
Sector name,KnowlFDeve,0.020000000000000004,0
Sector name,OrgaID,0.5772222222222223,0
Sector name,OrganiN,0.6754578754578755,0
Sector name,OrganiTy,0.42333333333333334,0
Sector name,ContID,0.020000000000000004,0
Sector name,ConN,0.728791208791209,0
Sector name,CouRegID,0.5546031746031745,0
Sector name,CouReNa,0.6063492063492064,0
Sector name,CounRegPerc,0.033333333333333326,0
Sector name,AmSp,0.033333333333333326,0
Fund centre ID,FiY,0.020000000000000004,0
Fund centre ID,UrIs,0.6383333333333333,0
Fund centre ID,SecID,0.7825386996904025,0
Fund centre ID,ICTAAToFoDeve,0.48141414141414146,0
Fund centre ID,OrganiSu,0.020000000000000004,0
Fund centre ID,SecNa,0.020000000000000004,0
Fund centre ID,FCeID,0.7127170868347339,1
Fund centre ID,IRTCPerc,0.05,0
Fund centre ID,Dese,0.4766666666666667,0
Fund centre ID,DivN,0.020000000000000004,0
Fund centre ID,OrgCl,0.020000000000000004,0
Fund centre ID,BilaAMar,0.48,0
Fund centre ID,GenEqua,0.4761904761904762,0
Fund centre ID,TraDevel,0.4816738816738817,0
Fund centre ID,SecPerc,0.05,0
Fund centre ID,Sta,0.020000000000000004,0
Fund centre ID,ProjNu,0.020000000000000004,0
Fund centre ID,IndIss,0.646984126984127,0
Fund centre ID,RegProg,0.37422222222222223,0
Fund centre ID,ProBroCouID,0.020000000000000004,0
Fund centre ID,ClChaAdap,0.48613756613756615,0
Fund centre ID,BrID,0.020000000000000004,0
Fund centre ID,SeN,0.020000000000000004,0
Fund centre ID,FuCenN,0.020000000000000004,0
Fund centre ID,SeID,0.020000000000000004,0
Fund centre ID,ChIss,0.40800000000000003,0
Fund centre ID,YouIss,0.36000000000000004,0
Fund centre ID,DisabIss,0.4092698412698413,0
Fund centre ID,KnowlFDeve,0.4976408341114224,0
Fund centre ID,OrgaID,0.020000000000000004,0
Fund centre ID,OrganiN,0.020000000000000004,0
Fund centre ID,OrganiTy,0.020000000000000004,0
Fund centre ID,ContID,0.752,0
Fund centre ID,ConN,0.020000000000000004,0
Fund centre ID,CouRegID,0.020000000000000004,0
Fund centre ID,CouReNa,0.020000000000000004,0
Fund centre ID,CounRegPerc,0.05,0
Fund centre ID,AmSp,0.05,0
IRTC percent,FiY,0.033333333333333326,0
IRTC percent,UrIs,0.05,0
IRTC percent,SecID,0.05,0
IRTC percent,ICTAAToFoDeve,0.05,0
IRTC percent,OrganiSu,0.033333333333333326,0
IRTC percent,SecNa,0.033333333333333326,0
IRTC percent,FCeID,0.05,0
IRTC percent,IRTCPerc,0.8909090909090909,1
IRTC percent,Dese,0.05,0
IRTC percent,DivN,0.033333333333333326,0
IRTC percent,OrgCl,0.033333333333333326,0
IRTC percent,BilaAMar,0.05,0
IRTC percent,GenEqua,0.05,0
IRTC percent,TraDevel,0.05,0
IRTC percent,SecPerc,0.6709090909090909,0
IRTC percent,Sta,0.033333333333333326,0
IRTC percent,ProjNu,0.033333333333333326,0
IRTC percent,IndIss,0.05,0
IRTC percent,RegProg,0.05,0
IRTC percent,ProBroCouID,0.033333333333333326,0
IRTC percent,ClChaAdap,0.05,0
IRTC percent,BrID,0.033333333333333326,0
IRTC percent,SeN,0.033333333333333326,0
IRTC percent,FuCenN,0.033333333333333326,0
IRTC percent,SeID,0.033333333333333326,0
IRTC percent,ChIss,0.05,0
IRTC percent,YouIss,0.05,0
IRTC percent,DisabIss,0.05,0
IRTC percent,KnowlFDeve,0.05,0
IRTC percent,OrgaID,0.033333333333333326,0
IRTC percent,OrganiN,0.033333333333333326,0
IRTC percent,OrganiTy,0.033333333333333326,0
IRTC percent,ContID,0.05,0
IRTC percent,ConN,0.033333333333333326,0
IRTC percent,CouRegID,0.033333333333333326,0
IRTC percent,CouReNa,0.033333333333333326,0
IRTC percent,CounRegPerc,0.634909090909091,0
IRTC percent,AmSp,0.31851851851851853,0
Desertification (marker),FiY,0.020000000000000004,0
Desertification (marker),UrIs,0.4666666666666667,0
Desertification (marker),SecID,0.4941558441558442,0
Desertification (marker),ICTAAToFoDeve,0.4770526315789474,0
Desertification (marker),OrganiSu,0.020000000000000004,0
Desertification (marker),SecNa,0.020000000000000004,0
Desertification (marker),FCeID,0.5844688644688645,0
Desertification (marker),IRTCPerc,0.05,0
Desertification (marker),Dese,0.47789473684210526,1
Desertification (marker),DivN,0.020000000000000004,0
Desertification (marker),OrgCl,0.020000000000000004,0
Desertification (marker),BilaAMar,0.4175438596491228,0
Desertification (marker),GenEqua,0.4842105263157895,0
Desertification (marker),TraDevel,0.4088888888888889,0
Desertification (marker),SecPerc,0.05,0
Desertification (marker),Sta,0.020000000000000004,0
Desertification (marker),ProjNu,0.020000000000000004,0
Desertification (marker),IndIss,0.3111111111111111,0
Desertification (marker),RegProg,0.4619883040935673,0
Desertification (marker),ProBroCouID,0.020000000000000004,0
Desertification (marker),ClChaAdap,0.43893673577884107,0
Desertification (marker),BrID,0.020000000000000004,0
Desertification (marker),SeN,0.020000000000000004,0
Desertification (marker),FuCenN,0.020000000000000004,0
Desertification (marker),SeID,0.020000000000000004,0
Desertification (marker),ChIss,0.26928104575163403,0
Desertification (marker),YouIss,0.2592592592592593,0
Desertification (marker),DisabIss,0.37858585858585864,0
Desertification (marker),KnowlFDeve,0.5462838915470494,0
Desertification (marker),OrgaID,0.020000000000000004,0
Desertification (marker),OrganiN,0.020000000000000004,0
Desertification (marker),OrganiTy,0.020000000000000004,0
Desertification (marker),ContID,0.4977443609022556,0
Desertification (marker),ConN,0.020000000000000004,0
Desertification (marker),CouRegID,0.020000000000000004,0
Desertification (marker),CouReNa,0.020000000000000004,0
Desertification (marker),CounRegPerc,0.05,0
Desertification (marker),AmSp,0.05,0
Division name,FiY,0.30666666666666664,0
Division name,UrIs,0.020000000000000004,0
Division name,SecID,0.020000000000000004,0
Division name,ICTAAToFoDeve,0.020000000000000004,0
Division name,OrganiSu,0.3942857142857143,0
Division name,SecNa,0.7396825396825397,0
Division name,FCeID,0.020000000000000004,0
Division name,IRTCPerc,0.033333333333333326,0
Division name,Dese,0.020000000000000004,0
Division name,DivN,0.6643356643356644,1
Division name,OrgCl,0.6025174825174826,0
Division name,BilaAMar,0.020000000000000004,0
Division name,GenEqua,0.020000000000000004,0
Division name,TraDevel,0.020000000000000004,0
Division name,SecPerc,0.033333333333333326,0
Division name,Sta,0.40086580086580087,0
Division name,ProjNu,0.4316526610644258,0
Division name,IndIss,0.020000000000000004,0
Division name,RegProg,0.020000000000000004,0
Division name,ProBroCouID,0.5418181818181818,0
Division name,ClChaAdap,0.020000000000000004,0
Division name,BrID,0.6661538461538462,0
Division name,SeN,0.6492307692307693,0
Division name,FuCenN,0.5066373626373626,0
Division name,SeID,0.6461538461538462,0
Division name,ChIss,0.020000000000000004,0
Division name,YouIss,0.020000000000000004,0
Division name,DisabIss,0.020000000000000004,0
Division name,KnowlFDeve,0.020000000000000004,0
Division name,OrgaID,0.525,0
Division name,OrganiN,0.5832967032967034,0
Division name,OrganiTy,0.3542857142857143,0
Division name,ContID,0.020000000000000004,0
Division name,ConN,0.6705016722408028,0
Division name,CouRegID,0.4948051948051948,0
Division name,CouReNa,0.5264735264735265,0
Division name,CounRegPerc,0.033333333333333326,0
Division name,AmSp,0.033333333333333326,0
Organisation class,FiY,0.2761904761904762,0
Organisation class,UrIs,0.020000000000000004,0
Organisation class,SecID,0.020000000000000004,0
Organisation class,ICTAAToFoDeve,0.020000000000000004,0
Organisation class,OrganiSu,0.580952380952381,0
Organisation class,SecNa,0.6393162393162394,0
Organisation class,FCeID,0.020000000000000004,0
Organisation class,IRTCPerc,0.033333333333333326,0
Organisation class,Dese,0.020000000000000004,0
Organisation class,DivN,0.46666666666666673,0
Organisation class,OrgCl,0.6400000000000001,1
Organisation class,BilaAMar,0.020000000000000004,0
Organisation class,GenEqua,0.020000000000000004,0
Organisation class,TraDevel,0.020000000000000004,0
Organisation class,SecPerc,0.033333333333333326,0
Organisation class,Sta,0.4088888888888889,0
Organisation class,ProjNu,0.4214285714285715,0
Organisation class,IndIss,0.020000000000000004,0
Organisation class,RegProg,0.020000000000000004,0
Organisation class,ProBroCouID,0.5157142857142858,0
Organisation class,ClChaAdap,0.020000000000000004,0
Organisation class,BrID,0.6804395604395606,0
Organisation class,SeN,0.5066666666666667,0
Organisation class,FuCenN,0.43200000000000005,0
Organisation class,SeID,0.5702380952380952,0
Organisation class,ChIss,0.020000000000000004,0
Organisation class,YouIss,0.020000000000000004,0
Organisation class,DisabIss,0.020000000000000004,0
Organisation class,KnowlFDeve,0.020000000000000004,0
Organisation class,OrgaID,0.6035714285714286,0
Organisation class,OrganiN,0.6266666666666667,0
Organisation class,OrganiTy,0.5316017316017316,0
Organisation class,ContID,0.020000000000000004,0
Organisation class,ConN,0.6526315789473685,0
Organisation class,CouRegID,0.5255238095238096,0
Organisation class,CouReNa,0.4346153846153846,0
Organisation class,CounRegPerc,0.033333333333333326,0
Organisation class,AmSp,0.033333333333333326,0
Bilateral aid (international marker),FiY,0.020000000000000004,0
Bilateral aid (international marker),UrIs,0.3920879120879121,0
Bilateral aid (international marker),SecID,0.5676190476190477,0
Bilateral aid (international marker),ICTAAToFoDeve,0.5073015873015874,0
Bilateral aid (international marker),OrganiSu,0.020000000000000004,0
Bilateral aid (international marker),SecNa,0.020000000000000004,0
Bilateral aid (international marker),FCeID,0.6185034013605442,0
Bilateral aid (international marker),IRTCPerc,0.05,0
Bilateral aid (international marker),Dese,0.36686748545572073,0
Bilateral aid (international marker),DivN,0.020000000000000004,0
Bilateral aid (international marker),OrgCl,0.020000000000000004,0
Bilateral aid (international marker),BilaAMar,0.6170940170940171,1
Bilateral aid (international marker),GenEqua,0.491965811965812,0
Bilateral aid (international marker),TraDevel,0.49550264550264556,0
Bilateral aid (international marker),SecPerc,0.05,0
Bilateral aid (international marker),Sta,0.020000000000000004,0
Bilateral aid (international marker),ProjNu,0.020000000000000004,0
Bilateral aid (international marker),IndIss,0.47777777777777786,0
Bilateral aid (international marker),RegProg,0.4034858387799565,0
Bilateral aid (international marker),ProBroCouID,0.020000000000000004,0
Bilateral aid (international marker),ClChaAdap,0.5816944959802103,0
Bilateral aid (international marker),BrID,0.020000000000000004,0
Bilateral aid (international marker),SeN,0.020000000000000004,0
Bilateral aid (international marker),FuCenN,0.020000000000000004,0
Bilateral aid (international marker),SeID,0.020000000000000004,0
Bilateral aid (international marker),ChIss,0.32777777777777783,0
Bilateral aid (international marker),YouIss,0.3533333333333334,0
Bilateral aid (international marker),DisabIss,0.41895141895141896,0
Bilateral aid (international marker),KnowlFDeve,0.5463945578231293,0
Bilateral aid (international marker),OrgaID,0.020000000000000004,0
Bilateral aid (international marker),OrganiN,0.020000000000000004,0
Bilateral aid (international marker),OrganiTy,0.020000000000000004,0
Bilateral aid (international marker),ContID,0.4546065699006876,0
Bilateral aid (international marker),ConN,0.020000000000000004,0
Bilateral aid (international marker),CouRegID,0.020000000000000004,0
Bilateral aid (international marker),CouReNa,0.020000000000000004,0
Bilateral aid (international marker),CounRegPerc,0.05,0
Bilateral aid (international marker),AmSp,0.05,0
Gender equality (marker),FiY,0.020000000000000004,0
Gender equality (marker),UrIs,0.3985294117647059,0
Gender equality (marker),SecID,0.5099770817417877,0
Gender equality (marker),ICTAAToFoDeve,0.4953846153846154,0
Gender equality (marker),OrganiSu,0.020000000000000004,0
Gender equality (marker),SecNa,0.020000000000000004,0
Gender equality (marker),FCeID,0.591097791097791,0
Gender equality (marker),IRTCPerc,0.05,0
Gender equality (marker),Dese,0.43333333333333335,0
Gender equality (marker),DivN,0.020000000000000004,0
Gender equality (marker),OrgCl,0.020000000000000004,0
Gender equality (marker),BilaAMar,0.5725128205128205,0
Gender equality (marker),GenEqua,0.6225641025641027,1
Gender equality (marker),TraDevel,0.4367055167055167,0
Gender equality (marker),SecPerc,0.05,0
Gender equality (marker),Sta,0.020000000000000004,0
Gender equality (marker),ProjNu,0.020000000000000004,0
Gender equality (marker),IndIss,0.4004040404040404,0
Gender equality (marker),RegProg,0.43886868686868685,0
Gender equality (marker),ProBroCouID,0.020000000000000004,0
Gender equality (marker),ClChaAdap,0.48659932659932664,0
Gender equality (marker),BrID,0.020000000000000004,0
Gender equality (marker),SeN,0.020000000000000004,0
Gender equality (marker),FuCenN,0.020000000000000004,0
Gender equality (marker),SeID,0.020000000000000004,0
Gender equality (marker),ChIss,0.2581818181818182,0
Gender equality (marker),YouIss,0.2727272727272727,0
Gender equality (marker),DisabIss,0.34545454545454546,0
Gender equality (marker),KnowlFDeve,0.5705050505050505,0
Gender equality (marker),OrgaID,0.020000000000000004,0
Gender equality (marker),OrganiN,0.020000000000000004,0
Gender equality (marker),OrganiTy,0.020000000000000004,0
Gender equality (marker),ContID,0.45752380952380955,0
Gender equality (marker),ConN,0.020000000000000004,0
Gender equality (marker),CouRegID,0.020000000000000004,0
Gender equality (marker),CouReNa,0.020000000000000004,0
Gender equality (marker),CounRegPerc,0.05,0
Gender equality (marker),AmSp,0.05,0
Trade development (marker),FiY,0.020000000000000004,0
Trade development (marker),UrIs,0.5954481792717088,0
Trade development (marker),SecID,0.6544537815126051,0
Trade development (marker),ICTAAToFoDeve,0.5614814814814815,0
Trade development (marker),OrganiSu,0.020000000000000004,0
Trade development (marker),SecNa,0.020000000000000004,0
Trade development (marker),FCeID,0.7054070112893642,0
Trade development (marker),IRTCPerc,0.05,0
Trade development (marker),Dese,0.49777777777777776,0
Trade development (marker),DivN,0.020000000000000004,0
Trade development (marker),OrgCl,0.020000000000000004,0
Trade development (marker),BilaAMar,0.48991452991452994,0
Trade development (marker),GenEqua,0.5227350427350428,0
Trade development (marker),TraDevel,0.6755555555555556,1
Trade development (marker),SecPerc,0.05,0
Trade development (marker),Sta,0.020000000000000004,0
Trade development (marker),ProjNu,0.020000000000000004,0
Trade development (marker),IndIss,0.3028571428571429,0
Trade development (marker),RegProg,0.4895238095238096,0
Trade development (marker),ProBroCouID,0.020000000000000004,0
Trade development (marker),ClChaAdap,0.5398653198653198,0
Trade development (marker),BrID,0.020000000000000004,0
Trade development (marker),SeN,0.020000000000000004,0
Trade development (marker),FuCenN,0.020000000000000004,0
Trade development (marker),SeID,0.020000000000000004,0
Trade development (marker),ChIss,0.2,0
Trade development (marker),YouIss,0.2,0
Trade development (marker),DisabIss,0.3130909090909091,0
Trade development (marker),KnowlFDeve,0.616969696969697,0
Trade development (marker),OrgaID,0.020000000000000004,0
Trade development (marker),OrganiN,0.020000000000000004,0
Trade development (marker),OrganiTy,0.020000000000000004,0
Trade development (marker),ContID,0.6224537815126051,0
Trade development (marker),ConN,0.020000000000000004,0
Trade development (marker),CouRegID,0.020000000000000004,0
Trade development (marker),CouReNa,0.020000000000000004,0
Trade development (marker),CounRegPerc,0.05,0
Trade development (marker),AmSp,0.05,0
Sector percent,FiY,0.033333333333333326,0
Sector percent,UrIs,0.05,0
Sector percent,SecID,0.05,0
Sector percent,ICTAAToFoDeve,0.05,0
Sector percent,OrganiSu,0.033333333333333326,0
Sector percent,SecNa,0.033333333333333326,0
Sector percent,FCeID,0.05,0
Sector percent,IRTCPerc,0.6436363636363637,0
Sector percent,Dese,0.05,0
Sector percent,DivN,0.033333333333333326,0
Sector percent,OrgCl,0.033333333333333326,0
Sector percent,BilaAMar,0.05,0
Sector percent,GenEqua,0.05,0
Sector percent,TraDevel,0.05,0
Sector percent,SecPerc,0.7042424242424243,1
Sector percent,Sta,0.033333333333333326,0
Sector percent,ProjNu,0.033333333333333326,0
Sector percent,IndIss,0.05,0
Sector percent,RegProg,0.05,0
Sector percent,ProBroCouID,0.033333333333333326,0
Sector percent,ClChaAdap,0.05,0
Sector percent,BrID,0.033333333333333326,0
Sector percent,SeN,0.033333333333333326,0
Sector percent,FuCenN,0.033333333333333326,0
Sector percent,SeID,0.033333333333333326,0
Sector percent,ChIss,0.05,0
Sector percent,YouIss,0.05,0
Sector percent,DisabIss,0.05,0
Sector percent,KnowlFDeve,0.05,0
Sector percent,OrgaID,0.033333333333333326,0
Sector percent,OrganiN,0.033333333333333326,0
Sector percent,OrganiTy,0.033333333333333326,0
Sector percent,ContID,0.05,0
Sector percent,ConN,0.033333333333333326,0
Sector percent,CouRegID,0.033333333333333326,0
Sector percent,CouReNa,0.033333333333333326,0
Sector percent,CounRegPerc,0.6247272727272728,0
Sector percent,AmSp,0.3925925925925926,0
Status,FiY,0.2,0
Status,UrIs,0.020000000000000004,0
Status,SecID,0.020000000000000004,0
Status,ICTAAToFoDeve,0.020000000000000004,0
Status,OrganiSu,0.5111111111111111,0
Status,SecNa,0.4953846153846154,0
Status,FCeID,0.020000000000000004,0
Status,IRTCPerc,0.033333333333333326,0
Status,Dese,0.020000000000000004,0
Status,DivN,0.41333333333333333,0
Status,OrgCl,0.41333333333333333,0
Status,BilaAMar,0.020000000000000004,0
Status,GenEqua,0.020000000000000004,0
Status,TraDevel,0.020000000000000004,0
Status,SecPerc,0.033333333333333326,0
Status,Sta,0.7333333333333334,1
Status,ProjNu,0.3523809523809524,0
Status,IndIss,0.020000000000000004,0
Status,RegProg,0.020000000000000004,0
Status,ProBroCouID,0.39145299145299145,0
Status,ClChaAdap,0.020000000000000004,0
Status,BrID,0.4953846153846154,0
Status,SeN,0.5022222222222222,0
Status,FuCenN,0.41000000000000003,0
Status,SeID,0.4598290598290598,0
Status,ChIss,0.020000000000000004,0
Status,YouIss,0.020000000000000004,0
Status,DisabIss,0.020000000000000004,0
Status,KnowlFDeve,0.020000000000000004,0
Status,OrgaID,0.41743589743589743,0
Status,OrganiN,0.45777777777777784,0
Status,OrganiTy,0.37777777777777777,0
Status,ContID,0.020000000000000004,0
Status,ConN,0.5022222222222222,0
Status,CouRegID,0.36752136752136755,0
Status,CouReNa,0.4233618233618234,0
Status,CounRegPerc,0.033333333333333326,0
Status,AmSp,0.033333333333333326,0
Project number,FiY,0.2,0
Project number,UrIs,0.020000000000000004,0
Project number,SecID,0.020000000000000004,0
Project number,ICTAAToFoDeve,0.020000000000000004,0
Project number,OrganiSu,0.36410256410256414,0
Project number,SecNa,0.6015384615384616,0
Project number,FCeID,0.020000000000000004,0
Project number,IRTCPerc,0.033333333333333326,0
Project number,Dese,0.020000000000000004,0
Project number,DivN,0.5282051282051282,0
Project number,OrgCl,0.5905982905982907,0
Project number,BilaAMar,0.020000000000000004,0
Project number,GenEqua,0.020000000000000004,0
Project number,TraDevel,0.020000000000000004,0
Project number,SecPerc,0.033333333333333326,0
Project number,Sta,0.30666666666666664,0
Project number,ProjNu,0.7575757575757576,1
Project number,IndIss,0.020000000000000004,0
Project number,RegProg,0.020000000000000004,0
Project number,ProBroCouID,0.6777777777777778,0
Project number,ClChaAdap,0.020000000000000004,0
Project number,BrID,0.75,0
Project number,SeN,0.594871794871795,0
Project number,FuCenN,0.5381196581196581,0
Project number,SeID,0.7166666666666666,0
Project number,ChIss,0.020000000000000004,0
Project number,YouIss,0.020000000000000004,0
Project number,DisabIss,0.020000000000000004,0
Project number,KnowlFDeve,0.020000000000000004,0
Project number,OrgaID,0.6900000000000001,0
Project number,OrganiN,0.5615384615384615,0
Project number,OrganiTy,0.35555555555555557,0
Project number,ContID,0.020000000000000004,0
Project number,ConN,0.72,0
Project number,CouRegID,0.6595555555555556,0
Project number,CouReNa,0.4175213675213676,0
Project number,CounRegPerc,0.033333333333333326,0
Project number,AmSp,0.033333333333333326,0
Indigenous issues (marker),FiY,0.020000000000000004,0
Indigenous issues (marker),UrIs,0.4307692307692308,0
Indigenous issues (marker),SecID,0.5682539682539682,0
Indigenous issues (marker),ICTAAToFoDeve,0.4337662337662338,0
Indigenous issues (marker),OrganiSu,0.020000000000000004,0
Indigenous issues (marker),SecNa,0.020000000000000004,0
Indigenous issues (marker),FCeID,0.6015873015873017,0
Indigenous issues (marker),IRTCPerc,0.05,0
Indigenous issues (marker),Dese,0.49142857142857144,0
Indigenous issues (marker),DivN,0.020000000000000004,0
Indigenous issues (marker),OrgCl,0.020000000000000004,0
Indigenous issues (marker),BilaAMar,0.42399999999999993,0
Indigenous issues (marker),GenEqua,0.48698412698412696,0
Indigenous issues (marker),TraDevel,0.38553535353535356,0
Indigenous issues (marker),SecPerc,0.05,0
Indigenous issues (marker),Sta,0.020000000000000004,0
Indigenous issues (marker),ProjNu,0.020000000000000004,0
Indigenous issues (marker),IndIss,0.5610256410256411,1
Indigenous issues (marker),RegProg,0.4343931623931624,0
Indigenous issues (marker),ProBroCouID,0.020000000000000004,0
Indigenous issues (marker),ClChaAdap,0.4381144781144781,0
Indigenous issues (marker),BrID,0.020000000000000004,0
Indigenous issues (marker),SeN,0.020000000000000004,0
Indigenous issues (marker),FuCenN,0.020000000000000004,0
Indigenous issues (marker),SeID,0.020000000000000004,0
Indigenous issues (marker),ChIss,0.46256410256410263,0
Indigenous issues (marker),YouIss,0.5282051282051283,0
Indigenous issues (marker),DisabIss,0.5704242424242425,0
Indigenous issues (marker),KnowlFDeve,0.5161904761904762,0
Indigenous issues (marker),OrgaID,0.020000000000000004,0
Indigenous issues (marker),OrganiN,0.020000000000000004,0
Indigenous issues (marker),OrganiTy,0.020000000000000004,0
Indigenous issues (marker),ContID,0.4290909090909091,0
Indigenous issues (marker),ConN,0.020000000000000004,0
Indigenous issues (marker),CouRegID,0.020000000000000004,0
Indigenous issues (marker),CouReNa,0.020000000000000004,0
Indigenous issues (marker),CounRegPerc,0.05,0
Indigenous issues (marker),AmSp,0.05,0
Regional program (marker),FiY,0.020000000000000004,0
Regional program (marker),UrIs,0.4074358974358974,0
Regional program (marker),SecID,0.6168067226890758,0
Regional program (marker),ICTAAToFoDeve,0.4376068376068376,0
Regional program (marker),OrganiSu,0.020000000000000004,0
Regional program (marker),SecNa,0.020000000000000004,0
Regional program (marker),FCeID,0.6679738562091504,0
Regional program (marker),IRTCPerc,0.05,0
Regional program (marker),Dese,0.31333333333333335,0
Regional program (marker),DivN,0.020000000000000004,0
Regional program (marker),OrgCl,0.020000000000000004,0
Regional program (marker),BilaAMar,0.46666666666666673,0
Regional program (marker),GenEqua,0.6533333333333333,0
Regional program (marker),TraDevel,0.470968142968143,0
Regional program (marker),SecPerc,0.05,0
Regional program (marker),Sta,0.020000000000000004,0
Regional program (marker),ProjNu,0.020000000000000004,0
Regional program (marker),IndIss,0.34545454545454546,0
Regional program (marker),RegProg,0.6783838383838383,1
Regional program (marker),ProBroCouID,0.020000000000000004,0
Regional program (marker),ClChaAdap,0.48659932659932664,0
Regional program (marker),BrID,0.020000000000000004,0
Regional program (marker),SeN,0.020000000000000004,0
Regional program (marker),FuCenN,0.020000000000000004,0
Regional program (marker),SeID,0.020000000000000004,0
Regional program (marker),ChIss,0.2581818181818182,0
Regional program (marker),YouIss,0.2727272727272727,0
Regional program (marker),DisabIss,0.38331002331002334,0
Regional program (marker),KnowlFDeve,0.5398290598290598,0
Regional program (marker),OrgaID,0.020000000000000004,0
Regional program (marker),OrganiN,0.020000000000000004,0
Regional program (marker),OrganiTy,0.020000000000000004,0
Regional program (marker),ContID,0.5634733893557423,0
Regional program (marker),ConN,0.020000000000000004,0
Regional program (marker),CouRegID,0.020000000000000004,0
Regional program (marker),CouReNa,0.020000000000000004,0
Regional program (marker),CounRegPerc,0.05,0
Regional program (marker),AmSp,0.05,0
Project Browser country ID,FiY,0.36000000000000004,0
Project Browser country ID,UrIs,0.020000000000000004,0
Project Browser country ID,SecID,0.020000000000000004,0
Project Browser country ID,ICTAAToFoDeve,0.020000000000000004,0
Project Browser country ID,OrganiSu,0.4065527065527066,0
Project Browser country ID,SecNa,0.5645909645909646,0
Project Browser country ID,FCeID,0.020000000000000004,0
Project Browser country ID,IRTCPerc,0.033333333333333326,0
Project Browser country ID,Dese,0.020000000000000004,0
Project Browser country ID,DivN,0.4953846153846154,0
Project Browser country ID,OrgCl,0.5743589743589743,0
Project Browser country ID,BilaAMar,0.020000000000000004,0
Project Browser country ID,GenEqua,0.020000000000000004,0
Project Browser country ID,TraDevel,0.020000000000000004,0
Project Browser country ID,SecPerc,0.033333333333333326,0
Project Browser country ID,Sta,0.32799999999999996,0
Project Browser country ID,ProjNu,0.5746371275783041,0
Project Browser country ID,IndIss,0.020000000000000004,0
Project Browser country ID,RegProg,0.020000000000000004,0
Project Browser country ID,ProBroCouID,0.7744444444444445,1
Project Browser country ID,ClChaAdap,0.020000000000000004,0
Project Browser country ID,BrID,0.759142300194932,0
Project Browser country ID,SeN,0.48022121669180495,0
Project Browser country ID,FuCenN,0.4732054873231344,0
Project Browser country ID,SeID,0.7235867446393762,0
Project Browser country ID,ChIss,0.020000000000000004,0
Project Browser country ID,YouIss,0.020000000000000004,0
Project Browser country ID,DisabIss,0.020000000000000004,0
Project Browser country ID,KnowlFDeve,0.020000000000000004,0
Project Browser country ID,OrgaID,0.734006734006734,0
Project Browser country ID,OrganiN,0.47680241327300155,0
Project Browser country ID,OrganiTy,0.46353276353276357,0
Project Browser country ID,ContID,0.020000000000000004,0
Project Browser country ID,ConN,0.6444444444444444,0
Project Browser country ID,CouRegID,0.7346031746031747,0
Project Browser country ID,CouReNa,0.5057875457875458,0
Project Browser country ID,CounRegPerc,0.033333333333333326,0
Project Browser country ID,AmSp,0.033333333333333326,0
Climate change adaptation (marker),FiY,0.020000000000000004,0
Climate change adaptation (marker),UrIs,0.43600000000000005,0
Climate change adaptation (marker),SecID,0.5653679653679653,0
Climate change adaptation (marker),ICTAAToFoDeve,0.465974025974026,0
Climate change adaptation (marker),OrganiSu,0.020000000000000004,0
Climate change adaptation (marker),SecNa,0.020000000000000004,0
Climate change adaptation (marker),FCeID,0.6113790970933828,0
Climate change adaptation (marker),IRTCPerc,0.05,0
Climate change adaptation (marker),Dese,0.3479480519480519,0
Climate change adaptation (marker),DivN,0.020000000000000004,0
Climate change adaptation (marker),OrgCl,0.020000000000000004,0
Climate change adaptation (marker),BilaAMar,0.5818181818181818,0
Climate change adaptation (marker),GenEqua,0.5244444444444445,0
Climate change adaptation (marker),TraDevel,0.3922196322196322,0
Climate change adaptation (marker),SecPerc,0.05,0
Climate change adaptation (marker),Sta,0.020000000000000004,0
Climate change adaptation (marker),ProjNu,0.020000000000000004,0
Climate change adaptation (marker),IndIss,0.36501424501424506,0
Climate change adaptation (marker),RegProg,0.451005291005291,0
Climate change adaptation (marker),ProBroCouID,0.020000000000000004,0
Climate change adaptation (marker),ClChaAdap,0.6326035868893012,1
Climate change adaptation (marker),BrID,0.020000000000000004,0
Climate change adaptation (marker),SeN,0.020000000000000004,0
Climate change adaptation (marker),FuCenN,0.020000000000000004,0
Climate change adaptation (marker),SeID,0.020000000000000004,0
Climate change adaptation (marker),ChIss,0.41014245014245015,0
Climate change adaptation (marker),YouIss,0.2886153846153846,0
Climate change adaptation (marker),DisabIss,0.3995959595959596,0
Climate change adaptation (marker),KnowlFDeve,0.5456277056277057,0
Climate change adaptation (marker),OrgaID,0.020000000000000004,0
Climate change adaptation (marker),OrganiN,0.020000000000000004,0
Climate change adaptation (marker),OrganiTy,0.020000000000000004,0
Climate change adaptation (marker),ContID,0.5303896103896104,0
Climate change adaptation (marker),ConN,0.020000000000000004,0
Climate change adaptation (marker),CouRegID,0.020000000000000004,0
Climate change adaptation (marker),CouReNa,0.020000000000000004,0
Climate change adaptation (marker),CounRegPerc,0.05,0
Climate change adaptation (marker),AmSp,0.05,0
Branch ID,FiY,0.4666666666666667,0
Branch ID,UrIs,0.020000000000000004,0
Branch ID,SecID,0.020000000000000004,0
Branch ID,ICTAAToFoDeve,0.020000000000000004,0
Branch ID,OrganiSu,0.45,0
Branch ID,SecNa,0.6178137651821862,0
Branch ID,FCeID,0.020000000000000004,0
Branch ID,IRTCPerc,0.033333333333333326,0
Branch ID,Dese,0.020000000000000004,0
Branch ID,DivN,0.49725490196078437,0
Branch ID,OrgCl,0.47741147741147744,0
Branch ID,BilaAMar,0.020000000000000004,0
Branch ID,GenEqua,0.020000000000000004,0
Branch ID,TraDevel,0.020000000000000004,0
Branch ID,SecPerc,0.033333333333333326,0
Branch ID,Sta,0.31851851851851853,0
Branch ID,ProjNu,0.4311764705882353,0
Branch ID,IndIss,0.020000000000000004,0
Branch ID,RegProg,0.020000000000000004,0
Branch ID,ProBroCouID,0.7037037037037037,0
Branch ID,ClChaAdap,0.020000000000000004,0
Branch ID,BrID,0.7882352941176471,1
Branch ID,SeN,0.47450980392156866,0
Branch ID,FuCenN,0.40183006535947713,0
Branch ID,SeID,0.7333333333333334,0
Branch ID,ChIss,0.020000000000000004,0
Branch ID,YouIss,0.020000000000000004,0
Branch ID,DisabIss,0.020000000000000004,0
Branch ID,KnowlFDeve,0.020000000000000004,0
Branch ID,OrgaID,0.76,0
Branch ID,OrganiN,0.5411764705882354,0
Branch ID,OrganiTy,0.45,0
Branch ID,ContID,0.020000000000000004,0
Branch ID,ConN,0.6261437908496732,0
Branch ID,CouRegID,0.6444444444444445,0
Branch ID,CouReNa,0.4175213675213676,0
Branch ID,CounRegPerc,0.033333333333333326,0
Branch ID,AmSp,0.033333333333333326,0
Section name,FiY,0.31851851851851853,0
Section name,UrIs,0.020000000000000004,0
Section name,SecID,0.020000000000000004,0
Section name,ICTAAToFoDeve,0.020000000000000004,0
Section name,OrganiSu,0.40752136752136753,0
Section name,SecNa,0.7233082706766918,0
Section name,FCeID,0.020000000000000004,0
Section name,IRTCPerc,0.033333333333333326,0
Section name,Dese,0.020000000000000004,0
Section name,DivN,0.6297435897435897,0
Section name,OrgCl,0.6130769230769231,0
Section name,BilaAMar,0.020000000000000004,0
Section name,GenEqua,0.020000000000000004,0
Section name,TraDevel,0.020000000000000004,0
Section name,SecPerc,0.033333333333333326,0
Section name,Sta,0.4895238095238096,0
Section name,ProjNu,0.46695187165775404,0
Section name,IndIss,0.020000000000000004,0
Section name,RegProg,0.020000000000000004,0
Section name,ProBroCouID,0.5968627450980393,0
Section name,ClChaAdap,0.020000000000000004,0
Section name,BrID,0.681447963800905,0
Section name,SeN,0.7128205128205127,1
Section name,FuCenN,0.5757948717948718,0
Section name,SeID,0.681447963800905,0
Section name,ChIss,0.020000000000000004,0
Section name,YouIss,0.020000000000000004,0
Section name,DisabIss,0.020000000000000004,0
Section name,KnowlFDeve,0.020000000000000004,0
Section name,OrgaID,0.5602941176470588,0
Section name,OrganiN,0.6512820512820513,0
Section name,OrganiTy,0.40752136752136753,0
Section name,ContID,0.020000000000000004,0
Section name,ConN,0.7097435897435898,0
Section name,CouRegID,0.5579495798319327,0
Section name,CouReNa,0.5885714285714285,0
Section name,CounRegPerc,0.033333333333333326,0
Section name,AmSp,0.033333333333333326,0
Fund centre name,FiY,0.33333333333333337,0
Fund centre name,UrIs,0.020000000000000004,0
Fund centre name,SecID,0.020000000000000004,0
Fund centre name,ICTAAToFoDeve,0.020000000000000004,0
Fund centre name,OrganiSu,0.39733333333333337,0
Fund centre name,SecNa,0.6152781954887219,0
Fund centre name,FCeID,0.020000000000000004,0
Fund centre name,IRTCPerc,0.033333333333333326,0
Fund centre name,Dese,0.020000000000000004,0
Fund centre name,DivN,0.5804835164835165,0
Fund centre name,OrgCl,0.5650500610500611,0
Fund centre name,BilaAMar,0.020000000000000004,0
Fund centre name,GenEqua,0.020000000000000004,0
Fund centre name,TraDevel,0.020000000000000004,0
Fund centre name,SecPerc,0.033333333333333326,0
Fund centre name,Sta,0.35873015873015873,0
Fund centre name,ProjNu,0.42525490196078436,0
Fund centre name,IndIss,0.020000000000000004,0
Fund centre name,RegProg,0.020000000000000004,0
Fund centre name,ProBroCouID,0.5622995865012672,0
Fund centre name,ClChaAdap,0.020000000000000004,0
Fund centre name,BrID,0.660452488687783,0
Fund centre name,SeN,0.6492307692307693,0
Fund centre name,FuCenN,0.7196581196581198,1
Fund centre name,SeID,0.6356846868301977,0
Fund centre name,ChIss,0.020000000000000004,0
Fund centre name,YouIss,0.020000000000000004,0
Fund centre name,DisabIss,0.020000000000000004,0
Fund centre name,KnowlFDeve,0.020000000000000004,0
Fund centre name,OrgaID,0.5282352941176471,0
Fund centre name,OrganiN,0.5667692307692307,0
Fund centre name,OrganiTy,0.376,0
Fund centre name,ContID,0.020000000000000004,0
Fund centre name,ConN,0.6378803418803419,0
Fund centre name,CouRegID,0.5423124805477747,0
Fund centre name,CouReNa,0.5365714285714286,0
Fund centre name,CounRegPerc,0.033333333333333326,0
Fund centre name,AmSp,0.033333333333333326,0
Section ID,FiY,0.5259259259259259,0
Section ID,UrIs,0.020000000000000004,0
Section ID,SecID,0.020000000000000004,0
Section ID,ICTAAToFoDeve,0.020000000000000004,0
Section ID,OrganiSu,0.4175213675213676,0
Section ID,SecNa,0.6229419703103913,0
Section ID,FCeID,0.020000000000000004,0
Section ID,IRTCPerc,0.033333333333333326,0
Section ID,Dese,0.020000000000000004,0
Section ID,DivN,0.6266666666666667,0
Section ID,OrgCl,0.5515384615384615,0
Section ID,BilaAMar,0.020000000000000004,0
Section ID,GenEqua,0.020000000000000004,0
Section ID,TraDevel,0.020000000000000004,0
Section ID,SecPerc,0.033333333333333326,0
Section ID,Sta,0.41333333333333333,0
Section ID,ProjNu,0.46695187165775404,0
Section ID,IndIss,0.020000000000000004,0
Section ID,RegProg,0.020000000000000004,0
Section ID,ProBroCouID,0.7139869281045752,0
Section ID,ClChaAdap,0.020000000000000004,0
Section ID,BrID,0.8243137254901962,0
Section ID,SeN,0.609982174688057,0
Section ID,FuCenN,0.5338039215686274,0
Section ID,SeID,0.7903743315508023,1
Section ID,ChIss,0.020000000000000004,0
Section ID,YouIss,0.020000000000000004,0
Section ID,DisabIss,0.020000000000000004,0
Section ID,KnowlFDeve,0.020000000000000004,0
Section ID,OrgaID,0.7540106951871659,0
Section ID,OrganiN,0.598793363499246,0
Section ID,OrganiTy,0.4175213675213676,0
Section ID,ContID,0.020000000000000004,0
Section ID,ConN,0.7333333333333334,0
Section ID,CouRegID,0.7101176470588235,0
Section ID,CouReNa,0.4766666666666667,0
Section ID,CounRegPerc,0.033333333333333326,0
Section ID,AmSp,0.033333333333333326,0
Maximum CIDA contribution (project-level),FiY,0.033333333333333326,0
Maximum CIDA contribution (project-level),UrIs,0.05,0
Maximum CIDA contribution (project-level),SecID,0.05,0
Maximum CIDA contribution (project-level),ICTAAToFoDeve,0.05,0
Maximum CIDA contribution (project-level),OrganiSu,0.033333333333333326,0
Maximum CIDA contribution (project-level),SecNa,0.033333333333333326,0
Maximum CIDA contribution (project-level),FCeID,0.05,0
Maximum CIDA contribution (project-level),IRTCPerc,0.4183600713012478,0
Maximum CIDA contribution (project-level),Dese,0.05,0
Maximum CIDA contribution (project-level),DivN,0.033333333333333326,0
Maximum CIDA contribution (project-level),OrgCl,0.033333333333333326,0
Maximum CIDA contribution (project-level),BilaAMar,0.05,0
Maximum CIDA contribution (project-level),GenEqua,0.05,0
Maximum CIDA contribution (project-level),TraDevel,0.05,0
Maximum CIDA contribution (project-level),SecPerc,0.5348102877514642,0
Maximum CIDA contribution (project-level),Sta,0.033333333333333326,0
Maximum CIDA contribution (project-level),ProjNu,0.033333333333333326,0
Maximum CIDA contribution (project-level),IndIss,0.05,0
Maximum CIDA contribution (project-level),RegProg,0.05,0
Maximum CIDA contribution (project-level),ProBroCouID,0.033333333333333326,0
Maximum CIDA contribution (project-level),ClChaAdap,0.05,0
Maximum CIDA contribution (project-level),BrID,0.033333333333333326,0
Maximum CIDA contribution (project-level),SeN,0.033333333333333326,0
Maximum CIDA contribution (project-level),FuCenN,0.033333333333333326,0
Maximum CIDA contribution (project-level),SeID,0.033333333333333326,0
Maximum CIDA contribution (project-level),ChIss,0.05,0
Maximum CIDA contribution (project-level),YouIss,0.05,0
Maximum CIDA contribution (project-level),DisabIss,0.05,0
Maximum CIDA contribution (project-level),KnowlFDeve,0.05,0
Maximum CIDA contribution (project-level),OrgaID,0.033333333333333326,0
Maximum CIDA contribution (project-level),OrganiN,0.033333333333333326,0
Maximum CIDA contribution (project-level),OrganiTy,0.033333333333333326,0
Maximum CIDA contribution (project-level),ContID,0.05,0
Maximum CIDA contribution (project-level),ConN,0.033333333333333326,0
Maximum CIDA contribution (project-level),CouRegID,0.033333333333333326,0
Maximum CIDA contribution (project-level),CouReNa,0.033333333333333326,0
Maximum CIDA contribution (project-level),CounRegPerc,0.47288006111535524,0
Maximum CIDA contribution (project-level),AmSp,0.24266666666666667,0
Branch name,FiY,0.2,0
Branch name,UrIs,0.020000000000000004,0
Branch name,SecID,0.020000000000000004,0
Branch name,ICTAAToFoDeve,0.020000000000000004,0
Branch name,OrganiSu,0.44,0
Branch name,SecNa,0.7233082706766918,0
Branch name,FCeID,0.020000000000000004,0
Branch name,IRTCPerc,0.033333333333333326,0
Branch name,Dese,0.020000000000000004,0
Branch name,DivN,0.5128205128205128,0
Branch name,OrgCl,0.5763125763125763,0
Branch name,BilaAMar,0.020000000000000004,0
Branch name,GenEqua,0.020000000000000004,0
Branch name,TraDevel,0.020000000000000004,0
Branch name,SecPerc,0.033333333333333326,0
Branch name,Sta,0.41164021164021164,0
Branch name,ProjNu,0.4311764705882353,0
Branch name,IndIss,0.020000000000000004,0
Branch name,RegProg,0.020000000000000004,0
Branch name,ProBroCouID,0.5581481481481481,0
Branch name,ClChaAdap,0.020000000000000004,0
Branch name,BrID,0.6152714932126697,0
Branch name,SeN,0.635897435897436,0
Branch name,FuCenN,0.495970695970696,0
Branch name,SeID,0.5878205128205128,0
Branch name,ChIss,0.020000000000000004,0
Branch name,YouIss,0.020000000000000004,0
Branch name,DisabIss,0.020000000000000004,0
Branch name,KnowlFDeve,0.020000000000000004,0
Branch name,OrgaID,0.51,0
Branch name,OrganiN,0.6461538461538462,0
Branch name,OrganiTy,0.44,0
Branch name,ContID,0.020000000000000004,0
Branch name,ConN,0.655042735042735,0
Branch name,CouRegID,0.4546031746031746,0
Branch name,CouReNa,0.5345543345543345,0
Branch name,CounRegPerc,0.033333333333333326,0
Branch name,AmSp,0.033333333333333326,0
Division ID,FiY,0.52,0
Division ID,UrIs,0.020000000000000004,0
Division ID,SecID,0.020000000000000004,0
Division ID,ICTAAToFoDeve,0.020000000000000004,0
Division ID,OrganiSu,0.4042857142857143,0
Division ID,SecNa,0.6341880341880343,0
Division ID,FCeID,0.020000000000000004,0
Division ID,IRTCPerc,0.033333333333333326,0
Division ID,Dese,0.020000000000000004,0
Division ID,DivN,0.5781818181818181,0
Division ID,OrgCl,0.5379020979020979,0
Division ID,BilaAMar,0.020000000000000004,0
Division ID,GenEqua,0.020000000000000004,0
Division ID,TraDevel,0.020000000000000004,0
Division ID,SecPerc,0.033333333333333326,0
Division ID,Sta,0.29696969696969694,0
Division ID,ProjNu,0.4316526610644258,0
Division ID,IndIss,0.020000000000000004,0
Division ID,RegProg,0.020000000000000004,0
Division ID,ProBroCouID,0.6707070707070707,0
Division ID,ClChaAdap,0.020000000000000004,0
Division ID,BrID,0.8400000000000001,0
Division ID,SeN,0.49725490196078437,0
Division ID,FuCenN,0.41356149732620323,0
Division ID,SeID,0.7666666666666666,0
Division ID,ChIss,0.020000000000000004,0
Division ID,YouIss,0.020000000000000004,0
Division ID,DisabIss,0.020000000000000004,0
Division ID,KnowlFDeve,0.020000000000000004,0
Division ID,OrgaID,0.7333333333333334,0
Division ID,OrganiN,0.4877310924369748,0
Division ID,OrganiTy,0.3642857142857143,0
Division ID,ContID,0.020000000000000004,0
Division ID,ConN,0.6510144927536232,0
Division ID,CouRegID,0.6290909090909091,0
Division ID,CouReNa,0.40944055944055946,0
Division ID,CounRegPerc,0.033333333333333326,0
Division ID,AmSp,0.033333333333333326,0
Untied amount(Project-level budget),FiY,0.033333333333333326,0
Untied amount(Project-level budget),UrIs,0.05,0
Untied amount(Project-level budget),SecID,0.05,0
Untied amount(Project-level budget),ICTAAToFoDeve,0.05,0
Untied amount(Project-level budget),OrganiSu,0.033333333333333326,0
Untied amount(Project-level budget),SecNa,0.033333333333333326,0
Untied amount(Project-level budget),FCeID,0.05,0
Untied amount(Project-level budget),IRTCPerc,0.4054901960784314,0
Untied amount(Project-level budget),Dese,0.05,0
Untied amount(Project-level budget),DivN,0.033333333333333326,0
Untied amount(Project-level budget),OrgCl,0.033333333333333326,0
Untied amount(Project-level budget),BilaAMar,0.05,0
Untied amount(Project-level budget),GenEqua,0.05,0
Untied amount(Project-level budget),TraDevel,0.05,0
Untied amount(Project-level budget),SecPerc,0.6179271708683474,0
Untied amount(Project-level budget),Sta,0.033333333333333326,0
Untied amount(Project-level budget),ProjNu,0.033333333333333326,0
Untied amount(Project-level budget),IndIss,0.05,0
Untied amount(Project-level budget),RegProg,0.05,0
Untied amount(Project-level budget),ProBroCouID,0.033333333333333326,0
Untied amount(Project-level budget),ClChaAdap,0.05,0
Untied amount(Project-level budget),BrID,0.033333333333333326,0
Untied amount(Project-level budget),SeN,0.033333333333333326,0
Untied amount(Project-level budget),FuCenN,0.033333333333333326,0
Untied amount(Project-level budget),SeID,0.033333333333333326,0
Untied amount(Project-level budget),ChIss,0.05,0
Untied amount(Project-level budget),YouIss,0.05,0
Untied amount(Project-level budget),DisabIss,0.05,0
Untied amount(Project-level budget),KnowlFDeve,0.05,0
Untied amount(Project-level budget),OrgaID,0.033333333333333326,0
Untied amount(Project-level budget),OrganiN,0.033333333333333326,0
Untied amount(Project-level budget),OrganiTy,0.033333333333333326,0
Untied amount(Project-level budget),ContID,0.05,0
Untied amount(Project-level budget),ConN,0.033333333333333326,0
Untied amount(Project-level budget),CouRegID,0.033333333333333326,0
Untied amount(Project-level budget),CouReNa,0.033333333333333326,0
Untied amount(Project-level budget),CounRegPerc,0.5174976657329599,0
Untied amount(Project-level budget),AmSp,0.24266666666666667,0
FSTC percent,FiY,0.033333333333333326,0
FSTC percent,UrIs,0.05,0
FSTC percent,SecID,0.05,0
FSTC percent,ICTAAToFoDeve,0.05,0
FSTC percent,OrganiSu,0.033333333333333326,0
FSTC percent,SecNa,0.033333333333333326,0
FSTC percent,FCeID,0.05,0
FSTC percent,IRTCPerc,0.6909090909090909,0
FSTC percent,Dese,0.05,0
FSTC percent,DivN,0.033333333333333326,0
FSTC percent,OrgCl,0.033333333333333326,0
FSTC percent,BilaAMar,0.05,0
FSTC percent,GenEqua,0.05,0
FSTC percent,TraDevel,0.05,0
FSTC percent,SecPerc,0.7194805194805196,0
FSTC percent,Sta,0.033333333333333326,0
FSTC percent,ProjNu,0.033333333333333326,0
FSTC percent,IndIss,0.05,0
FSTC percent,RegProg,0.05,0
FSTC percent,ProBroCouID,0.033333333333333326,0
FSTC percent,ClChaAdap,0.05,0
FSTC percent,BrID,0.033333333333333326,0
FSTC percent,SeN,0.033333333333333326,0
FSTC percent,FuCenN,0.033333333333333326,0
FSTC percent,SeID,0.033333333333333326,0
FSTC percent,ChIss,0.05,0
FSTC percent,YouIss,0.05,0
FSTC percent,DisabIss,0.05,0
FSTC percent,KnowlFDeve,0.05,0
FSTC percent,OrgaID,0.033333333333333326,0
FSTC percent,OrganiN,0.033333333333333326,0
FSTC percent,OrganiTy,0.033333333333333326,0
FSTC percent,ContID,0.05,0
FSTC percent,ConN,0.033333333333333326,0
FSTC percent,CouRegID,0.033333333333333326,0
FSTC percent,CouReNa,0.033333333333333326,0
FSTC percent,CounRegPerc,0.5949090909090909,0
FSTC percent,AmSp,0.4370370370370371,0
CFLI (marker),FiY,0.020000000000000004,0
CFLI (marker),UrIs,0.4,0
CFLI (marker),SecID,0.5108225108225108,0
CFLI (marker),ICTAAToFoDeve,0.4488888888888889,0
CFLI (marker),OrganiSu,0.020000000000000004,0
CFLI (marker),SecNa,0.020000000000000004,0
CFLI (marker),FCeID,0.5992380952380953,0
CFLI (marker),IRTCPerc,0.05,0
CFLI (marker),Dese,0.30666666666666664,0
CFLI (marker),DivN,0.020000000000000004,0
CFLI (marker),OrgCl,0.020000000000000004,0
CFLI (marker),BilaAMar,0.43333333333333335,0
CFLI (marker),GenEqua,0.44,0
CFLI (marker),TraDevel,0.37777777777777777,0
CFLI (marker),SecPerc,0.05,0
CFLI (marker),Sta,0.020000000000000004,0
CFLI (marker),ProjNu,0.020000000000000004,0
CFLI (marker),IndIss,0.37142857142857144,0
CFLI (marker),RegProg,0.4177777777777778,0
CFLI (marker),ProBroCouID,0.020000000000000004,0
CFLI (marker),ClChaAdap,0.5492294372294373,0
CFLI (marker),BrID,0.020000000000000004,0
CFLI (marker),SeN,0.020000000000000004,0
CFLI (marker),FuCenN,0.020000000000000004,0
CFLI (marker),SeID,0.020000000000000004,0
CFLI (marker),ChIss,0.39047619047619053,0
CFLI (marker),YouIss,0.3523809523809524,0
CFLI (marker),DisabIss,0.3950937950937951,0
CFLI (marker),KnowlFDeve,0.544888888888889,0
CFLI (marker),OrgaID,0.020000000000000004,0
CFLI (marker),OrganiN,0.020000000000000004,0
CFLI (marker),OrganiTy,0.020000000000000004,0
CFLI (marker),ContID,0.48809523809523814,0
CFLI (marker),ConN,0.020000000000000004,0
CFLI (marker),CouRegID,0.020000000000000004,0
CFLI (marker),CouReNa,0.020000000000000004,0
CFLI (marker),CounRegPerc,0.05,0
CFLI (marker),AmSp,0.05,0
CIDA business delivery model (old),FiY,0.3422222222222222,0
CIDA business delivery model (old),UrIs,0.020000000000000004,0
CIDA business delivery model (old),SecID,0.020000000000000004,0
CIDA business delivery model (old),ICTAAToFoDeve,0.020000000000000004,0
CIDA business delivery model (old),OrganiSu,0.35647083075654507,0
CIDA business delivery model (old),SecNa,0.5706442577030812,0
CIDA business delivery model (old),FCeID,0.020000000000000004,0
CIDA business delivery model (old),IRTCPerc,0.033333333333333326,0
CIDA business delivery model (old),Dese,0.020000000000000004,0
CIDA business delivery model (old),DivN,0.5316759431045146,0
CIDA business delivery model (old),OrgCl,0.5733333333333334,0
CIDA business delivery model (old),BilaAMar,0.020000000000000004,0
CIDA business delivery model (old),GenEqua,0.020000000000000004,0
CIDA business delivery model (old),TraDevel,0.020000000000000004,0
CIDA business delivery model (old),SecPerc,0.033333333333333326,0
CIDA business delivery model (old),Sta,0.30043290043290044,0
CIDA business delivery model (old),ProjNu,0.42448979591836733,0
CIDA business delivery model (old),IndIss,0.020000000000000004,0
CIDA business delivery model (old),RegProg,0.020000000000000004,0
CIDA business delivery model (old),ProBroCouID,0.6233918128654972,0
CIDA business delivery model (old),ClChaAdap,0.020000000000000004,0
CIDA business delivery model (old),BrID,0.6447818847818848,0
CIDA business delivery model (old),SeN,0.4614223871366729,0
CIDA business delivery model (old),FuCenN,0.47255411255411256,0
CIDA business delivery model (old),SeID,0.5964835164835165,0
CIDA business delivery model (old),ChIss,0.020000000000000004,0
CIDA business delivery model (old),YouIss,0.020000000000000004,0
CIDA business delivery model (old),DisabIss,0.020000000000000004,0
CIDA business delivery model (old),KnowlFDeve,0.020000000000000004,0
CIDA business delivery model (old),OrgaID,0.5885295656724228,0
CIDA business delivery model (old),OrganiN,0.471581117295403,0
CIDA business delivery model (old),OrganiTy,0.35647083075654507,0
CIDA business delivery model (old),ContID,0.020000000000000004,0
CIDA business delivery model (old),ConN,0.6188089270796038,0
CIDA business delivery model (old),CouRegID,0.5744871794871795,0
CIDA business delivery model (old),CouReNa,0.4578754578754579,0
CIDA business delivery model (old),CounRegPerc,0.033333333333333326,0
CIDA business delivery model (old),AmSp,0.033333333333333326,0
Programming process (new),FiY,0.26153846153846155,0
Programming process (new),UrIs,0.020000000000000004,0
Programming process (new),SecID,0.020000000000000004,0
Programming process (new),ICTAAToFoDeve,0.020000000000000004,0
Programming process (new),OrganiSu,0.45725490196078433,0
Programming process (new),SecNa,0.5413333333333333,0
Programming process (new),FCeID,0.020000000000000004,0
Programming process (new),IRTCPerc,0.033333333333333326,0
Programming process (new),Dese,0.020000000000000004,0
Programming process (new),DivN,0.4507936507936508,0
Programming process (new),OrgCl,0.5682539682539682,0
Programming process (new),BilaAMar,0.020000000000000004,0
Programming process (new),GenEqua,0.020000000000000004,0
Programming process (new),TraDevel,0.020000000000000004,0
Programming process (new),SecPerc,0.033333333333333326,0
Programming process (new),Sta,0.3085714285714286,0
Programming process (new),ProjNu,0.5185454545454545,0
Programming process (new),IndIss,0.020000000000000004,0
Programming process (new),RegProg,0.020000000000000004,0
Programming process (new),ProBroCouID,0.5660504201680673,0
Programming process (new),ClChaAdap,0.020000000000000004,0
