source,target,conf,realConf
Fiscal year,FisY,0.5555555555555556,1
Fiscal year,SePer,0.033333333333333326,0
Fiscal year,CFLI,0.020000000000000004,0
Fiscal year,Deser,0.020000000000000004,0
Fiscal year,SeNa,0.4246642246642247,0
Fiscal year,KnowFDeve,0.020000000000000004,0
Fiscal year,CIDABuDeliMo,0.5308424908424909,0
Fiscal year,ChIs,0.020000000000000004,0
Fiscal year,UntAmoProBu,0.033333333333333326,0
Fiscal year,ProjNu,0.39,0
Fiscal year,ClChAdap,0.020000000000000004,0
Fiscal year,FSTCPer,0.033333333333333326,0
Fiscal year,AmoSp,0.033333333333333326,0
Fiscal year,IRTCPer,0.033333333333333326,0
Fiscal year,PBAT,0.38666666666666666,0
Fiscal year,UrbIss,0.020000000000000004,0
Fiscal year,YouIs,0.020000000000000004,0
Fiscal year,IndigIs,0.020000000000000004,0
Fiscal year,DisIs,0.020000000000000004,0
Fiscal year,ICTAAToFDevelo,0.020000000000000004,0
Fiscal year,GenEqua,0.020000000000000004,0
Fiscal year,OrganID,0.514920634920635,0
Fiscal year,OrgaNa,0.4042857142857143,0
Fiscal year,OrganiTy,0.4066666666666667,0
Fiscal year,OrganiCl,0.5581818181818181,0
Fiscal year,OrganS,0.5437037037037037,0
Fiscal year,ContID,0.020000000000000004,0
Fiscal year,ContNa,0.3942857142857143,0
Fiscal year,ProjBroCounID,0.40095238095238095,0
Fiscal year,CoRegID,0.41485714285714287,0
Fiscal year,CoRegN,0.505974025974026,0
Fiscal year,CounRePe,0.033333333333333326,0
Fiscal year,SecID,0.020000000000000004,0
Sector percent,FisY,0.033333333333333326,0
Sector percent,SePer,0.6088888888888888,1
Sector percent,CFLI,0.05,0
Sector percent,Deser,0.05,0
Sector percent,SeNa,0.033333333333333326,0
Sector percent,KnowFDeve,0.05,0
Sector percent,CIDABuDeliMo,0.033333333333333326,0
Sector percent,ChIs,0.05,0
Sector percent,UntAmoProBu,0.442962962962963,0
Sector percent,ProjNu,0.033333333333333326,0
Sector percent,ClChAdap,0.05,0
Sector percent,FSTCPer,0.6088888888888888,0
Sector percent,AmoSp,0.3888888888888889,0
Sector percent,IRTCPer,0.6016161616161617,0
Sector percent,PBAT,0.033333333333333326,0
Sector percent,UrbIss,0.05,0
Sector percent,YouIs,0.05,0
Sector percent,IndigIs,0.05,0
Sector percent,DisIs,0.05,0
Sector percent,ICTAAToFDevelo,0.05,0
Sector percent,GenEqua,0.05,0
Sector percent,OrganID,0.033333333333333326,0
Sector percent,OrgaNa,0.033333333333333326,0
Sector percent,OrganiTy,0.033333333333333326,0
Sector percent,OrganiCl,0.033333333333333326,0
Sector percent,OrganS,0.033333333333333326,0
Sector percent,ContID,0.05,0
Sector percent,ContNa,0.033333333333333326,0
Sector percent,ProjBroCounID,0.033333333333333326,0
Sector percent,CoRegID,0.033333333333333326,0
Sector percent,CoRegN,0.033333333333333326,0
Sector percent,CounRePe,0.4898701298701299,0
Sector percent,SecID,0.05,0
CFLI (marker),FisY,0.020000000000000004,0
CFLI (marker),SePer,0.05,0
CFLI (marker),CFLI,0.7333333333333334,1
CFLI (marker),Deser,0.393939393939394,0
CFLI (marker),SeNa,0.020000000000000004,0
CFLI (marker),KnowFDeve,0.555047619047619,0
CFLI (marker),CIDABuDeliMo,0.020000000000000004,0
CFLI (marker),ChIs,0.3777777777777778,0
CFLI (marker),UntAmoProBu,0.05,0
CFLI (marker),ProjNu,0.020000000000000004,0
CFLI (marker),ClChAdap,0.5568484848484849,0
CFLI (marker),FSTCPer,0.05,0
CFLI (marker),AmoSp,0.05,0
CFLI (marker),IRTCPer,0.05,0
CFLI (marker),PBAT,0.020000000000000004,0
CFLI (marker),UrbIss,0.4031746031746032,0
CFLI (marker),YouIs,0.2,0
CFLI (marker),IndigIs,0.31851851851851853,0
CFLI (marker),DisIs,0.41904761904761906,0
CFLI (marker),ICTAAToFDevelo,0.544888888888889,0
CFLI (marker),GenEqua,0.44,0
CFLI (marker),OrganID,0.020000000000000004,0
CFLI (marker),OrgaNa,0.020000000000000004,0
CFLI (marker),OrganiTy,0.020000000000000004,0
CFLI (marker),OrganiCl,0.020000000000000004,0
CFLI (marker),OrganS,0.020000000000000004,0
CFLI (marker),ContID,0.48809523809523814,0
CFLI (marker),ContNa,0.020000000000000004,0
CFLI (marker),ProjBroCounID,0.020000000000000004,0
CFLI (marker),CoRegID,0.020000000000000004,0
CFLI (marker),CoRegN,0.020000000000000004,0
CFLI (marker),CounRePe,0.05,0
CFLI (marker),SecID,0.5108225108225108,0
Desertification (marker),FisY,0.020000000000000004,0
Desertification (marker),SePer,0.05,0
Desertification (marker),CFLI,0.312280701754386,0
Desertification (marker),Deser,0.5636363636363637,1
Desertification (marker),SeNa,0.020000000000000004,0
Desertification (marker),KnowFDeve,0.5629072681704261,0
Desertification (marker),CIDABuDeliMo,0.020000000000000004,0
Desertification (marker),ChIs,0.2627450980392157,0
Desertification (marker),UntAmoProBu,0.05,0
Desertification (marker),ProjNu,0.020000000000000004,0
Desertification (marker),ClChAdap,0.42220470963505025,0
Desertification (marker),FSTCPer,0.05,0
Desertification (marker),AmoSp,0.05,0
Desertification (marker),IRTCPer,0.05,0
Desertification (marker),PBAT,0.020000000000000004,0
Desertification (marker),UrbIss,0.33333333333333337,0
Desertification (marker),YouIs,0.2,0
Desertification (marker),IndigIs,0.30666666666666664,0
Desertification (marker),DisIs,0.3666666666666667,0
Desertification (marker),ICTAAToFDevelo,0.5832380952380953,0
Desertification (marker),GenEqua,0.4842105263157895,0
Desertification (marker),OrganID,0.020000000000000004,0
Desertification (marker),OrgaNa,0.020000000000000004,0
Desertification (marker),OrganiTy,0.020000000000000004,0
Desertification (marker),OrganiCl,0.020000000000000004,0
Desertification (marker),OrganS,0.020000000000000004,0
Desertification (marker),ContID,0.4977443609022556,0
Desertification (marker),ContNa,0.020000000000000004,0
Desertification (marker),ProjBroCounID,0.020000000000000004,0
Desertification (marker),CoRegID,0.020000000000000004,0
Desertification (marker),CoRegN,0.020000000000000004,0
Desertification (marker),CounRePe,0.05,0
Desertification (marker),SecID,0.4941558441558442,0
Sector name,FisY,0.31851851851851853,0
Sector name,SePer,0.033333333333333326,0
Sector name,CFLI,0.020000000000000004,0
Sector name,Deser,0.020000000000000004,0
Sector name,SeNa,0.6271062271062271,1
Sector name,KnowFDeve,0.020000000000000004,0
Sector name,CIDABuDeliMo,0.5232804232804233,0
Sector name,ChIs,0.020000000000000004,0
Sector name,UntAmoProBu,0.033333333333333326,0
Sector name,ProjNu,0.43831932773109245,0
Sector name,ClChAdap,0.020000000000000004,0
Sector name,FSTCPer,0.033333333333333326,0
Sector name,AmoSp,0.033333333333333326,0
Sector name,IRTCPer,0.033333333333333326,0
Sector name,PBAT,0.38666666666666666,0
Sector name,UrbIss,0.020000000000000004,0
Sector name,YouIs,0.020000000000000004,0
Sector name,IndigIs,0.020000000000000004,0
Sector name,DisIs,0.020000000000000004,0
Sector name,ICTAAToFDevelo,0.020000000000000004,0
Sector name,GenEqua,0.020000000000000004,0
Sector name,OrganID,0.6799999999999999,0
Sector name,OrgaNa,0.5885714285714285,0
Sector name,OrganiTy,0.42333333333333334,0
Sector name,OrganiCl,0.6564102564102564,0
Sector name,OrganS,0.6918518518518519,0
Sector name,ContID,0.020000000000000004,0
Sector name,ContNa,0.5885714285714285,0
Sector name,ProjBroCounID,0.5077777777777779,0
Sector name,CoRegID,0.6255973266499583,0
Sector name,CoRegN,0.676390977443609,0
Sector name,CounRePe,0.033333333333333326,0
Sector name,SecID,0.020000000000000004,0
Knowledge for development (marker),FisY,0.020000000000000004,0
Knowledge for development (marker),SePer,0.05,0
Knowledge for development (marker),CFLI,0.2882051282051282,0
Knowledge for development (marker),Deser,0.4798701298701299,0
Knowledge for development (marker),SeNa,0.020000000000000004,0
Knowledge for development (marker),KnowFDeve,0.6977777777777778,1
Knowledge for development (marker),CIDABuDeliMo,0.020000000000000004,0
Knowledge for development (marker),ChIs,0.2,0
Knowledge for development (marker),UntAmoProBu,0.05,0
Knowledge for development (marker),ProjNu,0.020000000000000004,0
Knowledge for development (marker),ClChAdap,0.4558922558922559,0
Knowledge for development (marker),FSTCPer,0.05,0
Knowledge for development (marker),AmoSp,0.05,0
Knowledge for development (marker),IRTCPer,0.05,0
Knowledge for development (marker),PBAT,0.020000000000000004,0
Knowledge for development (marker),UrbIss,0.27111111111111114,0
Knowledge for development (marker),YouIs,0.3777777777777778,0
Knowledge for development (marker),IndigIs,0.37460317460317466,0
Knowledge for development (marker),DisIs,0.5103641456582633,0
Knowledge for development (marker),ICTAAToFDevelo,0.6351242270196519,0
Knowledge for development (marker),GenEqua,0.5298461538461539,0
Knowledge for development (marker),OrganID,0.020000000000000004,0
Knowledge for development (marker),OrgaNa,0.020000000000000004,0
Knowledge for development (marker),OrganiTy,0.020000000000000004,0
Knowledge for development (marker),OrganiCl,0.020000000000000004,0
Knowledge for development (marker),OrganS,0.020000000000000004,0
Knowledge for development (marker),ContID,0.6651204481792719,0
Knowledge for development (marker),ContNa,0.020000000000000004,0
Knowledge for development (marker),ProjBroCounID,0.020000000000000004,0
Knowledge for development (marker),CoRegID,0.020000000000000004,0
Knowledge for development (marker),CoRegN,0.020000000000000004,0
Knowledge for development (marker),CounRePe,0.05,0
Knowledge for development (marker),SecID,0.6722315592903829,0
CIDA business delivery model (old),FisY,0.35930735930735935,0
CIDA business delivery model (old),SePer,0.033333333333333326,0
CIDA business delivery model (old),CFLI,0.020000000000000004,0
CIDA business delivery model (old),Deser,0.020000000000000004,0
CIDA business delivery model (old),SeNa,0.46373626373626375,0
CIDA business delivery model (old),KnowFDeve,0.020000000000000004,0
CIDA business delivery model (old),CIDABuDeliMo,0.6290658269605638,1
CIDA business delivery model (old),ChIs,0.020000000000000004,0
CIDA business delivery model (old),UntAmoProBu,0.033333333333333326,0
CIDA business delivery model (old),ProjNu,0.42448979591836733,0
CIDA business delivery model (old),ClChAdap,0.020000000000000004,0
CIDA business delivery model (old),FSTCPer,0.033333333333333326,0
CIDA business delivery model (old),AmoSp,0.033333333333333326,0
CIDA business delivery model (old),IRTCPer,0.033333333333333326,0
CIDA business delivery model (old),PBAT,0.2888888888888889,0
CIDA business delivery model (old),UrbIss,0.020000000000000004,0
CIDA business delivery model (old),YouIs,0.020000000000000004,0
CIDA business delivery model (old),IndigIs,0.020000000000000004,0
CIDA business delivery model (old),DisIs,0.020000000000000004,0
CIDA business delivery model (old),ICTAAToFDevelo,0.020000000000000004,0
CIDA business delivery model (old),GenEqua,0.020000000000000004,0
CIDA business delivery model (old),OrganID,0.6535707400369054,0
CIDA business delivery model (old),OrgaNa,0.4469911041339613,0
CIDA business delivery model (old),OrganiTy,0.35647083075654507,0
CIDA business delivery model (old),OrganiCl,0.5606349206349207,0
CIDA business delivery model (old),OrganS,0.5550348092453357,0
CIDA business delivery model (old),ContID,0.020000000000000004,0
CIDA business delivery model (old),ContNa,0.4469911041339613,0
CIDA business delivery model (old),ProjBroCounID,0.5656817256817257,0
CIDA business delivery model (old),CoRegID,0.6163919413919414,0
CIDA business delivery model (old),CoRegN,0.5537445887445888,0
CIDA business delivery model (old),CounRePe,0.033333333333333326,0
CIDA business delivery model (old),SecID,0.020000000000000004,0
Children issues (marker),FisY,0.020000000000000004,0
Children issues (marker),SePer,0.05,0
Children issues (marker),CFLI,0.37333333333333335,0
Children issues (marker),Deser,0.47972027972027975,0
Children issues (marker),SeNa,0.020000000000000004,0
Children issues (marker),KnowFDeve,0.5314285714285715,0
Children issues (marker),CIDABuDeliMo,0.020000000000000004,0
Children issues (marker),ChIs,0.36000000000000004,1
Children issues (marker),UntAmoProBu,0.05,0
Children issues (marker),ProjNu,0.020000000000000004,0
Children issues (marker),ClChAdap,0.4351515151515152,0
Children issues (marker),FSTCPer,0.05,0
Children issues (marker),AmoSp,0.05,0
Children issues (marker),IRTCPer,0.05,0
Children issues (marker),PBAT,0.020000000000000004,0
Children issues (marker),UrbIss,0.5135353535353535,0
Children issues (marker),YouIs,0.2,0
Children issues (marker),IndigIs,0.35944055944055947,0
Children issues (marker),DisIs,0.46414141414141413,0
Children issues (marker),ICTAAToFDevelo,0.5024531024531025,0
Children issues (marker),GenEqua,0.48573737373737375,0
Children issues (marker),OrganID,0.020000000000000004,0
Children issues (marker),OrgaNa,0.020000000000000004,0
Children issues (marker),OrganiTy,0.020000000000000004,0
Children issues (marker),OrganiCl,0.020000000000000004,0
Children issues (marker),OrganS,0.020000000000000004,0
Children issues (marker),ContID,0.4944761904761905,0
Children issues (marker),ContNa,0.020000000000000004,0
Children issues (marker),ProjBroCounID,0.020000000000000004,0
Children issues (marker),CoRegID,0.020000000000000004,0
Children issues (marker),CoRegN,0.020000000000000004,0
Children issues (marker),CounRePe,0.05,0
Children issues (marker),SecID,0.5433650793650794,0
Untied amount(Project-level budget),FisY,0.033333333333333326,0
Untied amount(Project-level budget),SePer,0.4549287749287749,0
Untied amount(Project-level budget),CFLI,0.05,0
Untied amount(Project-level budget),Deser,0.05,0
Untied amount(Project-level budget),SeNa,0.033333333333333326,0
Untied amount(Project-level budget),KnowFDeve,0.05,0
Untied amount(Project-level budget),CIDABuDeliMo,0.033333333333333326,0
Untied amount(Project-level budget),ChIs,0.05,0
Untied amount(Project-level budget),UntAmoProBu,0.6541666666666668,1
Untied amount(Project-level budget),ProjNu,0.033333333333333326,0
Untied amount(Project-level budget),ClChAdap,0.05,0
Untied amount(Project-level budget),FSTCPer,0.3792592592592593,0
Untied amount(Project-level budget),AmoSp,0.41333333333333333,0
Untied amount(Project-level budget),IRTCPer,0.38396514161220047,0
Untied amount(Project-level budget),PBAT,0.033333333333333326,0
Untied amount(Project-level budget),UrbIss,0.05,0
Untied amount(Project-level budget),YouIs,0.05,0
Untied amount(Project-level budget),IndigIs,0.05,0
Untied amount(Project-level budget),DisIs,0.05,0
Untied amount(Project-level budget),ICTAAToFDevelo,0.05,0
Untied amount(Project-level budget),GenEqua,0.05,0
Untied amount(Project-level budget),OrganID,0.033333333333333326,0
Untied amount(Project-level budget),OrgaNa,0.033333333333333326,0
Untied amount(Project-level budget),OrganiTy,0.033333333333333326,0
Untied amount(Project-level budget),OrganiCl,0.033333333333333326,0
Untied amount(Project-level budget),OrganS,0.033333333333333326,0
Untied amount(Project-level budget),ContID,0.05,0
Untied amount(Project-level budget),ContNa,0.033333333333333326,0
Untied amount(Project-level budget),ProjBroCounID,0.033333333333333326,0
Untied amount(Project-level budget),CoRegID,0.033333333333333326,0
Untied amount(Project-level budget),CoRegN,0.033333333333333326,0
Untied amount(Project-level budget),CounRePe,0.5247058823529412,0
Untied amount(Project-level budget),SecID,0.05,0
Project number,FisY,0.2,0
Project number,SePer,0.033333333333333326,0
Project number,CFLI,0.020000000000000004,0
Project number,Deser,0.020000000000000004,0
Project number,SeNa,0.44820512820512826,0
Project number,KnowFDeve,0.020000000000000004,0
Project number,CIDABuDeliMo,0.5001488569909622,0
Project number,ChIs,0.020000000000000004,0
Project number,UntAmoProBu,0.033333333333333326,0
Project number,ProjNu,0.7575757575757576,1
Project number,ClChAdap,0.020000000000000004,0
Project number,FSTCPer,0.033333333333333326,0
Project number,AmoSp,0.033333333333333326,0
Project number,IRTCPer,0.033333333333333326,0
Project number,PBAT,0.44727272727272727,0
Project number,UrbIss,0.020000000000000004,0
Project number,YouIs,0.020000000000000004,0
Project number,IndigIs,0.020000000000000004,0
Project number,DisIs,0.020000000000000004,0
Project number,ICTAAToFDevelo,0.020000000000000004,0
Project number,GenEqua,0.020000000000000004,0
Project number,OrganID,0.8386363636363636,0
Project number,OrgaNa,0.4130769230769231,0
Project number,OrganiTy,0.35555555555555557,0
Project number,OrganiCl,0.5794871794871794,0
Project number,OrganS,0.7475935828877005,0
Project number,ContID,0.020000000000000004,0
Project number,ContNa,0.46853146853146854,0
Project number,ProjBroCounID,0.7131986531986532,0
Project number,CoRegID,0.6992941176470588,0
Project number,CoRegN,0.6166274509803922,0
Project number,CounRePe,0.033333333333333326,0
Project number,SecID,0.020000000000000004,0
Climate change adaptation (marker),FisY,0.020000000000000004,0
Climate change adaptation (marker),SePer,0.05,0
Climate change adaptation (marker),CFLI,0.42940259740259745,0
Climate change adaptation (marker),Deser,0.39345454545454545,0
Climate change adaptation (marker),SeNa,0.020000000000000004,0
Climate change adaptation (marker),KnowFDeve,0.581991341991342,0
Climate change adaptation (marker),CIDABuDeliMo,0.020000000000000004,0
Climate change adaptation (marker),ChIs,0.3955555555555556,0
Climate change adaptation (marker),UntAmoProBu,0.05,0
Climate change adaptation (marker),ProjNu,0.020000000000000004,0
Climate change adaptation (marker),ClChAdap,0.5955473098330242,1
Climate change adaptation (marker),FSTCPer,0.05,0
Climate change adaptation (marker),AmoSp,0.05,0
Climate change adaptation (marker),IRTCPer,0.05,0
Climate change adaptation (marker),PBAT,0.020000000000000004,0
Climate change adaptation (marker),UrbIss,0.3331054131054131,0
Climate change adaptation (marker),YouIs,0.2,0
Climate change adaptation (marker),IndigIs,0.3856969696969697,0
Climate change adaptation (marker),DisIs,0.4505263157894737,0
Climate change adaptation (marker),ICTAAToFDevelo,0.5721212121212121,0
Climate change adaptation (marker),GenEqua,0.5244444444444445,0
Climate change adaptation (marker),OrganID,0.020000000000000004,0
Climate change adaptation (marker),OrgaNa,0.020000000000000004,0
Climate change adaptation (marker),OrganiTy,0.020000000000000004,0
Climate change adaptation (marker),OrganiCl,0.020000000000000004,0
Climate change adaptation (marker),OrganS,0.020000000000000004,0
Climate change adaptation (marker),ContID,0.5303896103896104,0
Climate change adaptation (marker),ContNa,0.020000000000000004,0
Climate change adaptation (marker),ProjBroCounID,0.020000000000000004,0
Climate change adaptation (marker),CoRegID,0.020000000000000004,0
Climate change adaptation (marker),CoRegN,0.020000000000000004,0
Climate change adaptation (marker),CounRePe,0.05,0
Climate change adaptation (marker),SecID,0.5653679653679653,0
FSTC percent,FisY,0.033333333333333326,0
FSTC percent,SePer,0.5866666666666667,0
FSTC percent,CFLI,0.05,0
FSTC percent,Deser,0.05,0
FSTC percent,SeNa,0.033333333333333326,0
FSTC percent,KnowFDeve,0.05,0
FSTC percent,CIDABuDeliMo,0.033333333333333326,0
FSTC percent,ChIs,0.05,0
FSTC percent,UntAmoProBu,0.38031746031746033,0
FSTC percent,ProjNu,0.033333333333333326,0
FSTC percent,ClChAdap,0.05,0
FSTC percent,FSTCPer,0.8400000000000001,1
FSTC percent,AmoSp,0.3777777777777778,0
FSTC percent,IRTCPer,0.6400000000000001,0
FSTC percent,PBAT,0.033333333333333326,0
FSTC percent,UrbIss,0.05,0
FSTC percent,YouIs,0.05,0
FSTC percent,IndigIs,0.05,0
FSTC percent,DisIs,0.05,0
FSTC percent,ICTAAToFDevelo,0.05,0
FSTC percent,GenEqua,0.05,0
FSTC percent,OrganID,0.033333333333333326,0
FSTC percent,OrgaNa,0.033333333333333326,0
FSTC percent,OrganiTy,0.033333333333333326,0
FSTC percent,OrganiCl,0.033333333333333326,0
FSTC percent,OrganS,0.033333333333333326,0
FSTC percent,ContID,0.05,0
FSTC percent,ContNa,0.033333333333333326,0
FSTC percent,ProjBroCounID,0.033333333333333326,0
FSTC percent,CoRegID,0.033333333333333326,0
FSTC percent,CoRegN,0.033333333333333326,0
FSTC percent,CounRePe,0.4425133689839572,0
FSTC percent,SecID,0.05,0
Amount spent,FisY,0.033333333333333326,0
Amount spent,SePer,0.5846153846153846,0
Amount spent,CFLI,0.05,0
Amount spent,Deser,0.05,0
Amount spent,SeNa,0.033333333333333326,0
Amount spent,KnowFDeve,0.05,0
Amount spent,CIDABuDeliMo,0.033333333333333326,0
Amount spent,ChIs,0.05,0
Amount spent,UntAmoProBu,0.6333333333333333,0
Amount spent,ProjNu,0.033333333333333326,0
Amount spent,ClChAdap,0.05,0
Amount spent,FSTCPer,0.528888888888889,0
Amount spent,AmoSp,0.6952380952380952,1
Amount spent,IRTCPer,0.48444444444444446,0
Amount spent,PBAT,0.033333333333333326,0
Amount spent,UrbIss,0.05,0
Amount spent,YouIs,0.05,0
Amount spent,IndigIs,0.05,0
Amount spent,DisIs,0.05,0
Amount spent,ICTAAToFDevelo,0.05,0
Amount spent,GenEqua,0.05,0
Amount spent,OrganID,0.033333333333333326,0
Amount spent,OrgaNa,0.033333333333333326,0
Amount spent,OrganiTy,0.033333333333333326,0
Amount spent,OrganiCl,0.033333333333333326,0
Amount spent,OrganS,0.033333333333333326,0
Amount spent,ContID,0.05,0
Amount spent,ContNa,0.033333333333333326,0
Amount spent,ProjBroCounID,0.033333333333333326,0
Amount spent,CoRegID,0.033333333333333326,0
Amount spent,CoRegN,0.033333333333333326,0
Amount spent,CounRePe,0.5511111111111111,0
Amount spent,SecID,0.05,0
IRTC percent,FisY,0.033333333333333326,0
IRTC percent,SePer,0.5771428571428572,0
IRTC percent,CFLI,0.05,0
IRTC percent,Deser,0.05,0
IRTC percent,SeNa,0.033333333333333326,0
IRTC percent,KnowFDeve,0.05,0
IRTC percent,CIDABuDeliMo,0.033333333333333326,0
IRTC percent,ChIs,0.05,0
IRTC percent,UntAmoProBu,0.3828571428571429,0
IRTC percent,ProjNu,0.033333333333333326,0
IRTC percent,ClChAdap,0.05,0
IRTC percent,FSTCPer,0.6400000000000001,0
IRTC percent,AmoSp,0.2888888888888889,0
IRTC percent,IRTCPer,0.8400000000000001,1
IRTC percent,PBAT,0.033333333333333326,0
IRTC percent,UrbIss,0.05,0
IRTC percent,YouIs,0.05,0
IRTC percent,IndigIs,0.05,0
IRTC percent,DisIs,0.05,0
IRTC percent,ICTAAToFDevelo,0.05,0
IRTC percent,GenEqua,0.05,0
IRTC percent,OrganID,0.033333333333333326,0
IRTC percent,OrgaNa,0.033333333333333326,0
IRTC percent,OrganiTy,0.033333333333333326,0
IRTC percent,OrganiCl,0.033333333333333326,0
IRTC percent,OrganS,0.033333333333333326,0
IRTC percent,ContID,0.05,0
IRTC percent,ContNa,0.033333333333333326,0
IRTC percent,ProjBroCounID,0.033333333333333326,0
IRTC percent,CoRegID,0.033333333333333326,0
IRTC percent,CoRegN,0.033333333333333326,0
IRTC percent,CounRePe,0.4425133689839572,0
IRTC percent,SecID,0.05,0
PBA type,FisY,0.2,0
PBA type,SePer,0.033333333333333326,0
PBA type,CFLI,0.020000000000000004,0
PBA type,Deser,0.020000000000000004,0
PBA type,SeNa,0.4933333333333334,0
PBA type,KnowFDeve,0.020000000000000004,0
PBA type,CIDABuDeliMo,0.5399688764394648,0
PBA type,ChIs,0.020000000000000004,0
PBA type,UntAmoProBu,0.033333333333333326,0
PBA type,ProjNu,0.6436974789915967,0
PBA type,ClChAdap,0.020000000000000004,0
PBA type,FSTCPer,0.033333333333333326,0
PBA type,AmoSp,0.033333333333333326,0
PBA type,IRTCPer,0.033333333333333326,0
PBA type,PBAT,0.7238095238095239,1
PBA type,UrbIss,0.020000000000000004,0
PBA type,YouIs,0.020000000000000004,0
PBA type,IndigIs,0.020000000000000004,0
PBA type,DisIs,0.020000000000000004,0
PBA type,ICTAAToFDevelo,0.020000000000000004,0
PBA type,GenEqua,0.020000000000000004,0
PBA type,OrganID,0.5741830065359477,0
PBA type,OrgaNa,0.4786813186813187,0
PBA type,OrganiTy,0.5555555555555556,0
PBA type,OrganiCl,0.507070707070707,0
PBA type,OrganS,0.5803921568627451,0
PBA type,ContID,0.020000000000000004,0
PBA type,ContNa,0.4715384615384616,0
PBA type,ProjBroCounID,0.44550264550264557,0
PBA type,CoRegID,0.5301587301587302,0
PBA type,CoRegN,0.6159103641456583,0
PBA type,CounRePe,0.033333333333333326,0
PBA type,SecID,0.020000000000000004,0
Status,FisY,0.37777777777777777,0
Status,SePer,0.033333333333333326,0
Status,CFLI,0.020000000000000004,0
Status,Deser,0.020000000000000004,0
Status,SeNa,0.4598290598290598,0
Status,KnowFDeve,0.020000000000000004,0
Status,CIDABuDeliMo,0.39866666666666667,0
Status,ChIs,0.020000000000000004,0
Status,UntAmoProBu,0.033333333333333326,0
Status,ProjNu,0.3523809523809524,0
Status,ClChAdap,0.020000000000000004,0
Status,FSTCPer,0.033333333333333326,0
Status,AmoSp,0.033333333333333326,0
Status,IRTCPer,0.033333333333333326,0
Status,PBAT,0.52,0
Status,UrbIss,0.020000000000000004,0
Status,YouIs,0.020000000000000004,0
Status,IndigIs,0.020000000000000004,0
Status,DisIs,0.020000000000000004,0
Status,ICTAAToFDevelo,0.020000000000000004,0
Status,GenEqua,0.020000000000000004,0
Status,OrganID,0.4402930402930403,0
Status,OrgaNa,0.41743589743589743,0
Status,OrganiTy,0.37777777777777777,0
Status,OrganiCl,0.45777777777777784,0
Status,OrganS,0.4285714285714286,0
Status,ContID,0.020000000000000004,0
Status,ContNa,0.41743589743589743,0
Status,ProjBroCounID,0.3304615384615385,0
Status,CoRegID,0.38461538461538464,0
Status,CoRegN,0.4215384615384616,0
Status,CounRePe,0.033333333333333326,0
Status,SecID,0.020000000000000004,0
Maximum CIDA contribution (project-level),FisY,0.033333333333333326,0
Maximum CIDA contribution (project-level),SePer,0.42197802197802203,0
Maximum CIDA contribution (project-level),CFLI,0.05,0
Maximum CIDA contribution (project-level),Deser,0.05,0
Maximum CIDA contribution (project-level),SeNa,0.033333333333333326,0
Maximum CIDA contribution (project-level),KnowFDeve,0.05,0
Maximum CIDA contribution (project-level),CIDABuDeliMo,0.033333333333333326,0
Maximum CIDA contribution (project-level),ChIs,0.05,0
Maximum CIDA contribution (project-level),UntAmoProBu,0.4898809523809524,0
Maximum CIDA contribution (project-level),ProjNu,0.033333333333333326,0
Maximum CIDA contribution (project-level),ClChAdap,0.05,0
Maximum CIDA contribution (project-level),FSTCPer,0.35111111111111115,0
Maximum CIDA contribution (project-level),AmoSp,0.3980952380952381,0
Maximum CIDA contribution (project-level),IRTCPer,0.39090909090909093,0
Maximum CIDA contribution (project-level),PBAT,0.033333333333333326,0
Maximum CIDA contribution (project-level),UrbIss,0.05,0
Maximum CIDA contribution (project-level),YouIs,0.05,0
Maximum CIDA contribution (project-level),IndigIs,0.05,0
Maximum CIDA contribution (project-level),DisIs,0.05,0
Maximum CIDA contribution (project-level),ICTAAToFDevelo,0.05,0
Maximum CIDA contribution (project-level),GenEqua,0.05,0
Maximum CIDA contribution (project-level),OrganID,0.033333333333333326,0
Maximum CIDA contribution (project-level),OrgaNa,0.033333333333333326,0
Maximum CIDA contribution (project-level),OrganiTy,0.033333333333333326,0
Maximum CIDA contribution (project-level),OrganiCl,0.033333333333333326,0
Maximum CIDA contribution (project-level),OrganS,0.033333333333333326,0
Maximum CIDA contribution (project-level),ContID,0.05,0
Maximum CIDA contribution (project-level),ContNa,0.033333333333333326,0
Maximum CIDA contribution (project-level),ProjBroCounID,0.033333333333333326,0
Maximum CIDA contribution (project-level),CoRegID,0.033333333333333326,0
Maximum CIDA contribution (project-level),CoRegN,0.033333333333333326,0
Maximum CIDA contribution (project-level),CounRePe,0.47333333333333333,0
Maximum CIDA contribution (project-level),SecID,0.05,0
Branch ID,FisY,0.41333333333333333,0
Branch ID,SePer,0.033333333333333326,0
Branch ID,CFLI,0.020000000000000004,0
Branch ID,Deser,0.020000000000000004,0
Branch ID,SeNa,0.44820512820512826,0
Branch ID,KnowFDeve,0.020000000000000004,0
Branch ID,CIDABuDeliMo,0.7306432748538012,0
Branch ID,ChIs,0.020000000000000004,0
Branch ID,UntAmoProBu,0.033333333333333326,0
Branch ID,ProjNu,0.4311764705882353,0
Branch ID,ClChAdap,0.020000000000000004,0
Branch ID,FSTCPer,0.033333333333333326,0
Branch ID,AmoSp,0.033333333333333326,0
Branch ID,IRTCPer,0.033333333333333326,0
Branch ID,PBAT,0.41333333333333333,0
Branch ID,UrbIss,0.020000000000000004,0
Branch ID,YouIs,0.020000000000000004,0
Branch ID,IndigIs,0.020000000000000004,0
Branch ID,DisIs,0.020000000000000004,0
Branch ID,ICTAAToFDevelo,0.020000000000000004,0
Branch ID,GenEqua,0.020000000000000004,0
Branch ID,OrganID,0.9111111111111112,0
Branch ID,OrgaNa,0.4715384615384616,0
Branch ID,OrganiTy,0.45,0
Branch ID,OrganiCl,0.5472527472527473,0
Branch ID,OrganS,0.6948148148148149,0
Branch ID,ContID,0.020000000000000004,0
Branch ID,ContNa,0.4130769230769231,0
Branch ID,ProjBroCounID,0.6385185185185185,0
Branch ID,CoRegID,0.7748496732026144,0
Branch ID,CoRegN,0.6553202614379086,0
Branch ID,CounRePe,0.033333333333333326,0
Branch ID,SecID,0.020000000000000004,0
Branch name,FisY,0.2,0
Branch name,SePer,0.033333333333333326,0
Branch name,CFLI,0.020000000000000004,0
Branch name,Deser,0.020000000000000004,0
Branch name,SeNa,0.6271062271062271,0
Branch name,KnowFDeve,0.020000000000000004,0
Branch name,CIDABuDeliMo,0.5874686716791979,0
Branch name,ChIs,0.020000000000000004,0
Branch name,UntAmoProBu,0.033333333333333326,0
Branch name,ProjNu,0.4311764705882353,0
Branch name,ClChAdap,0.020000000000000004,0
Branch name,FSTCPer,0.033333333333333326,0
Branch name,AmoSp,0.033333333333333326,0
Branch name,IRTCPer,0.033333333333333326,0
Branch name,PBAT,0.48000000000000004,0
Branch name,UrbIss,0.020000000000000004,0
Branch name,YouIs,0.020000000000000004,0
Branch name,IndigIs,0.020000000000000004,0
Branch name,DisIs,0.020000000000000004,0
Branch name,ICTAAToFDevelo,0.020000000000000004,0
Branch name,GenEqua,0.020000000000000004,0
Branch name,OrganID,0.675,0
Branch name,OrgaNa,0.5885714285714285,0
Branch name,OrganiTy,0.44,0
Branch name,OrganiCl,0.6461538461538462,0
Branch name,OrganS,0.7333333333333334,0
Branch name,ContID,0.020000000000000004,0
Branch name,ContNa,0.5401098901098902,0
Branch name,ProjBroCounID,0.4785185185185185,0
Branch name,CoRegID,0.5831136665192393,0
Branch name,CoRegN,0.6215752049807778,0
Branch name,CounRePe,0.033333333333333326,0
Branch name,SecID,0.020000000000000004,0
Division ID,FisY,0.5103030303030303,0
Division ID,SePer,0.033333333333333326,0
Division ID,CFLI,0.020000000000000004,0
Division ID,Deser,0.020000000000000004,0
Division ID,SeNa,0.44820512820512826,0
Division ID,KnowFDeve,0.020000000000000004,0
Division ID,CIDABuDeliMo,0.6114285714285714,0
Division ID,ChIs,0.020000000000000004,0
Division ID,UntAmoProBu,0.033333333333333326,0
Division ID,ProjNu,0.4316526610644258,0
Division ID,ClChAdap,0.020000000000000004,0
Division ID,FSTCPer,0.033333333333333326,0
Division ID,AmoSp,0.033333333333333326,0
Division ID,IRTCPer,0.033333333333333326,0
Division ID,PBAT,0.2,0
Division ID,UrbIss,0.020000000000000004,0
Division ID,YouIs,0.020000000000000004,0
Division ID,IndigIs,0.020000000000000004,0
Division ID,DisIs,0.020000000000000004,0
Division ID,ICTAAToFDevelo,0.020000000000000004,0
Division ID,GenEqua,0.020000000000000004,0
Division ID,OrganID,0.9294117647058824,0
Division ID,OrgaNa,0.4064102564102564,0
Division ID,OrganiTy,0.3642857142857143,0
Division ID,OrganiCl,0.5586813186813187,0
Division ID,OrganS,0.7192156862745098,0
Division ID,ContID,0.020000000000000004,0
Division ID,ContNa,0.4448717948717949,0
Division ID,ProjBroCounID,0.6242424242424243,0
Division ID,CoRegID,0.744,0
Division ID,CoRegN,0.6160000000000001,0
Division ID,CounRePe,0.033333333333333326,0
Division ID,SecID,0.020000000000000004,0
Division name,FisY,0.393939393939394,0
Division name,SePer,0.033333333333333326,0
Division name,CFLI,0.020000000000000004,0
Division name,Deser,0.020000000000000004,0
Division name,SeNa,0.6271062271062271,0
Division name,KnowFDeve,0.020000000000000004,0
Division name,CIDABuDeliMo,0.4809523809523809,0
Division name,ChIs,0.020000000000000004,0
Division name,UntAmoProBu,0.033333333333333326,0
Division name,ProjNu,0.4316526610644258,0
Division name,ClChAdap,0.020000000000000004,0
Division name,FSTCPer,0.033333333333333326,0
Division name,AmoSp,0.033333333333333326,0
Division name,IRTCPer,0.033333333333333326,0
Division name,PBAT,0.33333333333333337,0
Division name,UrbIss,0.020000000000000004,0
Division name,YouIs,0.020000000000000004,0
Division name,IndigIs,0.020000000000000004,0
Division name,DisIs,0.020000000000000004,0
Division name,ICTAAToFDevelo,0.020000000000000004,0
Division name,GenEqua,0.020000000000000004,0
Division name,OrganID,0.7183006535947711,0
Division name,OrgaNa,0.5401098901098902,0
Division name,OrganiTy,0.3542857142857143,0
Division name,OrganiCl,0.6232967032967034,0
Division name,OrganS,0.7577342047930282,0
Division name,ContID,0.020000000000000004,0
Division name,ContNa,0.5619047619047619,0
Division name,ProjBroCounID,0.47424242424242424,0
Division name,CoRegID,0.6078195488721805,0
Division name,CoRegN,0.610281087333719,0
Division name,CounRePe,0.033333333333333326,0
Division name,SecID,0.020000000000000004,0
Section ID,FisY,0.4666666666666667,0
Section ID,SePer,0.033333333333333326,0
Section ID,CFLI,0.020000000000000004,0
Section ID,Deser,0.020000000000000004,0
Section ID,SeNa,0.4654545454545455,0
Section ID,KnowFDeve,0.020000000000000004,0
Section ID,CIDABuDeliMo,0.6573202614379086,0
Section ID,ChIs,0.020000000000000004,0
Section ID,UntAmoProBu,0.033333333333333326,0
Section ID,ProjNu,0.46695187165775404,0
Section ID,ClChAdap,0.020000000000000004,0
Section ID,FSTCPer,0.033333333333333326,0
Section ID,AmoSp,0.033333333333333326,0
Section ID,IRTCPer,0.033333333333333326,0
Section ID,PBAT,0.29696969696969694,0
Section ID,UrbIss,0.020000000000000004,0
Section ID,YouIs,0.020000000000000004,0
Section ID,IndigIs,0.020000000000000004,0
Section ID,DisIs,0.020000000000000004,0
Section ID,ICTAAToFDevelo,0.020000000000000004,0
Section ID,GenEqua,0.020000000000000004,0
Section ID,OrganID,0.9111111111111112,0
Section ID,OrgaNa,0.4196969696969697,0
Section ID,OrganiTy,0.4175213675213676,0
Section ID,OrganiCl,0.573076923076923,0
Section ID,OrganS,0.6948148148148149,0
Section ID,ContID,0.020000000000000004,0
Section ID,ContNa,0.5348484848484849,0
Section ID,ProjBroCounID,0.6687344028520499,0
Section ID,CoRegID,0.7901176470588236,0
Section ID,CoRegN,0.7333333333333334,0
Section ID,CounRePe,0.033333333333333326,0
Section ID,SecID,0.020000000000000004,0
Section name,FisY,0.30666666666666664,0
Section name,SePer,0.033333333333333326,0
Section name,CFLI,0.020000000000000004,0
Section name,Deser,0.020000000000000004,0
Section name,SeNa,0.6331668331668332,0
Section name,KnowFDeve,0.020000000000000004,0
Section name,CIDABuDeliMo,0.5323317205670147,0
Section name,ChIs,0.020000000000000004,0
Section name,UntAmoProBu,0.033333333333333326,0
Section name,ProjNu,0.46695187165775404,0
Section name,ClChAdap,0.020000000000000004,0
Section name,FSTCPer,0.033333333333333326,0
Section name,AmoSp,0.033333333333333326,0
Section name,IRTCPer,0.033333333333333326,0
Section name,PBAT,0.38181818181818183,0
Section name,UrbIss,0.020000000000000004,0
Section name,YouIs,0.020000000000000004,0
Section name,IndigIs,0.020000000000000004,0
Section name,DisIs,0.020000000000000004,0
Section name,ICTAAToFDevelo,0.020000000000000004,0
Section name,GenEqua,0.020000000000000004,0
Section name,OrganID,0.7176470588235295,0
Section name,OrgaNa,0.5452380952380953,0
Section name,OrganiTy,0.40752136752136753,0
Section name,OrganiCl,0.6346153846153847,0
Section name,OrganS,0.7333333333333334,0
Section name,ContID,0.020000000000000004,0
Section name,ContNa,0.6467532467532467,0
Section name,ProjBroCounID,0.5304991087344029,0
Section name,CoRegID,0.6360548429898275,0
Section name,CoRegN,0.6611528822055137,0
Section name,CounRePe,0.033333333333333326,0
Section name,SecID,0.020000000000000004,0
Regional program (marker),FisY,0.020000000000000004,0
Regional program (marker),SePer,0.05,0
Regional program (marker),CFLI,0.26666666666666666,0
Regional program (marker),Deser,0.40955710955710956,0
Regional program (marker),SeNa,0.020000000000000004,0
Regional program (marker),KnowFDeve,0.6133333333333333,0
Regional program (marker),CIDABuDeliMo,0.020000000000000004,0
Regional program (marker),ChIs,0.2,0
Regional program (marker),UntAmoProBu,0.05,0
Regional program (marker),ProjNu,0.020000000000000004,0
Regional program (marker),ClChAdap,0.456969696969697,0
Regional program (marker),FSTCPer,0.05,0
Regional program (marker),AmoSp,0.05,0
Regional program (marker),IRTCPer,0.05,0
Regional program (marker),PBAT,0.020000000000000004,0
Regional program (marker),UrbIss,0.3612929292929293,0
Regional program (marker),YouIs,0.2,0
Regional program (marker),IndigIs,0.3564102564102564,0
Regional program (marker),DisIs,0.5160633484162896,0
Regional program (marker),ICTAAToFDevelo,0.5512576312576313,0
Regional program (marker),GenEqua,0.6533333333333333,0
Regional program (marker),OrganID,0.020000000000000004,0
Regional program (marker),OrgaNa,0.020000000000000004,0
Regional program (marker),OrganiTy,0.020000000000000004,0
Regional program (marker),OrganiCl,0.020000000000000004,0
Regional program (marker),OrganS,0.020000000000000004,0
Regional program (marker),ContID,0.5634733893557423,0
Regional program (marker),ContNa,0.020000000000000004,0
Regional program (marker),ProjBroCounID,0.020000000000000004,0
Regional program (marker),CoRegID,0.020000000000000004,0
Regional program (marker),CoRegN,0.020000000000000004,0
Regional program (marker),CounRePe,0.05,0
Regional program (marker),SecID,0.6168067226890758,0
Fund centre ID,FisY,0.020000000000000004,0
Fund centre ID,SePer,0.05,0
Fund centre ID,CFLI,0.42333333333333334,0
Fund centre ID,Deser,0.4470418470418471,0
Fund centre ID,SeNa,0.020000000000000004,0
Fund centre ID,KnowFDeve,0.5901754385964912,0
Fund centre ID,CIDABuDeliMo,0.020000000000000004,0
Fund centre ID,ChIs,0.30000000000000004,0
Fund centre ID,UntAmoProBu,0.05,0
Fund centre ID,ProjNu,0.020000000000000004,0
Fund centre ID,ClChAdap,0.48984126984126986,0
Fund centre ID,FSTCPer,0.05,0
Fund centre ID,AmoSp,0.05,0
Fund centre ID,IRTCPer,0.05,0
Fund centre ID,PBAT,0.020000000000000004,0
Fund centre ID,UrbIss,0.45498412698412705,0
Fund centre ID,YouIs,0.2,0
Fund centre ID,IndigIs,0.5538239538239538,0
Fund centre ID,DisIs,0.5833333333333333,0
Fund centre ID,ICTAAToFDevelo,0.5076071640777523,0
Fund centre ID,GenEqua,0.4761904761904762,0
Fund centre ID,OrganID,0.020000000000000004,0
Fund centre ID,OrgaNa,0.020000000000000004,0
Fund centre ID,OrganiTy,0.020000000000000004,0
Fund centre ID,OrganiCl,0.020000000000000004,0
Fund centre ID,OrganS,0.020000000000000004,0
Fund centre ID,ContID,0.752,0
Fund centre ID,ContNa,0.020000000000000004,0
Fund centre ID,ProjBroCounID,0.020000000000000004,0
Fund centre ID,CoRegID,0.020000000000000004,0
Fund centre ID,CoRegN,0.020000000000000004,0
Fund centre ID,CounRePe,0.05,0
Fund centre ID,SecID,0.7825386996904025,0
Fund centre name,FisY,0.3142857142857143,0
Fund centre name,SePer,0.033333333333333326,0
Fund centre name,CFLI,0.020000000000000004,0
Fund centre name,Deser,0.020000000000000004,0
Fund centre name,SeNa,0.6188779641411221,0
Fund centre name,KnowFDeve,0.020000000000000004,0
Fund centre name,CIDABuDeliMo,0.5892748678418736,0
Fund centre name,ChIs,0.020000000000000004,0
Fund centre name,UntAmoProBu,0.033333333333333326,0
Fund centre name,ProjNu,0.42525490196078436,0
Fund centre name,ClChAdap,0.020000000000000004,0
Fund centre name,FSTCPer,0.033333333333333326,0
Fund centre name,AmoSp,0.033333333333333326,0
Fund centre name,IRTCPer,0.033333333333333326,0
Fund centre name,PBAT,0.33999999999999997,0
Fund centre name,UrbIss,0.020000000000000004,0
Fund centre name,YouIs,0.020000000000000004,0
Fund centre name,IndigIs,0.020000000000000004,0
Fund centre name,DisIs,0.020000000000000004,0
Fund centre name,ICTAAToFDevelo,0.020000000000000004,0
Fund centre name,GenEqua,0.020000000000000004,0
Fund centre name,OrganID,0.6826890756302522,0
Fund centre name,OrgaNa,0.5308571428571429,0
Fund centre name,OrganiTy,0.376,0
Fund centre name,OrganiCl,0.5614945054945055,0
Fund centre name,OrganS,0.6857142857142857,0
Fund centre name,ContID,0.020000000000000004,0
Fund centre name,ContNa,0.6228571428571428,0
Fund centre name,ProjBroCounID,0.5398506069094304,0
Fund centre name,CoRegID,0.6245430569888775,0
Fund centre name,CoRegN,0.6497014280296014,0
Fund centre name,CounRePe,0.033333333333333326,0
Fund centre name,SecID,0.020000000000000004,0
Programming process (new),FisY,0.3085714285714286,0
Programming process (new),SePer,0.033333333333333326,0
Programming process (new),CFLI,0.020000000000000004,0
Programming process (new),Deser,0.020000000000000004,0
Programming process (new),SeNa,0.4817777777777778,0
Programming process (new),KnowFDeve,0.020000000000000004,0
Programming process (new),CIDABuDeliMo,0.3962894248608535,0
Programming process (new),ChIs,0.020000000000000004,0
Programming process (new),UntAmoProBu,0.033333333333333326,0
Programming process (new),ProjNu,0.5185454545454545,0
Programming process (new),ClChAdap,0.020000000000000004,0
Programming process (new),FSTCPer,0.033333333333333326,0
Programming process (new),AmoSp,0.033333333333333326,0
Programming process (new),IRTCPer,0.033333333333333326,0
Programming process (new),PBAT,0.343030303030303,0
Programming process (new),UrbIss,0.020000000000000004,0
Programming process (new),YouIs,0.020000000000000004,0
Programming process (new),IndigIs,0.020000000000000004,0
Programming process (new),DisIs,0.020000000000000004,0
Programming process (new),ICTAAToFDevelo,0.020000000000000004,0
Programming process (new),GenEqua,0.020000000000000004,0
Programming process (new),OrganID,0.6586928104575163,0
Programming process (new),OrgaNa,0.488,0
Programming process (new),OrganiTy,0.41075917546505786,0
Programming process (new),OrganiCl,0.5816993464052287,0
Programming process (new),OrganS,0.6222222222222222,0
Programming process (new),ContID,0.020000000000000004,0
Programming process (new),ContNa,0.4620952380952381,0
Programming process (new),ProjBroCounID,0.5619294990723562,0
Programming process (new),CoRegID,0.5707625272331156,0
Programming process (new),CoRegN,0.5136507936507937,0
Programming process (new),CounRePe,0.033333333333333326,0
Programming process (new),SecID,0.020000000000000004,0
Bilateral aid (international marker),FisY,0.020000000000000004,0
Bilateral aid (international marker),SePer,0.05,0
Bilateral aid (international marker),CFLI,0.33486748545572076,0
Bilateral aid (international marker),Deser,0.4376334776334777,0
Bilateral aid (international marker),SeNa,0.020000000000000004,0
Bilateral aid (international marker),KnowFDeve,0.6021768707482993,0
Bilateral aid (international marker),CIDABuDeliMo,0.020000000000000004,0
Bilateral aid (international marker),ChIs,0.2,0
Bilateral aid (international marker),UntAmoProBu,0.05,0
Bilateral aid (international marker),ProjNu,0.020000000000000004,0
Bilateral aid (international marker),ClChAdap,0.5435992578849722,0
Bilateral aid (international marker),FSTCPer,0.05,0
Bilateral aid (international marker),AmoSp,0.05,0
Bilateral aid (international marker),IRTCPer,0.05,0
Bilateral aid (international marker),PBAT,0.020000000000000004,0
Bilateral aid (international marker),UrbIss,0.38703703703703707,0
Bilateral aid (international marker),YouIs,0.2,0
Bilateral aid (international marker),IndigIs,0.43619047619047624,0
Bilateral aid (international marker),DisIs,0.41124077161228867,0
Bilateral aid (international marker),ICTAAToFDevelo,0.5791383219954649,0
Bilateral aid (international marker),GenEqua,0.491965811965812,0
Bilateral aid (international marker),OrganID,0.020000000000000004,0
Bilateral aid (international marker),OrgaNa,0.020000000000000004,0
Bilateral aid (international marker),OrganiTy,0.020000000000000004,0
Bilateral aid (international marker),OrganiCl,0.020000000000000004,0
Bilateral aid (international marker),OrganS,0.020000000000000004,0
Bilateral aid (international marker),ContID,0.4546065699006876,0
Bilateral aid (international marker),ContNa,0.020000000000000004,0
Bilateral aid (international marker),ProjBroCounID,0.020000000000000004,0
Bilateral aid (international marker),CoRegID,0.020000000000000004,0
Bilateral aid (international marker),CoRegN,0.020000000000000004,0
Bilateral aid (international marker),CounRePe,0.05,0
Bilateral aid (international marker),SecID,0.5676190476190477,0
Enviromental sustainability (marker),FisY,0.020000000000000004,0
Enviromental sustainability (marker),SePer,0.05,0
Enviromental sustainability (marker),CFLI,0.3138888888888889,0
Enviromental sustainability (marker),Deser,0.41356600056290466,0
Enviromental sustainability (marker),SeNa,0.020000000000000004,0
Enviromental sustainability (marker),KnowFDeve,0.5721367521367522,0
Enviromental sustainability (marker),CIDABuDeliMo,0.020000000000000004,0
Enviromental sustainability (marker),ChIs,0.2,0
Enviromental sustainability (marker),UntAmoProBu,0.05,0
Enviromental sustainability (marker),ProjNu,0.020000000000000004,0
Enviromental sustainability (marker),ClChAdap,0.40382876382876387,0
Enviromental sustainability (marker),FSTCPer,0.05,0
Enviromental sustainability (marker),AmoSp,0.05,0
Enviromental sustainability (marker),IRTCPer,0.05,0
Enviromental sustainability (marker),PBAT,0.020000000000000004,0
Enviromental sustainability (marker),UrbIss,0.36983006535947716,0
Enviromental sustainability (marker),YouIs,0.2,0
Enviromental sustainability (marker),IndigIs,0.373374613003096,0
Enviromental sustainability (marker),DisIs,0.3833333333333333,0
Enviromental sustainability (marker),ICTAAToFDevelo,0.5966884531590415,0
Enviromental sustainability (marker),GenEqua,0.5008484848484849,0
Enviromental sustainability (marker),OrganID,0.020000000000000004,0
Enviromental sustainability (marker),OrgaNa,0.020000000000000004,0
Enviromental sustainability (marker),OrganiTy,0.020000000000000004,0
Enviromental sustainability (marker),OrganiCl,0.020000000000000004,0
Enviromental sustainability (marker),OrganS,0.020000000000000004,0
Enviromental sustainability (marker),ContID,0.5063736263736265,0
Enviromental sustainability (marker),ContNa,0.020000000000000004,0
Enviromental sustainability (marker),ProjBroCounID,0.020000000000000004,0
Enviromental sustainability (marker),CoRegID,0.020000000000000004,0
Enviromental sustainability (marker),CoRegN,0.020000000000000004,0
Enviromental sustainability (marker),CounRePe,0.05,0
Enviromental sustainability (marker),SecID,0.488,0
Climate change mitigation (marker),FisY,0.020000000000000004,0
Climate change mitigation (marker),SePer,0.05,0
Climate change mitigation (marker),CFLI,0.42940259740259745,0
Climate change mitigation (marker),Deser,0.37212121212121213,0
Climate change mitigation (marker),SeNa,0.020000000000000004,0
Climate change mitigation (marker),KnowFDeve,0.5743722943722944,0
Climate change mitigation (marker),CIDABuDeliMo,0.020000000000000004,0
Climate change mitigation (marker),ChIs,0.3955555555555556,0
Climate change mitigation (marker),UntAmoProBu,0.05,0
Climate change mitigation (marker),ProjNu,0.020000000000000004,0
Climate change mitigation (marker),ClChAdap,0.5182683982683983,0
Climate change mitigation (marker),FSTCPer,0.05,0
Climate change mitigation (marker),AmoSp,0.05,0
Climate change mitigation (marker),IRTCPer,0.05,0
Climate change mitigation (marker),PBAT,0.020000000000000004,0
Climate change mitigation (marker),UrbIss,0.3331054131054131,0
Climate change mitigation (marker),YouIs,0.2,0
Climate change mitigation (marker),IndigIs,0.41284848484848485,0
Climate change mitigation (marker),DisIs,0.448,0
Climate change mitigation (marker),ICTAAToFDevelo,0.5667532467532468,0
Climate change mitigation (marker),GenEqua,0.5244444444444445,0
Climate change mitigation (marker),OrganID,0.020000000000000004,0
Climate change mitigation (marker),OrgaNa,0.020000000000000004,0
Climate change mitigation (marker),OrganiTy,0.020000000000000004,0
Climate change mitigation (marker),OrganiCl,0.020000000000000004,0
Climate change mitigation (marker),OrganS,0.020000000000000004,0
Climate change mitigation (marker),ContID,0.5176911976911976,0
Climate change mitigation (marker),ContNa,0.020000000000000004,0
Climate change mitigation (marker),ProjBroCounID,0.020000000000000004,0
Climate change mitigation (marker),CoRegID,0.020000000000000004,0
Climate change mitigation (marker),CoRegN,0.020000000000000004,0
Climate change mitigation (marker),CounRePe,0.05,0
Climate change mitigation (marker),SecID,0.5526695526695526,0
Participatory development and good governance,FisY,0.020000000000000004,0
Participatory development and good governance,SePer,0.05,0
Participatory development and good governance,CFLI,0.319484593837535,0
Participatory development and good governance,Deser,0.41600000000000004,0
Participatory development and good governance,SeNa,0.020000000000000004,0
Participatory development and good governance,KnowFDeve,0.618008658008658,0
Participatory development and good governance,CIDABuDeliMo,0.020000000000000004,0
Participatory development and good governance,ChIs,0.26637037037037037,0
Participatory development and good governance,UntAmoProBu,0.05,0
Participatory development and good governance,ProjNu,0.020000000000000004,0
Participatory development and good governance,ClChAdap,0.5341991341991341,0
Participatory development and good governance,FSTCPer,0.05,0
Participatory development and good governance,AmoSp,0.05,0
Participatory development and good governance,IRTCPer,0.05,0
Participatory development and good governance,PBAT,0.020000000000000004,0
Participatory development and good governance,UrbIss,0.2743589743589744,0
Participatory development and good governance,YouIs,0.2,0
Participatory development and good governance,IndigIs,0.33155555555555555,0
Participatory development and good governance,DisIs,0.4103945031003855,0
Participatory development and good governance,ICTAAToFDevelo,0.5625996661290779,0
Participatory development and good governance,GenEqua,0.4837310837310837,0
Participatory development and good governance,OrganID,0.020000000000000004,0
Participatory development and good governance,OrgaNa,0.020000000000000004,0
Participatory development and good governance,OrganiTy,0.020000000000000004,0
Participatory development and good governance,OrganiCl,0.020000000000000004,0
Participatory development and good governance,OrganS,0.020000000000000004,0
Participatory development and good governance,ContID,0.5762745098039217,0
Participatory development and good governance,ContNa,0.020000000000000004,0
Participatory development and good governance,ProjBroCounID,0.020000000000000004,0
Participatory development and good governance,CoRegID,0.020000000000000004,0
Participatory development and good governance,CoRegN,0.020000000000000004,0
Participatory development and good governance,CounRePe,0.05,0
Participatory development and good governance,SecID,0.6549019607843138,0
Trade development (marker),FisY,0.020000000000000004,0
Trade development (marker),SePer,0.05,0
Trade development (marker),CFLI,0.25333333333333335,0
Trade development (marker),Deser,0.5077272727272728,0
Trade development (marker),SeNa,0.020000000000000004,0
Trade development (marker),KnowFDeve,0.6593939393939393,0
Trade development (marker),CIDABuDeliMo,0.020000000000000004,0
Trade development (marker),ChIs,0.2,0
Trade development (marker),UntAmoProBu,0.05,0
Trade development (marker),ProjNu,0.020000000000000004,0
Trade development (marker),ClChAdap,0.5065319865319866,0
Trade development (marker),FSTCPer,0.05,0
Trade development (marker),AmoSp,0.05,0
Trade development (marker),IRTCPer,0.05,0
Trade development (marker),PBAT,0.020000000000000004,0
Trade development (marker),UrbIss,0.3155555555555556,0
Trade development (marker),YouIs,0.2,0
Trade development (marker),IndigIs,0.305,0
Trade development (marker),DisIs,0.46176470588235297,0
Trade development (marker),ICTAAToFDevelo,0.6920736779560308,0
Trade development (marker),GenEqua,0.5227350427350428,0
Trade development (marker),OrganID,0.020000000000000004,0
Trade development (marker),OrgaNa,0.020000000000000004,0
Trade development (marker),OrganiTy,0.020000000000000004,0
Trade development (marker),OrganiCl,0.020000000000000004,0
Trade development (marker),OrganS,0.020000000000000004,0
Trade development (marker),ContID,0.6224537815126051,0
Trade development (marker),ContNa,0.020000000000000004,0
Trade development (marker),ProjBroCounID,0.020000000000000004,0
Trade development (marker),CoRegID,0.020000000000000004,0
Trade development (marker),CoRegN,0.020000000000000004,0
Trade development (marker),CounRePe,0.05,0
Trade development (marker),SecID,0.6544537815126051,0
Biodiversity (marker),FisY,0.020000000000000004,0
Biodiversity (marker),SePer,0.05,0
Biodiversity (marker),CFLI,0.26666666666666666,0
Biodiversity (marker),Deser,0.48805704099821745,0
Biodiversity (marker),SeNa,0.020000000000000004,0
Biodiversity (marker),KnowFDeve,0.579047619047619,0
Biodiversity (marker),CIDABuDeliMo,0.020000000000000004,0
Biodiversity (marker),ChIs,0.2,0
Biodiversity (marker),UntAmoProBu,0.05,0
Biodiversity (marker),ProjNu,0.020000000000000004,0
Biodiversity (marker),ClChAdap,0.39103030303030306,0
Biodiversity (marker),FSTCPer,0.05,0
Biodiversity (marker),AmoSp,0.05,0
Biodiversity (marker),IRTCPer,0.05,0
Biodiversity (marker),PBAT,0.020000000000000004,0
Biodiversity (marker),UrbIss,0.3955555555555556,0
Biodiversity (marker),YouIs,0.2,0
Biodiversity (marker),IndigIs,0.38823529411764707,0
Biodiversity (marker),DisIs,0.38666666666666666,0
Biodiversity (marker),ICTAAToFDevelo,0.5576470588235294,0
Biodiversity (marker),GenEqua,0.49,0
Biodiversity (marker),OrganID,0.020000000000000004,0
Biodiversity (marker),OrgaNa,0.020000000000000004,0
Biodiversity (marker),OrganiTy,0.020000000000000004,0
Biodiversity (marker),OrganiCl,0.020000000000000004,0
Biodiversity (marker),OrganS,0.020000000000000004,0
Biodiversity (marker),ContID,0.4714285714285715,0
Biodiversity (marker),ContNa,0.020000000000000004,0
Biodiversity (marker),ProjBroCounID,0.020000000000000004,0
Biodiversity (marker),CoRegID,0.020000000000000004,0
Biodiversity (marker),CoRegN,0.020000000000000004,0
Biodiversity (marker),CounRePe,0.05,0
Biodiversity (marker),SecID,0.4974891774891775,0
