source,target,conf,realConf
Fiscal year,fsclr,0.6471380471380472,1
Fiscal year,dsrtfctn(mrkr),0.020000000000000004,0
Fiscal year,prjctnmbr,0.3176068376068376,0
Fiscal year,ntdmnt(prjct-lvlbdgt),0.033333333333333326,0
Fiscal year,ndgnssss(mrkr),0.020000000000000004,0
Fiscal year,sctrd,0.020000000000000004,0
Fiscal year,ctstlfrdvlpmnt(mrkr),0.020000000000000004,0
Fiscal year,fndcntrd,0.020000000000000004,0
Fiscal year,chldrnsss(mrkr),0.020000000000000004,0
Fiscal year,prgrmmngprcss(nw),0.386606334841629,0
Fiscal year,knwldgfrdvlpmnt(mrkr),0.020000000000000004,0
Fiscal year,dvsnnm,0.28888888888888886,0
Fiscal year,mxmmcdcntrbtn(prjct-lvl),0.033333333333333326,0
Fiscal year,cntrrgnprcnt,0.033333333333333326,0
Fiscal year,stts,0.30666666666666664,0
Fiscal year,brnchd,0.3511111111111111,0
Fiscal year,trddvlpmnt(mrkr),0.020000000000000004,0
Fiscal year,cntnntnm,0.2761904761904762,0
Fiscal year,rgnstnclss,0.4380952380952381,0
Fiscal year,cntrrgnd,0.326984126984127,0
Fiscal year,pbtp,0.2,0
Fiscal year,rgnlprgrm(mrkr),0.020000000000000004,0
Fiscal year,bdvrst(mrkr),0.020000000000000004,0
Fiscal year,cntnntd,0.020000000000000004,0
Fiscal year,cntrrgnnm,0.3176068376068376,0
Fiscal year,prtcptrdvlpmntndgdgvrnnc,0.020000000000000004,0
Fiscal year,rbnsss(mrkr),0.020000000000000004,0
Fiscal year,thsss(mrkr),0.020000000000000004,0
Fiscal year,dsbltsss(mrkr),0.020000000000000004,0
Fiscal year,gndrqlt(mrkr),0.020000000000000004,0
Fiscal year,rgnstnd,0.337995337995338,0
Fiscal year,rgnstnnm,0.326984126984127,0
Fiscal year,rgnstntp,0.326984126984127,0
Fiscal year,rgnstnsb-clss,0.3997936016511868,0
Fiscal year,prjctbrwsrcntrd,0.3296574770258981,0
Fiscal year,sctrnm,0.43111111111111117,0
Fiscal year,sctrprcnt,0.033333333333333326,0
Fiscal year,mntspnt,0.033333333333333326,0
Desertification (marker),fsclr,0.020000000000000004,0
Desertification (marker),dsrtfctn(mrkr),0.7982608695652174,1
Desertification (marker),prjctnmbr,0.020000000000000004,0
Desertification (marker),ntdmnt(prjct-lvlbdgt),0.05,0
Desertification (marker),ndgnssss(mrkr),0.5895652173913044,0
Desertification (marker),sctrd,0.4084848484848485,0
Desertification (marker),ctstlfrdvlpmnt(mrkr),0.6303448275862069,0
Desertification (marker),fndcntrd,0.37722567287784686,0
Desertification (marker),chldrnsss(mrkr),0.6200000000000001,0
Desertification (marker),prgrmmngprcss(nw),0.020000000000000004,0
Desertification (marker),knwldgfrdvlpmnt(mrkr),0.6000000000000001,0
Desertification (marker),dvsnnm,0.020000000000000004,0
Desertification (marker),mxmmcdcntrbtn(prjct-lvl),0.05,0
Desertification (marker),cntrrgnprcnt,0.05,0
Desertification (marker),stts,0.020000000000000004,0
Desertification (marker),brnchd,0.020000000000000004,0
Desertification (marker),trddvlpmnt(mrkr),0.5840000000000001,0
Desertification (marker),cntnntnm,0.020000000000000004,0
Desertification (marker),rgnstnclss,0.020000000000000004,0
Desertification (marker),cntrrgnd,0.020000000000000004,0
Desertification (marker),pbtp,0.020000000000000004,0
Desertification (marker),rgnlprgrm(mrkr),0.6066666666666667,0
Desertification (marker),bdvrst(mrkr),0.6342857142857143,0
Desertification (marker),cntnntd,0.34545454545454546,0
Desertification (marker),cntrrgnnm,0.020000000000000004,0
Desertification (marker),prtcptrdvlpmntndgdgvrnnc,0.37230769230769234,0
Desertification (marker),rbnsss(mrkr),0.5961904761904762,0
Desertification (marker),thsss(mrkr),0.5610526315789475,0
Desertification (marker),dsbltsss(mrkr),0.6243478260869566,0
Desertification (marker),gndrqlt(mrkr),0.6290909090909091,0
Desertification (marker),rgnstnd,0.020000000000000004,0
Desertification (marker),rgnstnnm,0.020000000000000004,0
Desertification (marker),rgnstntp,0.020000000000000004,0
Desertification (marker),rgnstnsb-clss,0.020000000000000004,0
Desertification (marker),prjctbrwsrcntrd,0.020000000000000004,0
Desertification (marker),sctrnm,0.020000000000000004,0
Desertification (marker),sctrprcnt,0.05,0
Desertification (marker),mntspnt,0.05,0
Project number,fsclr,0.3414141414141414,0
Project number,dsrtfctn(mrkr),0.020000000000000004,0
Project number,prjctnmbr,0.6755555555555556,1
Project number,ntdmnt(prjct-lvlbdgt),0.033333333333333326,0
Project number,ndgnssss(mrkr),0.020000000000000004,0
Project number,sctrd,0.020000000000000004,0
Project number,ctstlfrdvlpmnt(mrkr),0.020000000000000004,0
Project number,fndcntrd,0.020000000000000004,0
Project number,chldrnsss(mrkr),0.020000000000000004,0
Project number,prgrmmngprcss(nw),0.45333333333333337,0
Project number,knwldgfrdvlpmnt(mrkr),0.020000000000000004,0
Project number,dvsnnm,0.3777777777777778,0
Project number,mxmmcdcntrbtn(prjct-lvl),0.033333333333333326,0
Project number,cntrrgnprcnt,0.033333333333333326,0
Project number,stts,0.29696969696969694,0
Project number,brnchd,0.45982905982905986,0
Project number,trddvlpmnt(mrkr),0.020000000000000004,0
Project number,cntnntnm,0.42349206349206353,0
Project number,rgnstnclss,0.35882352941176476,0
Project number,cntrrgnd,0.42349206349206353,0
Project number,pbtp,0.44727272727272727,0
Project number,rgnlprgrm(mrkr),0.020000000000000004,0
Project number,bdvrst(mrkr),0.020000000000000004,0
Project number,cntnntd,0.020000000000000004,0
Project number,cntrrgnnm,0.4088888888888889,0
Project number,prtcptrdvlpmntndgdgvrnnc,0.020000000000000004,0
Project number,rbnsss(mrkr),0.020000000000000004,0
Project number,thsss(mrkr),0.020000000000000004,0
Project number,dsbltsss(mrkr),0.020000000000000004,0
Project number,gndrqlt(mrkr),0.020000000000000004,0
Project number,rgnstnd,0.39340659340659345,0
Project number,rgnstnnm,0.42349206349206353,0
Project number,rgnstntp,0.3803174603174604,0
Project number,rgnstnsb-clss,0.3656140350877193,0
Project number,prjctbrwsrcntrd,0.4932178932178932,0
Project number,sctrnm,0.45982905982905986,0
Project number,sctrprcnt,0.033333333333333326,0
Project number,mntspnt,0.033333333333333326,0
Untied amount(Project-level budget),fsclr,0.033333333333333326,0
Untied amount(Project-level budget),dsrtfctn(mrkr),0.05,0
Untied amount(Project-level budget),prjctnmbr,0.033333333333333326,0
Untied amount(Project-level budget),ntdmnt(prjct-lvlbdgt),0.6407557354925776,1
Untied amount(Project-level budget),ndgnssss(mrkr),0.05,0
Untied amount(Project-level budget),sctrd,0.05,0
Untied amount(Project-level budget),ctstlfrdvlpmnt(mrkr),0.05,0
Untied amount(Project-level budget),fndcntrd,0.05,0
Untied amount(Project-level budget),chldrnsss(mrkr),0.05,0
Untied amount(Project-level budget),prgrmmngprcss(nw),0.033333333333333326,0
Untied amount(Project-level budget),knwldgfrdvlpmnt(mrkr),0.05,0
Untied amount(Project-level budget),dvsnnm,0.033333333333333326,0
Untied amount(Project-level budget),mxmmcdcntrbtn(prjct-lvl),0.5585326953748007,0
Untied amount(Project-level budget),cntrrgnprcnt,0.4090666666666667,0
Untied amount(Project-level budget),stts,0.033333333333333326,0
Untied amount(Project-level budget),brnchd,0.033333333333333326,0
Untied amount(Project-level budget),trddvlpmnt(mrkr),0.05,0
Untied amount(Project-level budget),cntnntnm,0.033333333333333326,0
Untied amount(Project-level budget),rgnstnclss,0.033333333333333326,0
Untied amount(Project-level budget),cntrrgnd,0.033333333333333326,0
Untied amount(Project-level budget),pbtp,0.033333333333333326,0
Untied amount(Project-level budget),rgnlprgrm(mrkr),0.05,0
Untied amount(Project-level budget),bdvrst(mrkr),0.05,0
Untied amount(Project-level budget),cntnntd,0.05,0
Untied amount(Project-level budget),cntrrgnnm,0.033333333333333326,0
Untied amount(Project-level budget),prtcptrdvlpmntndgdgvrnnc,0.05,0
Untied amount(Project-level budget),rbnsss(mrkr),0.05,0
Untied amount(Project-level budget),thsss(mrkr),0.05,0
Untied amount(Project-level budget),dsbltsss(mrkr),0.05,0
Untied amount(Project-level budget),gndrqlt(mrkr),0.05,0
Untied amount(Project-level budget),rgnstnd,0.033333333333333326,0
Untied amount(Project-level budget),rgnstnnm,0.033333333333333326,0
Untied amount(Project-level budget),rgnstntp,0.033333333333333326,0
Untied amount(Project-level budget),rgnstnsb-clss,0.033333333333333326,0
Untied amount(Project-level budget),prjctbrwsrcntrd,0.033333333333333326,0
Untied amount(Project-level budget),sctrnm,0.033333333333333326,0
Untied amount(Project-level budget),sctrprcnt,0.4230303030303031,0
Untied amount(Project-level budget),mntspnt,0.4535384615384616,0
Indigenous issues (marker),fsclr,0.020000000000000004,0
Indigenous issues (marker),dsrtfctn(mrkr),0.549968253968254,0
Indigenous issues (marker),prjctnmbr,0.020000000000000004,0
Indigenous issues (marker),ntdmnt(prjct-lvlbdgt),0.05,0
Indigenous issues (marker),ndgnssss(mrkr),0.7023492063492065,1
Indigenous issues (marker),sctrd,0.3357575757575757,0
Indigenous issues (marker),ctstlfrdvlpmnt(mrkr),0.5253333333333333,0
Indigenous issues (marker),fndcntrd,0.36190476190476195,0
Indigenous issues (marker),chldrnsss(mrkr),0.6345263157894738,0
Indigenous issues (marker),prgrmmngprcss(nw),0.020000000000000004,0
Indigenous issues (marker),knwldgfrdvlpmnt(mrkr),0.5584,0
Indigenous issues (marker),dvsnnm,0.020000000000000004,0
Indigenous issues (marker),mxmmcdcntrbtn(prjct-lvl),0.05,0
Indigenous issues (marker),cntrrgnprcnt,0.05,0
Indigenous issues (marker),stts,0.020000000000000004,0
Indigenous issues (marker),brnchd,0.020000000000000004,0
Indigenous issues (marker),trddvlpmnt(mrkr),0.52,0
Indigenous issues (marker),cntnntnm,0.020000000000000004,0
Indigenous issues (marker),rgnstnclss,0.020000000000000004,0
Indigenous issues (marker),cntrrgnd,0.020000000000000004,0
Indigenous issues (marker),pbtp,0.020000000000000004,0
Indigenous issues (marker),rgnlprgrm(mrkr),0.5323508771929826,0
Indigenous issues (marker),bdvrst(mrkr),0.5626666666666666,0
Indigenous issues (marker),cntnntd,0.2941176470588236,0
Indigenous issues (marker),cntrrgnnm,0.020000000000000004,0
Indigenous issues (marker),prtcptrdvlpmntndgdgvrnnc,0.3207843137254902,0
Indigenous issues (marker),rbnsss(mrkr),0.6560000000000001,0
Indigenous issues (marker),thsss(mrkr),0.651878787878788,0
Indigenous issues (marker),dsbltsss(mrkr),0.6286984126984128,0
Indigenous issues (marker),gndrqlt(mrkr),0.5312941176470589,0
Indigenous issues (marker),rgnstnd,0.020000000000000004,0
Indigenous issues (marker),rgnstnnm,0.020000000000000004,0
Indigenous issues (marker),rgnstntp,0.020000000000000004,0
Indigenous issues (marker),rgnstnsb-clss,0.020000000000000004,0
Indigenous issues (marker),prjctbrwsrcntrd,0.020000000000000004,0
Indigenous issues (marker),sctrnm,0.020000000000000004,0
Indigenous issues (marker),sctrprcnt,0.05,0
Indigenous issues (marker),mntspnt,0.05,0
Sector ID,fsclr,0.020000000000000004,0
Sector ID,dsrtfctn(mrkr),0.45142857142857146,0
Sector ID,prjctnmbr,0.020000000000000004,0
Sector ID,ntdmnt(prjct-lvlbdgt),0.05,0
Sector ID,ndgnssss(mrkr),0.36,0
Sector ID,sctrd,0.664069264069264,1
Sector ID,ctstlfrdvlpmnt(mrkr),0.385,0
Sector ID,fndcntrd,0.48190476190476195,0
Sector ID,chldrnsss(mrkr),0.38303030303030305,0
Sector ID,prgrmmngprcss(nw),0.020000000000000004,0
Sector ID,knwldgfrdvlpmnt(mrkr),0.32705882352941174,0
Sector ID,dvsnnm,0.020000000000000004,0
Sector ID,mxmmcdcntrbtn(prjct-lvl),0.05,0
Sector ID,cntrrgnprcnt,0.05,0
Sector ID,stts,0.020000000000000004,0
Sector ID,brnchd,0.020000000000000004,0
Sector ID,trddvlpmnt(mrkr),0.37333333333333335,0
Sector ID,cntnntnm,0.020000000000000004,0
Sector ID,rgnstnclss,0.020000000000000004,0
Sector ID,cntrrgnd,0.020000000000000004,0
Sector ID,pbtp,0.020000000000000004,0
Sector ID,rgnlprgrm(mrkr),0.30666666666666664,0
Sector ID,bdvrst(mrkr),0.42333333333333334,0
Sector ID,cntnntd,0.4233618233618234,0
Sector ID,cntrrgnnm,0.020000000000000004,0
Sector ID,prtcptrdvlpmntndgdgvrnnc,0.3271794871794872,0
Sector ID,rbnsss(mrkr),0.31333333333333335,0
Sector ID,thsss(mrkr),0.31636363636363635,0
Sector ID,dsbltsss(mrkr),0.3942857142857143,0
Sector ID,gndrqlt(mrkr),0.3688888888888889,0
Sector ID,rgnstnd,0.020000000000000004,0
Sector ID,rgnstnnm,0.020000000000000004,0
Sector ID,rgnstntp,0.020000000000000004,0
Sector ID,rgnstnsb-clss,0.020000000000000004,0
Sector ID,prjctbrwsrcntrd,0.020000000000000004,0
Sector ID,sctrnm,0.020000000000000004,0
Sector ID,sctrprcnt,0.05,0
Sector ID,mntspnt,0.05,0
ICT as a tool for development (marker),fsclr,0.020000000000000004,0
ICT as a tool for development (marker),dsrtfctn(mrkr),0.560595427963849,0
ICT as a tool for development (marker),prjctnmbr,0.020000000000000004,0
ICT as a tool for development (marker),ntdmnt(prjct-lvlbdgt),0.05,0
ICT as a tool for development (marker),ndgnssss(mrkr),0.4694736842105263,0
ICT as a tool for development (marker),sctrd,0.4446464646464647,0
ICT as a tool for development (marker),ctstlfrdvlpmnt(mrkr),0.6236688453159043,1
ICT as a tool for development (marker),fndcntrd,0.4164137616769196,0
ICT as a tool for development (marker),chldrnsss(mrkr),0.5094017094017094,0
ICT as a tool for development (marker),prgrmmngprcss(nw),0.020000000000000004,0
ICT as a tool for development (marker),knwldgfrdvlpmnt(mrkr),0.58577297945719,0
ICT as a tool for development (marker),dvsnnm,0.020000000000000004,0
ICT as a tool for development (marker),mxmmcdcntrbtn(prjct-lvl),0.05,0
ICT as a tool for development (marker),cntrrgnprcnt,0.05,0
ICT as a tool for development (marker),stts,0.020000000000000004,0
ICT as a tool for development (marker),brnchd,0.020000000000000004,0
ICT as a tool for development (marker),trddvlpmnt(mrkr),0.6497191697191698,0
ICT as a tool for development (marker),cntnntnm,0.020000000000000004,0
ICT as a tool for development (marker),rgnstnclss,0.020000000000000004,0
ICT as a tool for development (marker),cntrrgnd,0.020000000000000004,0
ICT as a tool for development (marker),pbtp,0.020000000000000004,0
ICT as a tool for development (marker),rgnlprgrm(mrkr),0.5138461538461538,0
ICT as a tool for development (marker),bdvrst(mrkr),0.5637472766884533,0
ICT as a tool for development (marker),cntnntd,0.3926464646464647,0
ICT as a tool for development (marker),cntrrgnnm,0.020000000000000004,0
ICT as a tool for development (marker),prtcptrdvlpmntndgdgvrnnc,0.3958941798941799,0
ICT as a tool for development (marker),rbnsss(mrkr),0.45333333333333337,0
ICT as a tool for development (marker),thsss(mrkr),0.5274074074074074,0
ICT as a tool for development (marker),dsbltsss(mrkr),0.5440085061137693,0
ICT as a tool for development (marker),gndrqlt(mrkr),0.5531313131313131,0
ICT as a tool for development (marker),rgnstnd,0.020000000000000004,0
ICT as a tool for development (marker),rgnstnnm,0.020000000000000004,0
ICT as a tool for development (marker),rgnstntp,0.020000000000000004,0
ICT as a tool for development (marker),rgnstnsb-clss,0.020000000000000004,0
ICT as a tool for development (marker),prjctbrwsrcntrd,0.020000000000000004,0
ICT as a tool for development (marker),sctrnm,0.020000000000000004,0
ICT as a tool for development (marker),sctrprcnt,0.05,0
ICT as a tool for development (marker),mntspnt,0.05,0
Fund centre ID,fsclr,0.020000000000000004,0
Fund centre ID,dsrtfctn(mrkr),0.4163809523809524,0
Fund centre ID,prjctnmbr,0.020000000000000004,0
Fund centre ID,ntdmnt(prjct-lvlbdgt),0.05,0
Fund centre ID,ndgnssss(mrkr),0.4026666666666667,0
Fund centre ID,sctrd,0.5197691197691198,0
Fund centre ID,ctstlfrdvlpmnt(mrkr),0.38355555555555554,0
Fund centre ID,fndcntrd,0.5685714285714285,1
Fund centre ID,chldrnsss(mrkr),0.37103962703962706,0
Fund centre ID,prgrmmngprcss(nw),0.020000000000000004,0
Fund centre ID,knwldgfrdvlpmnt(mrkr),0.3501919504643963,0
Fund centre ID,dvsnnm,0.020000000000000004,0
Fund centre ID,mxmmcdcntrbtn(prjct-lvl),0.05,0
Fund centre ID,cntrrgnprcnt,0.05,0
Fund centre ID,stts,0.020000000000000004,0
Fund centre ID,brnchd,0.020000000000000004,0
Fund centre ID,trddvlpmnt(mrkr),0.3615238095238095,0
Fund centre ID,cntnntnm,0.020000000000000004,0
Fund centre ID,rgnstnclss,0.020000000000000004,0
Fund centre ID,cntrrgnd,0.020000000000000004,0
Fund centre ID,pbtp,0.020000000000000004,0
Fund centre ID,rgnlprgrm(mrkr),0.34194871794871795,0
Fund centre ID,bdvrst(mrkr),0.376,0
Fund centre ID,cntnntd,0.5017871017871018,0
Fund centre ID,cntrrgnnm,0.020000000000000004,0
Fund centre ID,prtcptrdvlpmntndgdgvrnnc,0.35062271062271066,0
Fund centre ID,rbnsss(mrkr),0.32799999999999996,0
Fund centre ID,thsss(mrkr),0.29309090909090907,0
Fund centre ID,dsbltsss(mrkr),0.3546666666666667,0
Fund centre ID,gndrqlt(mrkr),0.4331499611499612,0
Fund centre ID,rgnstnd,0.020000000000000004,0
Fund centre ID,rgnstnnm,0.020000000000000004,0
Fund centre ID,rgnstntp,0.020000000000000004,0
Fund centre ID,rgnstnsb-clss,0.020000000000000004,0
Fund centre ID,prjctbrwsrcntrd,0.020000000000000004,0
Fund centre ID,sctrnm,0.020000000000000004,0
Fund centre ID,sctrprcnt,0.05,0
Fund centre ID,mntspnt,0.05,0
Children issues (marker),fsclr,0.020000000000000004,0
Children issues (marker),dsrtfctn(mrkr),0.5988571428571429,0
Children issues (marker),prjctnmbr,0.020000000000000004,0
Children issues (marker),ntdmnt(prjct-lvlbdgt),0.05,0
Children issues (marker),ndgnssss(mrkr),0.6331428571428572,0
Children issues (marker),sctrd,0.3958041958041958,0
Children issues (marker),ctstlfrdvlpmnt(mrkr),0.5883636363636364,0
Children issues (marker),fndcntrd,0.3285714285714286,0
Children issues (marker),chldrnsss(mrkr),0.7458823529411764,1
Children issues (marker),prgrmmngprcss(nw),0.020000000000000004,0
Children issues (marker),knwldgfrdvlpmnt(mrkr),0.5673043478260871,0
Children issues (marker),dvsnnm,0.020000000000000004,0
Children issues (marker),mxmmcdcntrbtn(prjct-lvl),0.05,0
Children issues (marker),cntrrgnprcnt,0.05,0
Children issues (marker),stts,0.020000000000000004,0
Children issues (marker),brnchd,0.020000000000000004,0
Children issues (marker),trddvlpmnt(mrkr),0.5271111111111111,0
Children issues (marker),cntnntnm,0.020000000000000004,0
Children issues (marker),rgnstnclss,0.020000000000000004,0
Children issues (marker),cntrrgnd,0.020000000000000004,0
Children issues (marker),pbtp,0.020000000000000004,0
Children issues (marker),rgnlprgrm(mrkr),0.5363137254901962,0
Children issues (marker),bdvrst(mrkr),0.5740952380952382,0
Children issues (marker),cntnntd,0.3066666666666667,0
Children issues (marker),cntrrgnnm,0.020000000000000004,0
Children issues (marker),prtcptrdvlpmntndgdgvrnnc,0.3516666666666667,0
Children issues (marker),rbnsss(mrkr),0.6617142857142857,0
Children issues (marker),thsss(mrkr),0.6572121212121212,0
Children issues (marker),dsbltsss(mrkr),0.6198095238095238,0
Children issues (marker),gndrqlt(mrkr),0.5413333333333334,0
Children issues (marker),rgnstnd,0.020000000000000004,0
Children issues (marker),rgnstnnm,0.020000000000000004,0
Children issues (marker),rgnstntp,0.020000000000000004,0
Children issues (marker),rgnstnsb-clss,0.020000000000000004,0
Children issues (marker),prjctbrwsrcntrd,0.020000000000000004,0
Children issues (marker),sctrnm,0.020000000000000004,0
Children issues (marker),sctrprcnt,0.05,0
Children issues (marker),mntspnt,0.05,0
Programming process (new),fsclr,0.2916666666666667,0
Programming process (new),dsrtfctn(mrkr),0.020000000000000004,0
Programming process (new),prjctnmbr,0.44333333333333336,0
Programming process (new),ntdmnt(prjct-lvlbdgt),0.033333333333333326,0
Programming process (new),ndgnssss(mrkr),0.020000000000000004,0
Programming process (new),sctrd,0.020000000000000004,0
Programming process (new),ctstlfrdvlpmnt(mrkr),0.020000000000000004,0
Programming process (new),fndcntrd,0.020000000000000004,0
Programming process (new),chldrnsss(mrkr),0.020000000000000004,0
Programming process (new),prgrmmngprcss(nw),0.5786666666666667,1
Programming process (new),knwldgfrdvlpmnt(mrkr),0.020000000000000004,0
Programming process (new),dvsnnm,0.34318753142282554,0
Programming process (new),mxmmcdcntrbtn(prjct-lvl),0.033333333333333326,0
Programming process (new),cntrrgnprcnt,0.033333333333333326,0
Programming process (new),stts,0.34545454545454546,0
Programming process (new),brnchd,0.41458019105077937,0
Programming process (new),trddvlpmnt(mrkr),0.020000000000000004,0
Programming process (new),cntnntnm,0.32044657097288676,0
Programming process (new),rgnstnclss,0.476147382029735,0
Programming process (new),cntrrgnd,0.3893460925039872,0
Programming process (new),pbtp,0.2993939393939394,0
Programming process (new),rgnlprgrm(mrkr),0.020000000000000004,0
Programming process (new),bdvrst(mrkr),0.020000000000000004,0
Programming process (new),cntnntd,0.020000000000000004,0
Programming process (new),cntrrgnnm,0.37833333333333335,0
Programming process (new),prtcptrdvlpmntndgdgvrnnc,0.020000000000000004,0
Programming process (new),rbnsss(mrkr),0.020000000000000004,0
Programming process (new),thsss(mrkr),0.020000000000000004,0
Programming process (new),dsbltsss(mrkr),0.020000000000000004,0
Programming process (new),gndrqlt(mrkr),0.020000000000000004,0
Programming process (new),rgnstnd,0.43047619047619046,0
Programming process (new),rgnstnnm,0.41601275917065395,0
Programming process (new),rgnstntp,0.41601275917065395,0
Programming process (new),rgnstnsb-clss,0.43500000000000005,0
Programming process (new),prjctbrwsrcntrd,0.42921522921522925,0
Programming process (new),sctrnm,0.36933132227249876,0
Programming process (new),sctrprcnt,0.033333333333333326,0
Programming process (new),mntspnt,0.033333333333333326,0
Knowledge for development (marker),fsclr,0.020000000000000004,0
Knowledge for development (marker),dsrtfctn(mrkr),0.5479838056680162,0
Knowledge for development (marker),prjctnmbr,0.020000000000000004,0
Knowledge for development (marker),ntdmnt(prjct-lvlbdgt),0.05,0
Knowledge for development (marker),ndgnssss(mrkr),0.602625386996904,0
Knowledge for development (marker),sctrd,0.3262987012987013,0
Knowledge for development (marker),ctstlfrdvlpmnt(mrkr),0.6630260869565219,0
Knowledge for development (marker),fndcntrd,0.4019460415745246,0
Knowledge for development (marker),chldrnsss(mrkr),0.5591111111111111,0
Knowledge for development (marker),prgrmmngprcss(nw),0.020000000000000004,0
Knowledge for development (marker),knwldgfrdvlpmnt(mrkr),0.7083076923076923,1
Knowledge for development (marker),dvsnnm,0.020000000000000004,0
Knowledge for development (marker),mxmmcdcntrbtn(prjct-lvl),0.05,0
Knowledge for development (marker),cntrrgnprcnt,0.05,0
Knowledge for development (marker),stts,0.020000000000000004,0
Knowledge for development (marker),brnchd,0.020000000000000004,0
Knowledge for development (marker),trddvlpmnt(mrkr),0.693948717948718,0
Knowledge for development (marker),cntnntnm,0.020000000000000004,0
Knowledge for development (marker),rgnstnclss,0.020000000000000004,0
Knowledge for development (marker),cntrrgnd,0.020000000000000004,0
Knowledge for development (marker),pbtp,0.020000000000000004,0
Knowledge for development (marker),rgnlprgrm(mrkr),0.6106666666666667,0
Knowledge for development (marker),bdvrst(mrkr),0.5935565610859729,0
Knowledge for development (marker),cntnntd,0.34444444444444444,0
Knowledge for development (marker),cntrrgnnm,0.020000000000000004,0
Knowledge for development (marker),prtcptrdvlpmntndgdgvrnnc,0.4230303030303031,0
Knowledge for development (marker),rbnsss(mrkr),0.5286153846153847,0
Knowledge for development (marker),thsss(mrkr),0.5219487179487181,0
Knowledge for development (marker),dsbltsss(mrkr),0.581668016194332,0
Knowledge for development (marker),gndrqlt(mrkr),0.6026666666666667,0
Knowledge for development (marker),rgnstnd,0.020000000000000004,0
Knowledge for development (marker),rgnstnnm,0.020000000000000004,0
Knowledge for development (marker),rgnstntp,0.020000000000000004,0
Knowledge for development (marker),rgnstnsb-clss,0.020000000000000004,0
Knowledge for development (marker),prjctbrwsrcntrd,0.020000000000000004,0
Knowledge for development (marker),sctrnm,0.020000000000000004,0
Knowledge for development (marker),sctrprcnt,0.05,0
Knowledge for development (marker),mntspnt,0.05,0
Division name,fsclr,0.28205128205128205,0
Division name,dsrtfctn(mrkr),0.020000000000000004,0
Division name,prjctnmbr,0.395475113122172,0
Division name,ntdmnt(prjct-lvlbdgt),0.033333333333333326,0
Division name,ndgnssss(mrkr),0.020000000000000004,0
Division name,sctrd,0.020000000000000004,0
Division name,ctstlfrdvlpmnt(mrkr),0.020000000000000004,0
Division name,fndcntrd,0.020000000000000004,0
Division name,chldrnsss(mrkr),0.020000000000000004,0
Division name,prgrmmngprcss(nw),0.4748114630467572,0
Division name,knwldgfrdvlpmnt(mrkr),0.020000000000000004,0
Division name,dvsnnm,0.6114285714285714,1
Division name,mxmmcdcntrbtn(prjct-lvl),0.033333333333333326,0
Division name,cntrrgnprcnt,0.033333333333333326,0
Division name,stts,0.28888888888888886,0
Division name,brnchd,0.34476190476190477,0
Division name,trddvlpmnt(mrkr),0.020000000000000004,0
Division name,cntnntnm,0.41111111111111115,0
Division name,rgnstnclss,0.35661375661375666,0
Division name,cntrrgnd,0.32222222222222224,0
Division name,pbtp,0.2,0
Division name,rgnlprgrm(mrkr),0.020000000000000004,0
Division name,bdvrst(mrkr),0.020000000000000004,0
Division name,cntnntd,0.020000000000000004,0
Division name,cntrrgnnm,0.395475113122172,0
Division name,prtcptrdvlpmntndgdgvrnnc,0.020000000000000004,0
Division name,rbnsss(mrkr),0.020000000000000004,0
Division name,thsss(mrkr),0.020000000000000004,0
Division name,dsbltsss(mrkr),0.020000000000000004,0
Division name,gndrqlt(mrkr),0.020000000000000004,0
Division name,rgnstnd,0.3907070707070707,0
Division name,rgnstnnm,0.4444444444444445,0
Division name,rgnstntp,0.37777777777777777,0
Division name,rgnstnsb-clss,0.33295985060690947,0
Division name,prjctbrwsrcntrd,0.3208237986270023,0
Division name,sctrnm,0.4895238095238096,0
Division name,sctrprcnt,0.033333333333333326,0
Division name,mntspnt,0.033333333333333326,0
Maximum CIDA contribution (project-level),fsclr,0.033333333333333326,0
Maximum CIDA contribution (project-level),dsrtfctn(mrkr),0.05,0
Maximum CIDA contribution (project-level),prjctnmbr,0.033333333333333326,0
Maximum CIDA contribution (project-level),ntdmnt(prjct-lvlbdgt),0.525389643036702,0
Maximum CIDA contribution (project-level),ndgnssss(mrkr),0.05,0
Maximum CIDA contribution (project-level),sctrd,0.05,0
Maximum CIDA contribution (project-level),ctstlfrdvlpmnt(mrkr),0.05,0
Maximum CIDA contribution (project-level),fndcntrd,0.05,0
Maximum CIDA contribution (project-level),chldrnsss(mrkr),0.05,0
Maximum CIDA contribution (project-level),prgrmmngprcss(nw),0.033333333333333326,0
Maximum CIDA contribution (project-level),knwldgfrdvlpmnt(mrkr),0.05,0
Maximum CIDA contribution (project-level),dvsnnm,0.033333333333333326,0
Maximum CIDA contribution (project-level),mxmmcdcntrbtn(prjct-lvl),0.6522210338680927,1
Maximum CIDA contribution (project-level),cntrrgnprcnt,0.40453333333333336,0
Maximum CIDA contribution (project-level),stts,0.033333333333333326,0
Maximum CIDA contribution (project-level),brnchd,0.033333333333333326,0
Maximum CIDA contribution (project-level),trddvlpmnt(mrkr),0.05,0
Maximum CIDA contribution (project-level),cntnntnm,0.033333333333333326,0
Maximum CIDA contribution (project-level),rgnstnclss,0.033333333333333326,0
Maximum CIDA contribution (project-level),cntrrgnd,0.033333333333333326,0
Maximum CIDA contribution (project-level),pbtp,0.033333333333333326,0
Maximum CIDA contribution (project-level),rgnlprgrm(mrkr),0.05,0
Maximum CIDA contribution (project-level),bdvrst(mrkr),0.05,0
Maximum CIDA contribution (project-level),cntnntd,0.05,0
Maximum CIDA contribution (project-level),cntrrgnnm,0.033333333333333326,0
Maximum CIDA contribution (project-level),prtcptrdvlpmntndgdgvrnnc,0.05,0
Maximum CIDA contribution (project-level),rbnsss(mrkr),0.05,0
Maximum CIDA contribution (project-level),thsss(mrkr),0.05,0
Maximum CIDA contribution (project-level),dsbltsss(mrkr),0.05,0
Maximum CIDA contribution (project-level),gndrqlt(mrkr),0.05,0
Maximum CIDA contribution (project-level),rgnstnd,0.033333333333333326,0
Maximum CIDA contribution (project-level),rgnstnnm,0.033333333333333326,0
Maximum CIDA contribution (project-level),rgnstntp,0.033333333333333326,0
Maximum CIDA contribution (project-level),rgnstnsb-clss,0.033333333333333326,0
Maximum CIDA contribution (project-level),prjctbrwsrcntrd,0.033333333333333326,0
Maximum CIDA contribution (project-level),sctrnm,0.033333333333333326,0
Maximum CIDA contribution (project-level),sctrprcnt,0.40470196470196473,0
Maximum CIDA contribution (project-level),mntspnt,0.35590977443609023,0
CountryRegion percent,fsclr,0.033333333333333326,0
CountryRegion percent,dsrtfctn(mrkr),0.05,0
CountryRegion percent,prjctnmbr,0.033333333333333326,0
CountryRegion percent,ntdmnt(prjct-lvlbdgt),0.46014574898785426,0
CountryRegion percent,ndgnssss(mrkr),0.05,0
CountryRegion percent,sctrd,0.05,0
CountryRegion percent,ctstlfrdvlpmnt(mrkr),0.05,0
CountryRegion percent,fndcntrd,0.05,0
CountryRegion percent,chldrnsss(mrkr),0.05,0
CountryRegion percent,prgrmmngprcss(nw),0.033333333333333326,0
CountryRegion percent,knwldgfrdvlpmnt(mrkr),0.05,0
CountryRegion percent,dvsnnm,0.033333333333333326,0
CountryRegion percent,mxmmcdcntrbtn(prjct-lvl),0.5216842105263158,0
CountryRegion percent,cntrrgnprcnt,0.5614035087719298,1
CountryRegion percent,stts,0.033333333333333326,0
CountryRegion percent,brnchd,0.033333333333333326,0
CountryRegion percent,trddvlpmnt(mrkr),0.05,0
CountryRegion percent,cntnntnm,0.033333333333333326,0
CountryRegion percent,rgnstnclss,0.033333333333333326,0
CountryRegion percent,cntrrgnd,0.033333333333333326,0
CountryRegion percent,pbtp,0.033333333333333326,0
CountryRegion percent,rgnlprgrm(mrkr),0.05,0
CountryRegion percent,bdvrst(mrkr),0.05,0
CountryRegion percent,cntnntd,0.05,0
CountryRegion percent,cntrrgnnm,0.033333333333333326,0
CountryRegion percent,prtcptrdvlpmntndgdgvrnnc,0.05,0
CountryRegion percent,rbnsss(mrkr),0.05,0
CountryRegion percent,thsss(mrkr),0.05,0
CountryRegion percent,dsbltsss(mrkr),0.05,0
CountryRegion percent,gndrqlt(mrkr),0.05,0
CountryRegion percent,rgnstnd,0.033333333333333326,0
CountryRegion percent,rgnstnnm,0.033333333333333326,0
CountryRegion percent,rgnstntp,0.033333333333333326,0
CountryRegion percent,rgnstnsb-clss,0.033333333333333326,0
CountryRegion percent,prjctbrwsrcntrd,0.033333333333333326,0
CountryRegion percent,sctrnm,0.033333333333333326,0
CountryRegion percent,sctrprcnt,0.5783333333333334,0
CountryRegion percent,mntspnt,0.4593406593406594,0
Status,fsclr,0.34545454545454546,0
Status,dsrtfctn(mrkr),0.020000000000000004,0
Status,prjctnmbr,0.30666666666666664,0
Status,ntdmnt(prjct-lvlbdgt),0.033333333333333326,0
Status,ndgnssss(mrkr),0.020000000000000004,0
Status,sctrd,0.020000000000000004,0
Status,ctstlfrdvlpmnt(mrkr),0.020000000000000004,0
Status,fndcntrd,0.020000000000000004,0
Status,chldrnsss(mrkr),0.020000000000000004,0
Status,prgrmmngprcss(nw),0.4339181286549707,0
Status,knwldgfrdvlpmnt(mrkr),0.020000000000000004,0
Status,dvsnnm,0.3333333333333333,0
Status,mxmmcdcntrbtn(prjct-lvl),0.033333333333333326,0
Status,cntrrgnprcnt,0.033333333333333326,0
Status,stts,0.8400000000000001,1
Status,brnchd,0.2,0
Status,trddvlpmnt(mrkr),0.020000000000000004,0
Status,cntnntnm,0.4285714285714286,0
Status,rgnstnclss,0.5,0
Status,cntrrgnd,0.31428571428571433,0
Status,pbtp,0.36,0
Status,rgnlprgrm(mrkr),0.020000000000000004,0
Status,bdvrst(mrkr),0.020000000000000004,0
Status,cntnntd,0.020000000000000004,0
Status,cntrrgnnm,0.30666666666666664,0
Status,prtcptrdvlpmntndgdgvrnnc,0.020000000000000004,0
Status,rbnsss(mrkr),0.020000000000000004,0
Status,thsss(mrkr),0.020000000000000004,0
Status,dsbltsss(mrkr),0.020000000000000004,0
Status,gndrqlt(mrkr),0.020000000000000004,0
Status,rgnstnd,0.4461538461538462,0
Status,rgnstnnm,0.4285714285714286,0
Status,rgnstntp,0.5428571428571429,0
Status,rgnstnsb-clss,0.45263157894736844,0
Status,prjctbrwsrcntrd,0.3523809523809524,0
Status,sctrnm,0.46666666666666673,0
Status,sctrprcnt,0.033333333333333326,0
Status,mntspnt,0.033333333333333326,0
Branch ID,fsclr,0.29696969696969694,0
Branch ID,dsrtfctn(mrkr),0.020000000000000004,0
Branch ID,prjctnmbr,0.34222222222222226,0
Branch ID,ntdmnt(prjct-lvlbdgt),0.033333333333333326,0
Branch ID,ndgnssss(mrkr),0.020000000000000004,0
Branch ID,sctrd,0.020000000000000004,0
Branch ID,ctstlfrdvlpmnt(mrkr),0.020000000000000004,0
Branch ID,fndcntrd,0.020000000000000004,0
Branch ID,chldrnsss(mrkr),0.020000000000000004,0
Branch ID,prgrmmngprcss(nw),0.43679197994987473,0
Branch ID,knwldgfrdvlpmnt(mrkr),0.020000000000000004,0
Branch ID,dvsnnm,0.37777777777777777,0
Branch ID,mxmmcdcntrbtn(prjct-lvl),0.033333333333333326,0
Branch ID,cntrrgnprcnt,0.033333333333333326,0
Branch ID,stts,0.2,0
Branch ID,brnchd,0.7111111111111112,1
Branch ID,trddvlpmnt(mrkr),0.020000000000000004,0
Branch ID,cntnntnm,0.2761904761904762,0
Branch ID,rgnstnclss,0.4,0
Branch ID,cntrrgnd,0.4057142857142857,0
Branch ID,pbtp,0.30666666666666664,0
Branch ID,rgnlprgrm(mrkr),0.020000000000000004,0
Branch ID,bdvrst(mrkr),0.020000000000000004,0
Branch ID,cntnntd,0.020000000000000004,0
Branch ID,cntrrgnnm,0.34222222222222226,0
Branch ID,prtcptrdvlpmntndgdgvrnnc,0.020000000000000004,0
Branch ID,rbnsss(mrkr),0.020000000000000004,0
Branch ID,thsss(mrkr),0.020000000000000004,0
Branch ID,dsbltsss(mrkr),0.020000000000000004,0
Branch ID,gndrqlt(mrkr),0.020000000000000004,0
Branch ID,rgnstnd,0.4233618233618234,0
Branch ID,rgnstnnm,0.3523809523809524,0
Branch ID,rgnstntp,0.3523809523809524,0
Branch ID,rgnstnsb-clss,0.368421052631579,0
Branch ID,prjctbrwsrcntrd,0.38375350140056025,0
Branch ID,sctrnm,0.3777777777777778,0
Branch ID,sctrprcnt,0.033333333333333326,0
Branch ID,mntspnt,0.033333333333333326,0
Trade development (marker),fsclr,0.020000000000000004,0
Trade development (marker),dsrtfctn(mrkr),0.5589239766081873,0
Trade development (marker),prjctnmbr,0.020000000000000004,0
Trade development (marker),ntdmnt(prjct-lvlbdgt),0.05,0
Trade development (marker),ndgnssss(mrkr),0.5589239766081873,0
Trade development (marker),sctrd,0.5013636363636365,0
Trade development (marker),ctstlfrdvlpmnt(mrkr),0.6857263157894737,0
Trade development (marker),fndcntrd,0.47634470792365535,0
Trade development (marker),chldrnsss(mrkr),0.5555555555555556,0
Trade development (marker),prgrmmngprcss(nw),0.020000000000000004,0
Trade development (marker),knwldgfrdvlpmnt(mrkr),0.6638632478632479,0
Trade development (marker),dvsnnm,0.020000000000000004,0
Trade development (marker),mxmmcdcntrbtn(prjct-lvl),0.05,0
Trade development (marker),cntrrgnprcnt,0.05,0
Trade development (marker),stts,0.020000000000000004,0
Trade development (marker),brnchd,0.020000000000000004,0
Trade development (marker),trddvlpmnt(mrkr),0.7333333333333334,1
Trade development (marker),cntnntnm,0.020000000000000004,0
Trade development (marker),rgnstnclss,0.020000000000000004,0
Trade development (marker),cntrrgnd,0.020000000000000004,0
Trade development (marker),pbtp,0.020000000000000004,0
Trade development (marker),rgnlprgrm(mrkr),0.5875555555555556,0
Trade development (marker),bdvrst(mrkr),0.6044967320261438,0
Trade development (marker),cntnntd,0.3777777777777778,0
Trade development (marker),cntrrgnnm,0.020000000000000004,0
Trade development (marker),prtcptrdvlpmntndgdgvrnnc,0.42804597701149427,0
Trade development (marker),rbnsss(mrkr),0.541979797979798,0
Trade development (marker),thsss(mrkr),0.544888888888889,0
Trade development (marker),dsbltsss(mrkr),0.5926081871345029,0
Trade development (marker),gndrqlt(mrkr),0.5982222222222222,0
Trade development (marker),rgnstnd,0.020000000000000004,0
Trade development (marker),rgnstnnm,0.020000000000000004,0
Trade development (marker),rgnstntp,0.020000000000000004,0
Trade development (marker),rgnstnsb-clss,0.020000000000000004,0
Trade development (marker),prjctbrwsrcntrd,0.020000000000000004,0
Trade development (marker),sctrnm,0.020000000000000004,0
Trade development (marker),sctrprcnt,0.05,0
Trade development (marker),mntspnt,0.05,0
Continent name,fsclr,0.2761904761904762,0
Continent name,dsrtfctn(mrkr),0.020000000000000004,0
Continent name,prjctnmbr,0.45982905982905986,0
Continent name,ntdmnt(prjct-lvlbdgt),0.033333333333333326,0
Continent name,ndgnssss(mrkr),0.020000000000000004,0
Continent name,sctrd,0.020000000000000004,0
Continent name,ctstlfrdvlpmnt(mrkr),0.020000000000000004,0
Continent name,fndcntrd,0.020000000000000004,0
Continent name,chldrnsss(mrkr),0.020000000000000004,0
Continent name,prgrmmngprcss(nw),0.4481447963800905,0
Continent name,knwldgfrdvlpmnt(mrkr),0.020000000000000004,0
Continent name,dvsnnm,0.4844444444444445,0
Continent name,mxmmcdcntrbtn(prjct-lvl),0.033333333333333326,0
Continent name,cntrrgnprcnt,0.033333333333333326,0
Continent name,stts,0.36410256410256414,0
Continent name,brnchd,0.3422222222222222,0
Continent name,trddvlpmnt(mrkr),0.020000000000000004,0
Continent name,cntnntnm,0.665359477124183,1
Continent name,rgnstnclss,0.40651629072681705,0
Continent name,cntrrgnd,0.4954248366013072,0
Continent name,pbtp,0.28205128205128205,0
Continent name,rgnlprgrm(mrkr),0.020000000000000004,0
Continent name,bdvrst(mrkr),0.020000000000000004,0
Continent name,cntnntd,0.020000000000000004,0
Continent name,cntrrgnnm,0.5783475783475784,0
Continent name,prtcptrdvlpmntndgdgvrnnc,0.020000000000000004,0
Continent name,rbnsss(mrkr),0.020000000000000004,0
Continent name,thsss(mrkr),0.020000000000000004,0
Continent name,dsbltsss(mrkr),0.020000000000000004,0
Continent name,gndrqlt(mrkr),0.020000000000000004,0
Continent name,rgnstnd,0.4484848484848485,0
Continent name,rgnstnnm,0.5398692810457517,0
Continent name,rgnstntp,0.4954248366013072,0
Continent name,rgnstnsb-clss,0.3768270944741533,0
Continent name,prjctbrwsrcntrd,0.40584795321637435,0
Continent name,sctrnm,0.52,0
Continent name,sctrprcnt,0.033333333333333326,0
Continent name,mntspnt,0.033333333333333326,0
Organisation class,fsclr,0.44470588235294123,0
Organisation class,dsrtfctn(mrkr),0.020000000000000004,0
Organisation class,prjctnmbr,0.39047619047619053,0
Organisation class,ntdmnt(prjct-lvlbdgt),0.033333333333333326,0
Organisation class,ndgnssss(mrkr),0.020000000000000004,0
Organisation class,sctrd,0.020000000000000004,0
Organisation class,ctstlfrdvlpmnt(mrkr),0.020000000000000004,0
Organisation class,fndcntrd,0.020000000000000004,0
Organisation class,chldrnsss(mrkr),0.020000000000000004,0
Organisation class,prgrmmngprcss(nw),0.46666666666666673,0
Organisation class,knwldgfrdvlpmnt(mrkr),0.020000000000000004,0
Organisation class,dvsnnm,0.367003367003367,0
Organisation class,mxmmcdcntrbtn(prjct-lvl),0.033333333333333326,0
Organisation class,cntrrgnprcnt,0.033333333333333326,0
Organisation class,stts,0.5037037037037038,0
Organisation class,brnchd,0.367003367003367,0
Organisation class,trddvlpmnt(mrkr),0.020000000000000004,0
Organisation class,cntnntnm,0.4010256410256411,0
Organisation class,rgnstnclss,0.6331313131313131,1
Organisation class,cntrrgnd,0.4010256410256411,0
Organisation class,pbtp,0.26666666666666666,0
Organisation class,rgnlprgrm(mrkr),0.020000000000000004,0
Organisation class,bdvrst(mrkr),0.020000000000000004,0
Organisation class,cntnntd,0.020000000000000004,0
Organisation class,cntrrgnnm,0.44126984126984126,0
Organisation class,prtcptrdvlpmntndgdgvrnnc,0.020000000000000004,0
Organisation class,rbnsss(mrkr),0.020000000000000004,0
Organisation class,thsss(mrkr),0.020000000000000004,0
Organisation class,dsbltsss(mrkr),0.020000000000000004,0
Organisation class,gndrqlt(mrkr),0.020000000000000004,0
Organisation class,rgnstnd,0.5812865497076023,0
Organisation class,rgnstnnm,0.5610256410256411,0
Organisation class,rgnstntp,0.5610256410256411,0
Organisation class,rgnstnsb-clss,0.5745185185185185,0
Organisation class,prjctbrwsrcntrd,0.3718518518518519,0
Organisation class,sctrnm,0.4262626262626263,0
Organisation class,sctrprcnt,0.033333333333333326,0
Organisation class,mntspnt,0.033333333333333326,0
CountryRegion ID,fsclr,0.36969696969696975,0
CountryRegion ID,dsrtfctn(mrkr),0.020000000000000004,0
CountryRegion ID,prjctnmbr,0.4033333333333333,0
CountryRegion ID,ntdmnt(prjct-lvlbdgt),0.033333333333333326,0
CountryRegion ID,ndgnssss(mrkr),0.020000000000000004,0
CountryRegion ID,sctrd,0.020000000000000004,0
CountryRegion ID,ctstlfrdvlpmnt(mrkr),0.020000000000000004,0
CountryRegion ID,fndcntrd,0.020000000000000004,0
CountryRegion ID,chldrnsss(mrkr),0.020000000000000004,0
CountryRegion ID,prgrmmngprcss(nw),0.45319298245614037,0
CountryRegion ID,knwldgfrdvlpmnt(mrkr),0.020000000000000004,0
CountryRegion ID,dvsnnm,0.36410256410256414,0
CountryRegion ID,mxmmcdcntrbtn(prjct-lvl),0.033333333333333326,0
CountryRegion ID,cntrrgnprcnt,0.033333333333333326,0
CountryRegion ID,stts,0.2727272727272727,0
CountryRegion ID,brnchd,0.4141025641025642,0
CountryRegion ID,trddvlpmnt(mrkr),0.020000000000000004,0
CountryRegion ID,cntnntnm,0.3885714285714286,0
CountryRegion ID,rgnstnclss,0.3970588235294118,0
CountryRegion ID,cntrrgnd,0.539047619047619,1
CountryRegion ID,pbtp,0.2727272727272727,0
CountryRegion ID,rgnlprgrm(mrkr),0.020000000000000004,0
CountryRegion ID,bdvrst(mrkr),0.020000000000000004,0
CountryRegion ID,cntnntd,0.020000000000000004,0
CountryRegion ID,cntrrgnnm,0.48,0
CountryRegion ID,prtcptrdvlpmntndgdgvrnnc,0.020000000000000004,0
CountryRegion ID,rbnsss(mrkr),0.020000000000000004,0
CountryRegion ID,thsss(mrkr),0.020000000000000004,0
CountryRegion ID,dsbltsss(mrkr),0.020000000000000004,0
CountryRegion ID,gndrqlt(mrkr),0.020000000000000004,0
CountryRegion ID,rgnstnd,0.48620268620268625,0
CountryRegion ID,rgnstnnm,0.4247619047619048,0
CountryRegion ID,rgnstntp,0.4247619047619048,0
CountryRegion ID,rgnstnsb-clss,0.3663157894736842,0
CountryRegion ID,prjctbrwsrcntrd,0.40707919531448944,0
CountryRegion ID,sctrnm,0.4512820512820513,0
CountryRegion ID,sctrprcnt,0.033333333333333326,0
CountryRegion ID,mntspnt,0.033333333333333326,0
PBA type,fsclr,0.2,0
PBA type,dsrtfctn(mrkr),0.020000000000000004,0
PBA type,prjctnmbr,0.41880341880341887,0
PBA type,ntdmnt(prjct-lvlbdgt),0.033333333333333326,0
PBA type,ndgnssss(mrkr),0.020000000000000004,0
PBA type,sctrd,0.020000000000000004,0
PBA type,ctstlfrdvlpmnt(mrkr),0.020000000000000004,0
PBA type,fndcntrd,0.020000000000000004,0
PBA type,chldrnsss(mrkr),0.020000000000000004,0
PBA type,prgrmmngprcss(nw),0.3730769230769231,0
PBA type,knwldgfrdvlpmnt(mrkr),0.020000000000000004,0
PBA type,dvsnnm,0.2,0
PBA type,mxmmcdcntrbtn(prjct-lvl),0.033333333333333326,0
PBA type,cntrrgnprcnt,0.033333333333333326,0
PBA type,stts,0.33333333333333337,0
PBA type,brnchd,0.31851851851851853,0
PBA type,trddvlpmnt(mrkr),0.020000000000000004,0
PBA type,cntnntnm,0.28888888888888886,0
PBA type,rgnstnclss,0.2761904761904762,0
PBA type,cntrrgnd,0.28888888888888886,0
PBA type,pbtp,0.638095238095238,1
PBA type,rgnlprgrm(mrkr),0.020000000000000004,0
PBA type,bdvrst(mrkr),0.020000000000000004,0
PBA type,cntnntd,0.020000000000000004,0
PBA type,cntrrgnnm,0.28205128205128205,0
PBA type,prtcptrdvlpmntndgdgvrnnc,0.020000000000000004,0
PBA type,rbnsss(mrkr),0.020000000000000004,0
PBA type,thsss(mrkr),0.020000000000000004,0
PBA type,dsbltsss(mrkr),0.020000000000000004,0
PBA type,gndrqlt(mrkr),0.020000000000000004,0
PBA type,rgnstnd,0.29696969696969694,0
PBA type,rgnstnnm,0.28888888888888886,0
PBA type,rgnstntp,0.4262626262626263,0
PBA type,rgnstnsb-clss,0.29803921568627456,0
PBA type,prjctbrwsrcntrd,0.346588693957115,0
PBA type,sctrnm,0.30666666666666664,0
PBA type,sctrprcnt,0.033333333333333326,0
PBA type,mntspnt,0.033333333333333326,0
Regional program (marker),fsclr,0.020000000000000004,0
Regional program (marker),dsrtfctn(mrkr),0.5941818181818183,0
Regional program (marker),prjctnmbr,0.020000000000000004,0
Regional program (marker),ntdmnt(prjct-lvlbdgt),0.05,0
Regional program (marker),ndgnssss(mrkr),0.5941818181818183,0
Regional program (marker),sctrd,0.3368298368298368,0
Regional program (marker),ctstlfrdvlpmnt(mrkr),0.5737489177489179,0
Regional program (marker),fndcntrd,0.30880952380952387,0
Regional program (marker),chldrnsss(mrkr),0.589475935828877,0
Regional program (marker),prgrmmngprcss(nw),0.020000000000000004,0
Regional program (marker),knwldgfrdvlpmnt(mrkr),0.5856442687747035,0
Regional program (marker),dvsnnm,0.020000000000000004,0
Regional program (marker),mxmmcdcntrbtn(prjct-lvl),0.05,0
Regional program (marker),cntrrgnprcnt,0.05,0
Regional program (marker),stts,0.020000000000000004,0
Regional program (marker),brnchd,0.020000000000000004,0
Regional program (marker),trddvlpmnt(mrkr),0.5873844325609032,0
Regional program (marker),cntnntnm,0.020000000000000004,0
Regional program (marker),rgnstnclss,0.020000000000000004,0
Regional program (marker),cntrrgnd,0.020000000000000004,0
Regional program (marker),pbtp,0.020000000000000004,0
Regional program (marker),rgnlprgrm(mrkr),0.7312941176470589,1
Regional program (marker),bdvrst(mrkr),0.5675151515151515,0
Regional program (marker),cntnntd,0.25333333333333335,0
Regional program (marker),cntrrgnnm,0.020000000000000004,0
Regional program (marker),prtcptrdvlpmntndgdgvrnnc,0.3673924731182796,0
Regional program (marker),rbnsss(mrkr),0.6056103896103897,0
Regional program (marker),thsss(mrkr),0.5408484848484849,0
Regional program (marker),dsbltsss(mrkr),0.5608484848484849,0
Regional program (marker),gndrqlt(mrkr),0.6421818181818182,0
Regional program (marker),rgnstnd,0.020000000000000004,0
Regional program (marker),rgnstnnm,0.020000000000000004,0
Regional program (marker),rgnstntp,0.020000000000000004,0
Regional program (marker),rgnstnsb-clss,0.020000000000000004,0
Regional program (marker),prjctbrwsrcntrd,0.020000000000000004,0
Regional program (marker),sctrnm,0.020000000000000004,0
Regional program (marker),sctrprcnt,0.05,0
Regional program (marker),mntspnt,0.05,0
Biodiversity (marker),fsclr,0.020000000000000004,0
Biodiversity (marker),dsrtfctn(mrkr),0.6400000000000001,0
Biodiversity (marker),prjctnmbr,0.020000000000000004,0
Biodiversity (marker),ntdmnt(prjct-lvlbdgt),0.05,0
Biodiversity (marker),ndgnssss(mrkr),0.6000000000000001,0
Biodiversity (marker),sctrd,0.3739750445632799,0
Biodiversity (marker),ctstlfrdvlpmnt(mrkr),0.6123076923076922,0
Biodiversity (marker),fndcntrd,0.34476190476190477,0
Biodiversity (marker),chldrnsss(mrkr),0.6342857142857143,0
Biodiversity (marker),prgrmmngprcss(nw),0.020000000000000004,0
Biodiversity (marker),knwldgfrdvlpmnt(mrkr),0.6088888888888888,0
Biodiversity (marker),dvsnnm,0.020000000000000004,0
Biodiversity (marker),mxmmcdcntrbtn(prjct-lvl),0.05,0
Biodiversity (marker),cntrrgnprcnt,0.05,0
Biodiversity (marker),stts,0.020000000000000004,0
Biodiversity (marker),brnchd,0.020000000000000004,0
Biodiversity (marker),trddvlpmnt(mrkr),0.6290909090909091,0
Biodiversity (marker),cntnntnm,0.020000000000000004,0
Biodiversity (marker),rgnstnclss,0.020000000000000004,0
Biodiversity (marker),cntrrgnd,0.020000000000000004,0
Biodiversity (marker),pbtp,0.020000000000000004,0
Biodiversity (marker),rgnlprgrm(mrkr),0.5983333333333334,0
Biodiversity (marker),bdvrst(mrkr),0.7866666666666668,1
Biodiversity (marker),cntnntd,0.256140350877193,0
Biodiversity (marker),cntrrgnnm,0.020000000000000004,0
Biodiversity (marker),prtcptrdvlpmntndgdgvrnnc,0.3244444444444444,0
Biodiversity (marker),rbnsss(mrkr),0.6088888888888888,0
Biodiversity (marker),thsss(mrkr),0.568529411764706,0
Biodiversity (marker),dsbltsss(mrkr),0.6400000000000001,0
Biodiversity (marker),gndrqlt(mrkr),0.6463157894736842,0
Biodiversity (marker),rgnstnd,0.020000000000000004,0
Biodiversity (marker),rgnstnnm,0.020000000000000004,0
Biodiversity (marker),rgnstntp,0.020000000000000004,0
Biodiversity (marker),rgnstnsb-clss,0.020000000000000004,0
Biodiversity (marker),prjctbrwsrcntrd,0.020000000000000004,0
Biodiversity (marker),sctrnm,0.020000000000000004,0
Biodiversity (marker),sctrprcnt,0.05,0
Biodiversity (marker),mntspnt,0.05,0
Continent ID,fsclr,0.020000000000000004,0
Continent ID,dsrtfctn(mrkr),0.3811764705882353,0
Continent ID,prjctnmbr,0.020000000000000004,0
Continent ID,ntdmnt(prjct-lvlbdgt),0.05,0
Continent ID,ndgnssss(mrkr),0.3341176470588235,0
Continent ID,sctrd,0.4285714285714286,0
Continent ID,ctstlfrdvlpmnt(mrkr),0.3641304347826087,0
Continent ID,fndcntrd,0.4415686274509804,0
Continent ID,chldrnsss(mrkr),0.32525252525252524,0
Continent ID,prgrmmngprcss(nw),0.020000000000000004,0
Continent ID,knwldgfrdvlpmnt(mrkr),0.3235294117647059,0
Continent ID,dvsnnm,0.020000000000000004,0
Continent ID,mxmmcdcntrbtn(prjct-lvl),0.05,0
Continent ID,cntrrgnprcnt,0.05,0
Continent ID,stts,0.020000000000000004,0
Continent ID,brnchd,0.020000000000000004,0
Continent ID,trddvlpmnt(mrkr),0.35964912280701755,0
Continent ID,cntnntnm,0.020000000000000004,0
Continent ID,rgnstnclss,0.020000000000000004,0
Continent ID,cntrrgnd,0.020000000000000004,0
Continent ID,pbtp,0.020000000000000004,0
Continent ID,rgnlprgrm(mrkr),0.24444444444444446,0
Continent ID,bdvrst(mrkr),0.32666666666666666,0
Continent ID,cntnntd,0.6592592592592592,1
Continent ID,cntrrgnnm,0.020000000000000004,0
Continent ID,prtcptrdvlpmntndgdgvrnnc,0.3821289821289821,0
Continent ID,rbnsss(mrkr),0.25333333333333335,0
Continent ID,thsss(mrkr),0.2571428571428572,0
Continent ID,dsbltsss(mrkr),0.3035294117647059,0
Continent ID,gndrqlt(mrkr),0.34444444444444444,0
Continent ID,rgnstnd,0.020000000000000004,0
Continent ID,rgnstnnm,0.020000000000000004,0
Continent ID,rgnstntp,0.020000000000000004,0
Continent ID,rgnstnsb-clss,0.020000000000000004,0
Continent ID,prjctbrwsrcntrd,0.020000000000000004,0
Continent ID,sctrnm,0.020000000000000004,0
Continent ID,sctrprcnt,0.05,0
Continent ID,mntspnt,0.05,0
CountryRegion name,fsclr,0.36969696969696975,0
CountryRegion name,dsrtfctn(mrkr),0.020000000000000004,0
CountryRegion name,prjctnmbr,0.4648717948717949,0
CountryRegion name,ntdmnt(prjct-lvlbdgt),0.033333333333333326,0
CountryRegion name,ndgnssss(mrkr),0.020000000000000004,0
CountryRegion name,sctrd,0.020000000000000004,0
CountryRegion name,ctstlfrdvlpmnt(mrkr),0.020000000000000004,0
CountryRegion name,fndcntrd,0.020000000000000004,0
CountryRegion name,chldrnsss(mrkr),0.020000000000000004,0
CountryRegion name,prgrmmngprcss(nw),0.5048852901484481,0
CountryRegion name,knwldgfrdvlpmnt(mrkr),0.020000000000000004,0
CountryRegion name,dvsnnm,0.42410256410256414,0
CountryRegion name,mxmmcdcntrbtn(prjct-lvl),0.033333333333333326,0
CountryRegion name,cntrrgnprcnt,0.033333333333333326,0
CountryRegion name,stts,0.2727272727272727,0
CountryRegion name,brnchd,0.4041025641025641,0
CountryRegion name,trddvlpmnt(mrkr),0.020000000000000004,0
CountryRegion name,cntnntnm,0.4552380952380953,0
CountryRegion name,rgnstnclss,0.4256302521008404,0
CountryRegion name,cntrrgnd,0.5323809523809524,0
CountryRegion name,pbtp,0.2727272727272727,0
CountryRegion name,rgnlprgrm(mrkr),0.020000000000000004,0
CountryRegion name,bdvrst(mrkr),0.020000000000000004,0
CountryRegion name,cntnntd,0.020000000000000004,0
CountryRegion name,cntrrgnnm,0.5415384615384615,1
CountryRegion name,prtcptrdvlpmntndgdgvrnnc,0.020000000000000004,0
CountryRegion name,rbnsss(mrkr),0.020000000000000004,0
CountryRegion name,thsss(mrkr),0.020000000000000004,0
CountryRegion name,dsbltsss(mrkr),0.020000000000000004,0
CountryRegion name,gndrqlt(mrkr),0.020000000000000004,0
CountryRegion name,rgnstnd,0.4781218781218781,0
CountryRegion name,rgnstnnm,0.4914285714285715,0
CountryRegion name,rgnstntp,0.4580952380952381,0
CountryRegion name,rgnstnsb-clss,0.3898452012383901,0
CountryRegion name,prjctbrwsrcntrd,0.4046024151287309,0
CountryRegion name,sctrnm,0.5312820512820513,0
CountryRegion name,sctrprcnt,0.033333333333333326,0
CountryRegion name,mntspnt,0.033333333333333326,0
Branch name,fsclr,0.29696969696969694,0
Branch name,dsrtfctn(mrkr),0.020000000000000004,0
Branch name,prjctnmbr,0.43521367521367527,0
Branch name,ntdmnt(prjct-lvlbdgt),0.033333333333333326,0
Branch name,ndgnssss(mrkr),0.020000000000000004,0
Branch name,sctrd,0.020000000000000004,0
Branch name,ctstlfrdvlpmnt(mrkr),0.020000000000000004,0
Branch name,fndcntrd,0.020000000000000004,0
Branch name,chldrnsss(mrkr),0.020000000000000004,0
Branch name,prgrmmngprcss(nw),0.5109311740890689,0
Branch name,knwldgfrdvlpmnt(mrkr),0.020000000000000004,0
Branch name,dvsnnm,0.45777777777777784,0
Branch name,mxmmcdcntrbtn(prjct-lvl),0.033333333333333326,0
Branch name,cntrrgnprcnt,0.033333333333333326,0
Branch name,stts,0.2,0
Branch name,brnchd,0.6977777777777778,0
Branch name,trddvlpmnt(mrkr),0.020000000000000004,0
Branch name,cntnntnm,0.41587301587301595,0
Branch name,rgnstnclss,0.4380952380952381,0
Branch name,cntrrgnd,0.39682539682539686,0
Branch name,pbtp,0.30666666666666664,0
Branch name,rgnlprgrm(mrkr),0.020000000000000004,0
Branch name,bdvrst(mrkr),0.020000000000000004,0
Branch name,cntnntd,0.020000000000000004,0
Branch name,cntrrgnnm,0.43521367521367527,0
Branch name,prtcptrdvlpmntndgdgvrnnc,0.020000000000000004,0
Branch name,rbnsss(mrkr),0.020000000000000004,0
Branch name,thsss(mrkr),0.020000000000000004,0
Branch name,dsbltsss(mrkr),0.020000000000000004,0
Branch name,gndrqlt(mrkr),0.020000000000000004,0
Branch name,rgnstnd,0.4125874125874126,0
Branch name,rgnstnnm,0.453968253968254,0
Branch name,rgnstntp,0.39682539682539686,0
Branch name,rgnstnsb-clss,0.3997936016511868,0
Branch name,prjctbrwsrcntrd,0.3804511278195489,0
Branch name,sctrnm,0.5022222222222222,0
Branch name,sctrprcnt,0.033333333333333326,0
Branch name,mntspnt,0.033333333333333326,0
Division ID,fsclr,0.28205128205128205,0
Division ID,dsrtfctn(mrkr),0.020000000000000004,0
Division ID,prjctnmbr,0.2627450980392157,0
Division ID,ntdmnt(prjct-lvlbdgt),0.033333333333333326,0
Division ID,ndgnssss(mrkr),0.020000000000000004,0
Division ID,sctrd,0.020000000000000004,0
Division ID,ctstlfrdvlpmnt(mrkr),0.020000000000000004,0
Division ID,fndcntrd,0.020000000000000004,0
Division ID,chldrnsss(mrkr),0.020000000000000004,0
Division ID,prgrmmngprcss(nw),0.4057142857142857,0
Division ID,knwldgfrdvlpmnt(mrkr),0.020000000000000004,0
Division ID,dvsnnm,0.5714285714285714,0
Division ID,mxmmcdcntrbtn(prjct-lvl),0.033333333333333326,0
Division ID,cntrrgnprcnt,0.033333333333333326,0
Division ID,stts,0.28888888888888886,0
Division ID,brnchd,0.37142857142857144,0
Division ID,trddvlpmnt(mrkr),0.020000000000000004,0
Division ID,cntnntnm,0.26666666666666666,0
Division ID,rgnstnclss,0.31851851851851853,0
Division ID,cntrrgnd,0.33999999999999997,0
Division ID,pbtp,0.2,0
Division ID,rgnlprgrm(mrkr),0.020000000000000004,0
Division ID,bdvrst(mrkr),0.020000000000000004,0
Division ID,cntnntd,0.020000000000000004,0
Division ID,cntrrgnnm,0.2627450980392157,0
Division ID,prtcptrdvlpmntndgdgvrnnc,0.020000000000000004,0
Division ID,rbnsss(mrkr),0.020000000000000004,0
Division ID,thsss(mrkr),0.020000000000000004,0
Division ID,dsbltsss(mrkr),0.020000000000000004,0
Division ID,gndrqlt(mrkr),0.020000000000000004,0
Division ID,rgnstnd,0.40148148148148155,0
Division ID,rgnstnnm,0.33333333333333337,0
Division ID,rgnstntp,0.33333333333333337,0
Division ID,rgnstnsb-clss,0.3015873015873016,0
Division ID,prjctbrwsrcntrd,0.32412617220801365,0
Division ID,sctrnm,0.3523809523809524,0
Division ID,sctrprcnt,0.033333333333333326,0
Division ID,mntspnt,0.033333333333333326,0
Section ID,fsclr,0.3777777777777778,0
Section ID,dsrtfctn(mrkr),0.020000000000000004,0
Section ID,prjctnmbr,0.4,0
Section ID,ntdmnt(prjct-lvlbdgt),0.033333333333333326,0
Section ID,ndgnssss(mrkr),0.020000000000000004,0
Section ID,sctrd,0.020000000000000004,0
Section ID,ctstlfrdvlpmnt(mrkr),0.020000000000000004,0
Section ID,fndcntrd,0.020000000000000004,0
Section ID,chldrnsss(mrkr),0.020000000000000004,0
Section ID,prgrmmngprcss(nw),0.3964102564102564,0
Section ID,knwldgfrdvlpmnt(mrkr),0.020000000000000004,0
Section ID,dvsnnm,0.4307692307692308,0
Section ID,mxmmcdcntrbtn(prjct-lvl),0.033333333333333326,0
Section ID,cntrrgnprcnt,0.033333333333333326,0
Section ID,stts,0.393939393939394,0
Section ID,brnchd,0.37435897435897436,0
Section ID,trddvlpmnt(mrkr),0.020000000000000004,0
Section ID,cntnntnm,0.41333333333333333,0
Section ID,rgnstnclss,0.38823529411764707,0
Section ID,cntrrgnd,0.4666666666666667,0
Section ID,pbtp,0.29696969696969694,0
Section ID,rgnlprgrm(mrkr),0.020000000000000004,0
Section ID,bdvrst(mrkr),0.020000000000000004,0
Section ID,cntnntd,0.020000000000000004,0
Section ID,cntrrgnnm,0.4,0
Section ID,prtcptrdvlpmntndgdgvrnnc,0.020000000000000004,0
Section ID,rbnsss(mrkr),0.020000000000000004,0
Section ID,thsss(mrkr),0.020000000000000004,0
Section ID,dsbltsss(mrkr),0.020000000000000004,0
Section ID,gndrqlt(mrkr),0.020000000000000004,0
Section ID,rgnstnd,0.4878306878306879,0
Section ID,rgnstnnm,0.41333333333333333,0
Section ID,rgnstntp,0.41333333333333333,0
Section ID,rgnstnsb-clss,0.36000000000000004,0
Section ID,prjctbrwsrcntrd,0.3768270944741533,0
Section ID,sctrnm,0.5282051282051283,0
Section ID,sctrprcnt,0.033333333333333326,0
Section ID,mntspnt,0.033333333333333326,0
Section name,fsclr,0.3777777777777778,0
Section name,dsrtfctn(mrkr),0.020000000000000004,0
Section name,prjctnmbr,0.4820512820512821,0
Section name,ntdmnt(prjct-lvlbdgt),0.033333333333333326,0
Section name,ndgnssss(mrkr),0.020000000000000004,0
Section name,sctrd,0.020000000000000004,0
Section name,ctstlfrdvlpmnt(mrkr),0.020000000000000004,0
Section name,fndcntrd,0.020000000000000004,0
Section name,chldrnsss(mrkr),0.020000000000000004,0
Section name,prgrmmngprcss(nw),0.4696832579185521,0
Section name,knwldgfrdvlpmnt(mrkr),0.020000000000000004,0
Section name,dvsnnm,0.4953846153846154,0
Section name,mxmmcdcntrbtn(prjct-lvl),0.033333333333333326,0
Section name,cntrrgnprcnt,0.033333333333333326,0
Section name,stts,0.393939393939394,0
Section name,brnchd,0.3476923076923077,0
Section name,trddvlpmnt(mrkr),0.020000000000000004,0
Section name,cntnntnm,0.5022222222222222,0
Section name,rgnstnclss,0.4263305322128852,0
Section name,cntrrgnd,0.45777777777777784,0
Section name,pbtp,0.29696969696969694,0
Section name,rgnlprgrm(mrkr),0.020000000000000004,0
Section name,bdvrst(mrkr),0.020000000000000004,0
Section name,cntnntd,0.020000000000000004,0
Section name,cntrrgnnm,0.4820512820512821,0
Section name,prtcptrdvlpmntndgdgvrnnc,0.020000000000000004,0
Section name,rbnsss(mrkr),0.020000000000000004,0
Section name,thsss(mrkr),0.020000000000000004,0
Section name,dsbltsss(mrkr),0.020000000000000004,0
Section name,gndrqlt(mrkr),0.020000000000000004,0
Section name,rgnstnd,0.47705627705627707,0
Section name,rgnstnnm,0.5022222222222222,0
Section name,rgnstntp,0.45777777777777784,0
Section name,rgnstnsb-clss,0.3913725490196079,0
Section name,prjctbrwsrcntrd,0.3735247208931419,0
Section name,sctrnm,0.6348717948717948,0
Section name,sctrprcnt,0.033333333333333326,0
Section name,mntspnt,0.033333333333333326,0
Fund centre name,fsclr,0.3898989898989899,0
Fund centre name,dsrtfctn(mrkr),0.020000000000000004,0
Fund centre name,prjctnmbr,0.4523076923076923,0
Fund centre name,ntdmnt(prjct-lvlbdgt),0.033333333333333326,0
Fund centre name,ndgnssss(mrkr),0.020000000000000004,0
Fund centre name,sctrd,0.020000000000000004,0
Fund centre name,ctstlfrdvlpmnt(mrkr),0.020000000000000004,0
Fund centre name,fndcntrd,0.020000000000000004,0
Fund centre name,chldrnsss(mrkr),0.020000000000000004,0
Fund centre name,prgrmmngprcss(nw),0.48113360323886645,0
Fund centre name,knwldgfrdvlpmnt(mrkr),0.020000000000000004,0
Fund centre name,dvsnnm,0.43333333333333335,0
Fund centre name,mxmmcdcntrbtn(prjct-lvl),0.033333333333333326,0
Fund centre name,cntrrgnprcnt,0.033333333333333326,0
Fund centre name,stts,0.28,0
Fund centre name,brnchd,0.43333333333333335,0
Fund centre name,trddvlpmnt(mrkr),0.020000000000000004,0
Fund centre name,cntnntnm,0.4714285714285715,0
Fund centre name,rgnstnclss,0.3571428571428572,0
Fund centre name,cntrrgnd,0.5285714285714286,0
Fund centre name,pbtp,0.28,0
Fund centre name,rgnlprgrm(mrkr),0.020000000000000004,0
Fund centre name,bdvrst(mrkr),0.020000000000000004,0
Fund centre name,cntnntd,0.020000000000000004,0
Fund centre name,cntrrgnnm,0.5056410256410256,0
Fund centre name,prtcptrdvlpmntndgdgvrnnc,0.020000000000000004,0
Fund centre name,rbnsss(mrkr),0.020000000000000004,0
Fund centre name,thsss(mrkr),0.020000000000000004,0
Fund centre name,dsbltsss(mrkr),0.020000000000000004,0
Fund centre name,gndrqlt(mrkr),0.020000000000000004,0
Fund centre name,rgnstnd,0.4433566433566434,0
Fund centre name,rgnstnnm,0.42380952380952386,0
Fund centre name,rgnstntp,0.38095238095238093,0
