source,target,conf,realConf
Fiscal year,miller2_fsclr,0.6363636363636364,1
Fiscal year,miller2_brnchnm,0.4433566433566434,0
Fiscal year,miller2_cdbsnssdlvrmdl(ld),0.43759440559440566,0
Fiscal year,miller2_prjctnmbr,0.43776223776223777,0
Fiscal year,miller2_sctrd,0.020000000000000004,0
Fiscal year,miller2_sctnnm,0.4787878787878788,0
Fiscal year,miller2_fstcprcnt,0.033333333333333326,0
Fiscal year,miller2_thsss(mrkr),0.020000000000000004,0
Fiscal year,miller2_cntrrgnnm,0.43776223776223777,0
Fiscal year,miller2_bltrld(ntrntnlmrkr),0.020000000000000004,0
Fiscal year,miller2_trddvlpmnt(mrkr),0.020000000000000004,0
Fiscal year,miller2_ntdmnt(prjct-lvlbdgt),0.033333333333333326,0
Fiscal year,miller2_stts,0.44699300699300704,0
Fiscal year,miller2_rbnsss(mrkr),0.020000000000000004,0
Fiscal year,miller2_clmtchngdpttn(mrkr),0.020000000000000004,0
Fiscal year,miller2_brnchd,0.44699300699300704,0
Fiscal year,miller2_dsrtfctn(mrkr),0.020000000000000004,0
Fiscal year,miller2_pbtp,0.406993006993007,0
Fiscal year,miller2_rgnstnclss,0.4954545454545455,0
Fiscal year,miller2_rgnstntp,0.4403263403263403,0
Fiscal year,miller2_ndgnssss(mrkr),0.020000000000000004,0
Fiscal year,miller2_ctstlfrdvlpmnt(mrkr),0.020000000000000004,0
Fiscal year,miller2_cfl(mrkr),0.020000000000000004,0
Fiscal year,miller2_cntrrgnprcnt,0.033333333333333326,0
Fiscal year,miller2_rgnlprgrm(mrkr),0.020000000000000004,0
Fiscal year,miller2_prtcptrdvlpmntndgdgvrnnc,0.020000000000000004,0
Fiscal year,miller2_chldrnsss(mrkr),0.020000000000000004,0
Fiscal year,miller2_fndcntrnm,0.46032634032634034,0
Fiscal year,miller2_rgnstnsb-clss,0.4717703349282297,0
Fiscal year,miller2_dvsnnm,0.4403263403263403,0
Fiscal year,miller2_nvrmntlsstnblt(mrkr),0.020000000000000004,0
Fiscal year,miller2_rtcprcnt,0.033333333333333326,0
Fiscal year,miller2_dsbltsss(mrkr),0.020000000000000004,0
Fiscal year,miller2_prjctbrwsrcntrd,0.4450882450882451,0
Fiscal year,miller2_rgnstnnm,0.4403263403263403,0
Fiscal year,miller2_gndrqlt(mrkr),0.020000000000000004,0
Fiscal year,miller2_rgnstnd,0.4433566433566434,0
Fiscal year,miller2_cntnntd,0.020000000000000004,0
Fiscal year,miller2_cntnntnm,0.4355644355644356,0
Fiscal year,miller2_cntrrgnd,0.4403263403263403,0
Fiscal year,miller2_sctrnm,0.4787878787878788,0
Fiscal year,miller2_sctrprcnt,0.033333333333333326,0
Fiscal year,miller2_mntspnt,0.033333333333333326,0
Branch name,miller2_fsclr,0.4181818181818182,0
Branch name,miller2_brnchnm,0.6531468531468532,1
Branch name,miller2_cdbsnssdlvrmdl(ld),0.38391919191919194,0
Branch name,miller2_prjctnmbr,0.46032634032634034,0
Branch name,miller2_sctrd,0.020000000000000004,0
Branch name,miller2_sctnnm,0.46606060606060606,0
Branch name,miller2_fstcprcnt,0.033333333333333326,0
Branch name,miller2_thsss(mrkr),0.020000000000000004,0
Branch name,miller2_cntrrgnnm,0.46032634032634034,0
Branch name,miller2_bltrld(ntrntnlmrkr),0.020000000000000004,0
Branch name,miller2_trddvlpmnt(mrkr),0.020000000000000004,0
Branch name,miller2_ntdmnt(prjct-lvlbdgt),0.033333333333333326,0
Branch name,miller2_stts,0.37622377622377623,0
Branch name,miller2_rbnsss(mrkr),0.020000000000000004,0
Branch name,miller2_clmtchngdpttn(mrkr),0.020000000000000004,0
Branch name,miller2_brnchd,0.6787878787878788,0
Branch name,miller2_dsrtfctn(mrkr),0.020000000000000004,0
Branch name,miller2_pbtp,0.4254545454545455,0
Branch name,miller2_rgnstnclss,0.4954545454545455,0
Branch name,miller2_rgnstntp,0.4597402597402598,0
Branch name,miller2_ndgnssss(mrkr),0.020000000000000004,0
Branch name,miller2_ctstlfrdvlpmnt(mrkr),0.020000000000000004,0
Branch name,miller2_cfl(mrkr),0.020000000000000004,0
Branch name,miller2_cntrrgnprcnt,0.033333333333333326,0
Branch name,miller2_rgnlprgrm(mrkr),0.020000000000000004,0
Branch name,miller2_prtcptrdvlpmntndgdgvrnnc,0.020000000000000004,0
Branch name,miller2_chldrnsss(mrkr),0.020000000000000004,0
Branch name,miller2_fndcntrnm,0.46032634032634034,0
Branch name,miller2_rgnstnsb-clss,0.4717703349282297,0
Branch name,miller2_dvsnnm,0.46606060606060606,0
Branch name,miller2_nvrmntlsstnblt(mrkr),0.020000000000000004,0
Branch name,miller2_rtcprcnt,0.033333333333333326,0
Branch name,miller2_dsbltsss(mrkr),0.020000000000000004,0
Branch name,miller2_prjctbrwsrcntrd,0.4597402597402598,0
Branch name,miller2_rgnstnnm,0.4692640692640693,0
Branch name,miller2_gndrqlt(mrkr),0.020000000000000004,0
Branch name,miller2_rgnstnd,0.46853146853146854,0
Branch name,miller2_cntnntd,0.020000000000000004,0
Branch name,miller2_cntnntnm,0.44289044289044294,0
Branch name,miller2_cntrrgnd,0.4597402597402598,0
Branch name,miller2_sctrnm,0.49939393939393945,0
Branch name,miller2_sctrprcnt,0.033333333333333326,0
Branch name,miller2_mntspnt,0.033333333333333326,0
CIDA business delivery model (old),miller2_fsclr,0.4491330891330892,0
CIDA business delivery model (old),miller2_brnchnm,0.43411255411255417,0
CIDA business delivery model (old),miller2_cdbsnssdlvrmdl(ld),0.5975757575757576,1
CIDA business delivery model (old),miller2_prjctnmbr,0.42121878121878126,0
CIDA business delivery model (old),miller2_sctrd,0.020000000000000004,0
CIDA business delivery model (old),miller2_sctnnm,0.44054421768707486,0
CIDA business delivery model (old),miller2_fstcprcnt,0.033333333333333326,0
CIDA business delivery model (old),miller2_thsss(mrkr),0.020000000000000004,0
CIDA business delivery model (old),miller2_cntrrgnnm,0.42121878121878126,0
CIDA business delivery model (old),miller2_bltrld(ntrntnlmrkr),0.020000000000000004,0
CIDA business delivery model (old),miller2_trddvlpmnt(mrkr),0.020000000000000004,0
CIDA business delivery model (old),miller2_ntdmnt(prjct-lvlbdgt),0.033333333333333326,0
CIDA business delivery model (old),miller2_stts,0.4493506493506494,0
CIDA business delivery model (old),miller2_rbnsss(mrkr),0.020000000000000004,0
CIDA business delivery model (old),miller2_clmtchngdpttn(mrkr),0.020000000000000004,0
CIDA business delivery model (old),miller2_brnchd,0.4790022675736962,0
CIDA business delivery model (old),miller2_dsrtfctn(mrkr),0.020000000000000004,0
CIDA business delivery model (old),miller2_pbtp,0.4226839826839827,0
CIDA business delivery model (old),miller2_rgnstnclss,0.47474747474747475,0
CIDA business delivery model (old),miller2_rgnstntp,0.43220779220779226,0
CIDA business delivery model (old),miller2_ndgnssss(mrkr),0.020000000000000004,0
CIDA business delivery model (old),miller2_ctstlfrdvlpmnt(mrkr),0.020000000000000004,0
CIDA business delivery model (old),miller2_cfl(mrkr),0.020000000000000004,0
CIDA business delivery model (old),miller2_cntrrgnprcnt,0.033333333333333326,0
CIDA business delivery model (old),miller2_rgnlprgrm(mrkr),0.020000000000000004,0
CIDA business delivery model (old),miller2_prtcptrdvlpmntndgdgvrnnc,0.020000000000000004,0
CIDA business delivery model (old),miller2_chldrnsss(mrkr),0.020000000000000004,0
CIDA business delivery model (old),miller2_fndcntrnm,0.4305271199388847,0
CIDA business delivery model (old),miller2_rgnstnsb-clss,0.460235003092146,0
CIDA business delivery model (old),miller2_dvsnnm,0.4430839002267575,0
CIDA business delivery model (old),miller2_nvrmntlsstnblt(mrkr),0.020000000000000004,0
CIDA business delivery model (old),miller2_rtcprcnt,0.033333333333333326,0
CIDA business delivery model (old),miller2_dsbltsss(mrkr),0.020000000000000004,0
CIDA business delivery model (old),miller2_prjctbrwsrcntrd,0.43673095782935606,0
CIDA business delivery model (old),miller2_rgnstnnm,0.43220779220779226,0
CIDA business delivery model (old),miller2_gndrqlt(mrkr),0.020000000000000004,0
CIDA business delivery model (old),miller2_rgnstnd,0.43411255411255417,0
CIDA business delivery model (old),miller2_cntnntd,0.020000000000000004,0
CIDA business delivery model (old),miller2_cntnntnm,0.4226839826839827,0
CIDA business delivery model (old),miller2_cntrrgnd,0.4590476190476191,0
CIDA business delivery model (old),miller2_sctrnm,0.44054421768707486,0
CIDA business delivery model (old),miller2_sctrprcnt,0.033333333333333326,0
CIDA business delivery model (old),miller2_mntspnt,0.033333333333333326,0
Project number,miller2_fsclr,0.45431235431235434,0
Project number,miller2_brnchnm,0.5032967032967033,0
Project number,miller2_cdbsnssdlvrmdl(ld),0.40254945054945057,0
Project number,miller2_prjctnmbr,0.6489743589743591,1
Project number,miller2_sctrd,0.020000000000000004,0
Project number,miller2_sctnnm,0.5128205128205129,0
Project number,miller2_fstcprcnt,0.033333333333333326,0
Project number,miller2_thsss(mrkr),0.020000000000000004,0
Project number,miller2_cntrrgnnm,0.487948717948718,0
Project number,miller2_bltrld(ntrntnlmrkr),0.020000000000000004,0
Project number,miller2_trddvlpmnt(mrkr),0.020000000000000004,0
Project number,miller2_ntdmnt(prjct-lvlbdgt),0.033333333333333326,0
Project number,miller2_stts,0.45734265734265733,0
Project number,miller2_rbnsss(mrkr),0.020000000000000004,0
Project number,miller2_clmtchngdpttn(mrkr),0.020000000000000004,0
Project number,miller2_brnchd,0.5128205128205129,0
Project number,miller2_dsrtfctn(mrkr),0.020000000000000004,0
Project number,miller2_pbtp,0.5300699300699301,0
Project number,miller2_rgnstnclss,0.4787330316742082,0
Project number,miller2_rgnstntp,0.4912820512820513,0
Project number,miller2_ndgnssss(mrkr),0.020000000000000004,0
Project number,miller2_ctstlfrdvlpmnt(mrkr),0.020000000000000004,0
Project number,miller2_cfl(mrkr),0.020000000000000004,0
Project number,miller2_cntrrgnprcnt,0.033333333333333326,0
Project number,miller2_rgnlprgrm(mrkr),0.020000000000000004,0
Project number,miller2_prtcptrdvlpmntndgdgvrnnc,0.020000000000000004,0
Project number,miller2_chldrnsss(mrkr),0.020000000000000004,0
Project number,miller2_fndcntrnm,0.487948717948718,0
Project number,miller2_rgnstnsb-clss,0.4667206477732794,0
Project number,miller2_dvsnnm,0.4798534798534799,0
Project number,miller2_nvrmntlsstnblt(mrkr),0.020000000000000004,0
Project number,miller2_rtcprcnt,0.033333333333333326,0
Project number,miller2_dsbltsss(mrkr),0.020000000000000004,0
Project number,miller2_prjctbrwsrcntrd,0.5664335664335665,0
Project number,miller2_rgnstnnm,0.49509157509157514,0
Project number,miller2_gndrqlt(mrkr),0.020000000000000004,0
Project number,miller2_rgnstnd,0.4989010989010989,0
Project number,miller2_cntnntd,0.020000000000000004,0
Project number,miller2_cntnntnm,0.49509157509157514,0
Project number,miller2_cntrrgnd,0.49509157509157514,0
Project number,miller2_sctrnm,0.5128205128205129,0
Project number,miller2_sctrprcnt,0.033333333333333326,0
Project number,miller2_mntspnt,0.033333333333333326,0
Sector ID,miller2_fsclr,0.020000000000000004,0
Sector ID,miller2_brnchnm,0.020000000000000004,0
Sector ID,miller2_cdbsnssdlvrmdl(ld),0.020000000000000004,0
Sector ID,miller2_prjctnmbr,0.020000000000000004,0
Sector ID,miller2_sctrd,0.6095904095904097,1
Sector ID,miller2_sctnnm,0.020000000000000004,0
Sector ID,miller2_fstcprcnt,0.05,0
Sector ID,miller2_thsss(mrkr),0.3951080031080031,0
Sector ID,miller2_cntrrgnnm,0.020000000000000004,0
Sector ID,miller2_bltrld(ntrntnlmrkr),0.43354449472096535,0
Sector ID,miller2_trddvlpmnt(mrkr),0.406017094017094,0
Sector ID,miller2_ntdmnt(prjct-lvlbdgt),0.05,0
Sector ID,miller2_stts,0.020000000000000004,0
Sector ID,miller2_rbnsss(mrkr),0.3926837606837607,0
Sector ID,miller2_clmtchngdpttn(mrkr),0.39970130454340985,0
Sector ID,miller2_brnchd,0.020000000000000004,0
Sector ID,miller2_dsrtfctn(mrkr),0.45392918192918197,0
Sector ID,miller2_pbtp,0.020000000000000004,0
Sector ID,miller2_rgnstnclss,0.020000000000000004,0
Sector ID,miller2_rgnstntp,0.020000000000000004,0
Sector ID,miller2_ndgnssss(mrkr),0.39801709401709406,0
Sector ID,miller2_ctstlfrdvlpmnt(mrkr),0.4140170940170941,0
Sector ID,miller2_cfl(mrkr),0.4015726495726496,0
Sector ID,miller2_cntrrgnprcnt,0.05,0
Sector ID,miller2_rgnlprgrm(mrkr),0.38735042735042735,0
Sector ID,miller2_prtcptrdvlpmntndgdgvrnnc,0.40752136752136753,0
Sector ID,miller2_chldrnsss(mrkr),0.4086837606837607,0
Sector ID,miller2_fndcntrnm,0.020000000000000004,0
Sector ID,miller2_rgnstnsb-clss,0.020000000000000004,0
Sector ID,miller2_dvsnnm,0.020000000000000004,0
Sector ID,miller2_nvrmntlsstnblt(mrkr),0.39801709401709406,0
Sector ID,miller2_rtcprcnt,0.05,0
Sector ID,miller2_dsbltsss(mrkr),0.41173137973137974,0
Sector ID,miller2_prjctbrwsrcntrd,0.020000000000000004,0
Sector ID,miller2_rgnstnnm,0.020000000000000004,0
Sector ID,miller2_gndrqlt(mrkr),0.4015726495726496,0
Sector ID,miller2_rgnstnd,0.020000000000000004,0
Sector ID,miller2_cntnntd,0.4290598290598291,0
Sector ID,miller2_cntnntnm,0.020000000000000004,0
Sector ID,miller2_cntrrgnd,0.020000000000000004,0
Sector ID,miller2_sctrnm,0.020000000000000004,0
Sector ID,miller2_sctrprcnt,0.05,0
Sector ID,miller2_mntspnt,0.05,0
Section name,miller2_fsclr,0.4787878787878788,0
Section name,miller2_brnchnm,0.47532467532467537,0
Section name,miller2_cdbsnssdlvrmdl(ld),0.38239538239538245,0
Section name,miller2_prjctnmbr,0.4954545454545455,0
Section name,miller2_sctrd,0.020000000000000004,0
Section name,miller2_sctnnm,0.598881118881119,1
Section name,miller2_fstcprcnt,0.033333333333333326,0
Section name,miller2_thsss(mrkr),0.020000000000000004,0
Section name,miller2_cntrrgnnm,0.4954545454545455,0
Section name,miller2_bltrld(ntrntnlmrkr),0.020000000000000004,0
Section name,miller2_trddvlpmnt(mrkr),0.020000000000000004,0
Section name,miller2_ntdmnt(prjct-lvlbdgt),0.033333333333333326,0
Section name,miller2_stts,0.49090909090909096,0
Section name,miller2_rbnsss(mrkr),0.020000000000000004,0
Section name,miller2_clmtchngdpttn(mrkr),0.020000000000000004,0
Section name,miller2_brnchd,0.4162237762237762,0
Section name,miller2_dsrtfctn(mrkr),0.020000000000000004,0
Section name,miller2_pbtp,0.4181818181818182,0
Section name,miller2_rgnstnclss,0.48663101604278075,0
Section name,miller2_rgnstntp,0.5054545454545455,0
Section name,miller2_ndgnssss(mrkr),0.020000000000000004,0
Section name,miller2_ctstlfrdvlpmnt(mrkr),0.020000000000000004,0
Section name,miller2_cfl(mrkr),0.020000000000000004,0
Section name,miller2_cntrrgnprcnt,0.033333333333333326,0
Section name,miller2_rgnlprgrm(mrkr),0.020000000000000004,0
Section name,miller2_prtcptrdvlpmntndgdgvrnnc,0.020000000000000004,0
Section name,miller2_chldrnsss(mrkr),0.020000000000000004,0
Section name,miller2_fndcntrnm,0.4954545454545455,0
Section name,miller2_rgnstnsb-clss,0.4654545454545455,0
Section name,miller2_dvsnnm,0.49426573426573434,0
Section name,miller2_nvrmntlsstnblt(mrkr),0.020000000000000004,0
Section name,miller2_rtcprcnt,0.033333333333333326,0
Section name,miller2_dsbltsss(mrkr),0.020000000000000004,0
Section name,miller2_prjctbrwsrcntrd,0.4545454545454546,0
Section name,miller2_rgnstnnm,0.5054545454545455,0
Section name,miller2_gndrqlt(mrkr),0.020000000000000004,0
Section name,miller2_rgnstnd,0.5168831168831169,0
Section name,miller2_cntnntd,0.020000000000000004,0
Section name,miller2_cntnntnm,0.5054545454545455,0
Section name,miller2_cntrrgnd,0.5054545454545455,0
Section name,miller2_sctrnm,0.598881118881119,0
Section name,miller2_sctrprcnt,0.033333333333333326,0
Section name,miller2_mntspnt,0.033333333333333326,0
FSTC percent,miller2_fsclr,0.033333333333333326,0
FSTC percent,miller2_brnchnm,0.033333333333333326,0
FSTC percent,miller2_cdbsnssdlvrmdl(ld),0.033333333333333326,0
FSTC percent,miller2_prjctnmbr,0.033333333333333326,0
FSTC percent,miller2_sctrd,0.05,0
FSTC percent,miller2_sctnnm,0.033333333333333326,0
FSTC percent,miller2_fstcprcnt,0.6302197802197802,1
FSTC percent,miller2_thsss(mrkr),0.05,0
FSTC percent,miller2_cntrrgnnm,0.033333333333333326,0
FSTC percent,miller2_bltrld(ntrntnlmrkr),0.05,0
FSTC percent,miller2_trddvlpmnt(mrkr),0.05,0
FSTC percent,miller2_ntdmnt(prjct-lvlbdgt),0.454945054945055,0
FSTC percent,miller2_stts,0.033333333333333326,0
FSTC percent,miller2_rbnsss(mrkr),0.05,0
FSTC percent,miller2_clmtchngdpttn(mrkr),0.05,0
FSTC percent,miller2_brnchd,0.033333333333333326,0
FSTC percent,miller2_dsrtfctn(mrkr),0.05,0
FSTC percent,miller2_pbtp,0.033333333333333326,0
FSTC percent,miller2_rgnstnclss,0.033333333333333326,0
FSTC percent,miller2_rgnstntp,0.033333333333333326,0
FSTC percent,miller2_ndgnssss(mrkr),0.05,0
FSTC percent,miller2_ctstlfrdvlpmnt(mrkr),0.05,0
FSTC percent,miller2_cfl(mrkr),0.05,0
FSTC percent,miller2_cntrrgnprcnt,0.5176691729323308,0
FSTC percent,miller2_rgnlprgrm(mrkr),0.05,0
FSTC percent,miller2_prtcptrdvlpmntndgdgvrnnc,0.05,0
FSTC percent,miller2_chldrnsss(mrkr),0.05,0
FSTC percent,miller2_fndcntrnm,0.033333333333333326,0
FSTC percent,miller2_rgnstnsb-clss,0.033333333333333326,0
FSTC percent,miller2_dvsnnm,0.033333333333333326,0
FSTC percent,miller2_nvrmntlsstnblt(mrkr),0.05,0
FSTC percent,miller2_rtcprcnt,0.5904761904761906,0
FSTC percent,miller2_dsbltsss(mrkr),0.05,0
FSTC percent,miller2_prjctbrwsrcntrd,0.033333333333333326,0
FSTC percent,miller2_rgnstnnm,0.033333333333333326,0
FSTC percent,miller2_gndrqlt(mrkr),0.05,0
FSTC percent,miller2_rgnstnd,0.033333333333333326,0
FSTC percent,miller2_cntnntd,0.05,0
FSTC percent,miller2_cntnntnm,0.033333333333333326,0
FSTC percent,miller2_cntrrgnd,0.033333333333333326,0
FSTC percent,miller2_sctrnm,0.033333333333333326,0
FSTC percent,miller2_sctrprcnt,0.5994505494505495,0
FSTC percent,miller2_mntspnt,0.5012987012987014,0
Youth issues (marker),miller2_fsclr,0.020000000000000004,0
Youth issues (marker),miller2_brnchnm,0.020000000000000004,0
Youth issues (marker),miller2_cdbsnssdlvrmdl(ld),0.020000000000000004,0
Youth issues (marker),miller2_prjctnmbr,0.020000000000000004,0
Youth issues (marker),miller2_sctrd,0.46092307692307694,0
Youth issues (marker),miller2_sctnnm,0.020000000000000004,0
Youth issues (marker),miller2_fstcprcnt,0.05,0
Youth issues (marker),miller2_thsss(mrkr),0.6736596736596737,1
Youth issues (marker),miller2_cntrrgnnm,0.020000000000000004,0
Youth issues (marker),miller2_bltrld(ntrntnlmrkr),0.47653914712738243,0
Youth issues (marker),miller2_trddvlpmnt(mrkr),0.5514529914529915,0
Youth issues (marker),miller2_ntdmnt(prjct-lvlbdgt),0.05,0
Youth issues (marker),miller2_stts,0.020000000000000004,0
Youth issues (marker),miller2_rbnsss(mrkr),0.6082051282051282,0
Youth issues (marker),miller2_clmtchngdpttn(mrkr),0.5751566951566952,0
Youth issues (marker),miller2_brnchd,0.020000000000000004,0
Youth issues (marker),miller2_dsrtfctn(mrkr),0.556923076923077,0
Youth issues (marker),miller2_pbtp,0.020000000000000004,0
Youth issues (marker),miller2_rgnstnclss,0.020000000000000004,0
Youth issues (marker),miller2_rgnstntp,0.020000000000000004,0
Youth issues (marker),miller2_ndgnssss(mrkr),0.5891575091575092,0
Youth issues (marker),miller2_ctstlfrdvlpmnt(mrkr),0.5439676113360324,0
Youth issues (marker),miller2_cfl(mrkr),0.515897435897436,0
Youth issues (marker),miller2_cntrrgnprcnt,0.05,0
Youth issues (marker),miller2_rgnlprgrm(mrkr),0.5514529914529915,0
Youth issues (marker),miller2_prtcptrdvlpmntndgdgvrnnc,0.429290893015031,0
Youth issues (marker),miller2_chldrnsss(mrkr),0.6005860805860805,0
Youth issues (marker),miller2_fndcntrnm,0.020000000000000004,0
Youth issues (marker),miller2_rgnstnsb-clss,0.020000000000000004,0
Youth issues (marker),miller2_dvsnnm,0.020000000000000004,0
Youth issues (marker),miller2_nvrmntlsstnblt(mrkr),0.5565991902834009,0
Youth issues (marker),miller2_rtcprcnt,0.05,0
Youth issues (marker),miller2_dsbltsss(mrkr),0.6096703296703297,0
Youth issues (marker),miller2_prjctbrwsrcntrd,0.020000000000000004,0
Youth issues (marker),miller2_rgnstnnm,0.020000000000000004,0
Youth issues (marker),miller2_gndrqlt(mrkr),0.5603418803418804,0
Youth issues (marker),miller2_rgnstnd,0.020000000000000004,0
Youth issues (marker),miller2_cntnntd,0.4502564102564103,0
Youth issues (marker),miller2_cntnntnm,0.020000000000000004,0
Youth issues (marker),miller2_cntrrgnd,0.020000000000000004,0
Youth issues (marker),miller2_sctrnm,0.020000000000000004,0
Youth issues (marker),miller2_sctrprcnt,0.05,0
Youth issues (marker),miller2_mntspnt,0.05,0
CountryRegion name,miller2_fsclr,0.45212121212121215,0
CountryRegion name,miller2_brnchnm,0.4694905094905095,0
CountryRegion name,miller2_cdbsnssdlvrmdl(ld),0.3936729936729937,0
CountryRegion name,miller2_prjctnmbr,0.4790303030303031,0
CountryRegion name,miller2_sctrd,0.020000000000000004,0
CountryRegion name,miller2_sctnnm,0.4620792540792541,0
CountryRegion name,miller2_fstcprcnt,0.033333333333333326,0
CountryRegion name,miller2_thsss(mrkr),0.020000000000000004,0
CountryRegion name,miller2_cntrrgnnm,0.5403636363636364,1
CountryRegion name,miller2_bltrld(ntrntnlmrkr),0.020000000000000004,0
CountryRegion name,miller2_trddvlpmnt(mrkr),0.020000000000000004,0
CountryRegion name,miller2_ntdmnt(prjct-lvlbdgt),0.033333333333333326,0
CountryRegion name,miller2_stts,0.39916083916083916,0
CountryRegion name,miller2_rbnsss(mrkr),0.020000000000000004,0
CountryRegion name,miller2_clmtchngdpttn(mrkr),0.020000000000000004,0
CountryRegion name,miller2_brnchd,0.4476456876456877,0
CountryRegion name,miller2_dsrtfctn(mrkr),0.020000000000000004,0
CountryRegion name,miller2_pbtp,0.39916083916083916,0
CountryRegion name,miller2_rgnstnclss,0.4740106951871658,0
CountryRegion name,miller2_rgnstntp,0.49617316017316027,0
CountryRegion name,miller2_ndgnssss(mrkr),0.020000000000000004,0
CountryRegion name,miller2_ctstlfrdvlpmnt(mrkr),0.020000000000000004,0
CountryRegion name,miller2_cfl(mrkr),0.020000000000000004,0
CountryRegion name,miller2_cntrrgnprcnt,0.033333333333333326,0
CountryRegion name,miller2_rgnlprgrm(mrkr),0.020000000000000004,0
CountryRegion name,miller2_prtcptrdvlpmntndgdgvrnnc,0.020000000000000004,0
CountryRegion name,miller2_chldrnsss(mrkr),0.020000000000000004,0
CountryRegion name,miller2_fndcntrnm,0.5190303030303031,0
CountryRegion name,miller2_rgnstnsb-clss,0.4494162679425837,0
CountryRegion name,miller2_dvsnnm,0.4374638694638695,0
CountryRegion name,miller2_nvrmntlsstnblt(mrkr),0.020000000000000004,0
CountryRegion name,miller2_rtcprcnt,0.033333333333333326,0
CountryRegion name,miller2_dsbltsss(mrkr),0.020000000000000004,0
CountryRegion name,miller2_prjctbrwsrcntrd,0.46320346320346323,0
CountryRegion name,miller2_rgnstnnm,0.49617316017316027,0
CountryRegion name,miller2_gndrqlt(mrkr),0.020000000000000004,0
CountryRegion name,miller2_rgnstnd,0.5097702297702298,0
CountryRegion name,miller2_cntnntd,0.020000000000000004,0
CountryRegion name,miller2_cntnntnm,0.468979020979021,0
CountryRegion name,miller2_cntrrgnd,0.5556017316017317,0
CountryRegion name,miller2_sctrnm,0.5232074592074591,0
CountryRegion name,miller2_sctrprcnt,0.033333333333333326,0
CountryRegion name,miller2_mntspnt,0.033333333333333326,0
Bilateral aid (international marker),miller2_fsclr,0.020000000000000004,0
Bilateral aid (international marker),miller2_brnchnm,0.020000000000000004,0
Bilateral aid (international marker),miller2_cdbsnssdlvrmdl(ld),0.020000000000000004,0
Bilateral aid (international marker),miller2_prjctnmbr,0.020000000000000004,0
Bilateral aid (international marker),miller2_sctrd,0.5063003663003662,0
Bilateral aid (international marker),miller2_sctnnm,0.020000000000000004,0
Bilateral aid (international marker),miller2_fstcprcnt,0.05,0
Bilateral aid (international marker),miller2_thsss(mrkr),0.5706122448979591,0
Bilateral aid (international marker),miller2_cntrrgnnm,0.020000000000000004,0
Bilateral aid (international marker),miller2_bltrld(ntrntnlmrkr),0.6220354808590103,1
Bilateral aid (international marker),miller2_trddvlpmnt(mrkr),0.5995031055900621,0
Bilateral aid (international marker),miller2_ntdmnt(prjct-lvlbdgt),0.05,0
Bilateral aid (international marker),miller2_stts,0.020000000000000004,0
Bilateral aid (international marker),miller2_rbnsss(mrkr),0.5783458646616542,0
Bilateral aid (international marker),miller2_clmtchngdpttn(mrkr),0.5903296703296703,0
Bilateral aid (international marker),miller2_brnchd,0.020000000000000004,0
Bilateral aid (international marker),miller2_dsrtfctn(mrkr),0.5869387755102042,0
Bilateral aid (international marker),miller2_pbtp,0.020000000000000004,0
Bilateral aid (international marker),miller2_rgnstnclss,0.020000000000000004,0
Bilateral aid (international marker),miller2_rgnstntp,0.020000000000000004,0
Bilateral aid (international marker),miller2_ndgnssss(mrkr),0.5760544217687075,0
Bilateral aid (international marker),miller2_ctstlfrdvlpmnt(mrkr),0.5881481481481482,0
Bilateral aid (international marker),miller2_cfl(mrkr),0.5733333333333334,0
Bilateral aid (international marker),miller2_cntrrgnprcnt,0.05,0
Bilateral aid (international marker),miller2_rgnlprgrm(mrkr),0.5854545454545454,0
Bilateral aid (international marker),miller2_prtcptrdvlpmntndgdgvrnnc,0.49757449757449757,0
Bilateral aid (international marker),miller2_chldrnsss(mrkr),0.5796825396825397,0
Bilateral aid (international marker),miller2_fndcntrnm,0.020000000000000004,0
Bilateral aid (international marker),miller2_rgnstnsb-clss,0.020000000000000004,0
Bilateral aid (international marker),miller2_dvsnnm,0.020000000000000004,0
Bilateral aid (international marker),miller2_nvrmntlsstnblt(mrkr),0.6215873015873017,0
Bilateral aid (international marker),miller2_rtcprcnt,0.05,0
Bilateral aid (international marker),miller2_dsbltsss(mrkr),0.5946218487394959,0
Bilateral aid (international marker),miller2_prjctbrwsrcntrd,0.020000000000000004,0
Bilateral aid (international marker),miller2_rgnstnnm,0.020000000000000004,0
Bilateral aid (international marker),miller2_gndrqlt(mrkr),0.5885714285714286,0
Bilateral aid (international marker),miller2_rgnstnd,0.020000000000000004,0
Bilateral aid (international marker),miller2_cntnntd,0.5282051282051283,0
Bilateral aid (international marker),miller2_cntnntnm,0.020000000000000004,0
Bilateral aid (international marker),miller2_cntrrgnd,0.020000000000000004,0
Bilateral aid (international marker),miller2_sctrnm,0.020000000000000004,0
Bilateral aid (international marker),miller2_sctrprcnt,0.05,0
Bilateral aid (international marker),miller2_mntspnt,0.05,0
Trade development (marker),miller2_fsclr,0.020000000000000004,0
Trade development (marker),miller2_brnchnm,0.020000000000000004,0
Trade development (marker),miller2_cdbsnssdlvrmdl(ld),0.020000000000000004,0
Trade development (marker),miller2_prjctnmbr,0.020000000000000004,0
Trade development (marker),miller2_sctrd,0.5752478632478633,0
Trade development (marker),miller2_sctnnm,0.020000000000000004,0
Trade development (marker),miller2_fstcprcnt,0.05,0
Trade development (marker),miller2_thsss(mrkr),0.5607977207977208,0
Trade development (marker),miller2_cntrrgnnm,0.020000000000000004,0
Trade development (marker),miller2_bltrld(ntrntnlmrkr),0.5638557520910463,0
Trade development (marker),miller2_trddvlpmnt(mrkr),0.7059829059829061,1
Trade development (marker),miller2_ntdmnt(prjct-lvlbdgt),0.05,0
Trade development (marker),miller2_stts,0.020000000000000004,0
Trade development (marker),miller2_rbnsss(mrkr),0.5583734783734784,0
Trade development (marker),miller2_clmtchngdpttn(mrkr),0.5933903133903135,0
Trade development (marker),miller2_brnchd,0.020000000000000004,0
Trade development (marker),miller2_dsrtfctn(mrkr),0.5622012295696507,0
Trade development (marker),miller2_pbtp,0.020000000000000004,0
Trade development (marker),miller2_rgnstnclss,0.020000000000000004,0
Trade development (marker),miller2_rgnstntp,0.020000000000000004,0
Trade development (marker),miller2_ndgnssss(mrkr),0.5622012295696507,0
Trade development (marker),miller2_ctstlfrdvlpmnt(mrkr),0.6663103913630231,0
Trade development (marker),miller2_cfl(mrkr),0.5531786731786732,0
Trade development (marker),miller2_cntrrgnprcnt,0.05,0
Trade development (marker),miller2_rgnlprgrm(mrkr),0.5845014245014246,0
Trade development (marker),miller2_prtcptrdvlpmntndgdgvrnnc,0.5087957559681697,0
Trade development (marker),miller2_chldrnsss(mrkr),0.5607977207977208,0
Trade development (marker),miller2_fndcntrnm,0.020000000000000004,0
Trade development (marker),miller2_rgnstnsb-clss,0.020000000000000004,0
Trade development (marker),miller2_dvsnnm,0.020000000000000004,0
Trade development (marker),miller2_nvrmntlsstnblt(mrkr),0.5898347578347578,0
Trade development (marker),miller2_rtcprcnt,0.05,0
Trade development (marker),miller2_dsbltsss(mrkr),0.5887119508172141,0
Trade development (marker),miller2_prjctbrwsrcntrd,0.020000000000000004,0
Trade development (marker),miller2_rgnstnnm,0.020000000000000004,0
Trade development (marker),miller2_gndrqlt(mrkr),0.5933903133903135,0
Trade development (marker),miller2_rgnstnd,0.020000000000000004,0
Trade development (marker),miller2_cntnntd,0.48991452991452994,0
Trade development (marker),miller2_cntnntnm,0.020000000000000004,0
Trade development (marker),miller2_cntrrgnd,0.020000000000000004,0
Trade development (marker),miller2_sctrnm,0.020000000000000004,0
Trade development (marker),miller2_sctrprcnt,0.05,0
Trade development (marker),miller2_mntspnt,0.05,0
Untied amount(Project-level budget),miller2_fsclr,0.033333333333333326,0
Untied amount(Project-level budget),miller2_brnchnm,0.033333333333333326,0
Untied amount(Project-level budget),miller2_cdbsnssdlvrmdl(ld),0.033333333333333326,0
Untied amount(Project-level budget),miller2_prjctnmbr,0.033333333333333326,0
Untied amount(Project-level budget),miller2_sctrd,0.05,0
Untied amount(Project-level budget),miller2_sctnnm,0.033333333333333326,0
Untied amount(Project-level budget),miller2_fstcprcnt,0.4350893550893551,0
Untied amount(Project-level budget),miller2_thsss(mrkr),0.05,0
Untied amount(Project-level budget),miller2_cntrrgnnm,0.033333333333333326,0
Untied amount(Project-level budget),miller2_bltrld(ntrntnlmrkr),0.05,0
Untied amount(Project-level budget),miller2_trddvlpmnt(mrkr),0.05,0
Untied amount(Project-level budget),miller2_ntdmnt(prjct-lvlbdgt),0.6129554655870445,1
Untied amount(Project-level budget),miller2_stts,0.033333333333333326,0
Untied amount(Project-level budget),miller2_rbnsss(mrkr),0.05,0
Untied amount(Project-level budget),miller2_clmtchngdpttn(mrkr),0.05,0
Untied amount(Project-level budget),miller2_brnchd,0.033333333333333326,0
Untied amount(Project-level budget),miller2_dsrtfctn(mrkr),0.05,0
Untied amount(Project-level budget),miller2_pbtp,0.033333333333333326,0
Untied amount(Project-level budget),miller2_rgnstnclss,0.033333333333333326,0
Untied amount(Project-level budget),miller2_rgnstntp,0.033333333333333326,0
Untied amount(Project-level budget),miller2_ndgnssss(mrkr),0.05,0
Untied amount(Project-level budget),miller2_ctstlfrdvlpmnt(mrkr),0.05,0
Untied amount(Project-level budget),miller2_cfl(mrkr),0.05,0
Untied amount(Project-level budget),miller2_cntrrgnprcnt,0.42664387464387465,0
Untied amount(Project-level budget),miller2_rgnlprgrm(mrkr),0.05,0
Untied amount(Project-level budget),miller2_prtcptrdvlpmntndgdgvrnnc,0.05,0
Untied amount(Project-level budget),miller2_chldrnsss(mrkr),0.05,0
Untied amount(Project-level budget),miller2_fndcntrnm,0.033333333333333326,0
Untied amount(Project-level budget),miller2_rgnstnsb-clss,0.033333333333333326,0
Untied amount(Project-level budget),miller2_dvsnnm,0.033333333333333326,0
Untied amount(Project-level budget),miller2_nvrmntlsstnblt(mrkr),0.05,0
Untied amount(Project-level budget),miller2_rtcprcnt,0.44224664224664223,0
Untied amount(Project-level budget),miller2_dsbltsss(mrkr),0.05,0
Untied amount(Project-level budget),miller2_prjctbrwsrcntrd,0.033333333333333326,0
Untied amount(Project-level budget),miller2_rgnstnnm,0.033333333333333326,0
Untied amount(Project-level budget),miller2_gndrqlt(mrkr),0.05,0
Untied amount(Project-level budget),miller2_rgnstnd,0.033333333333333326,0
Untied amount(Project-level budget),miller2_cntnntd,0.05,0
Untied amount(Project-level budget),miller2_cntnntnm,0.033333333333333326,0
Untied amount(Project-level budget),miller2_cntrrgnd,0.033333333333333326,0
Untied amount(Project-level budget),miller2_sctrnm,0.033333333333333326,0
Untied amount(Project-level budget),miller2_sctrprcnt,0.4350893550893551,0
Untied amount(Project-level budget),miller2_mntspnt,0.4523076923076923,0
Status,miller2_fsclr,0.29696969696969694,0
Status,miller2_brnchnm,0.2,0
Status,miller2_cdbsnssdlvrmdl(ld),0.28,0
Status,miller2_prjctnmbr,0.2711111111111111,0
Status,miller2_sctrd,0.020000000000000004,0
Status,miller2_sctnnm,0.3777777777777778,0
Status,miller2_fstcprcnt,0.033333333333333326,0
Status,miller2_thsss(mrkr),0.020000000000000004,0
Status,miller2_cntrrgnnm,0.2711111111111111,0
Status,miller2_bltrld(ntrntnlmrkr),0.020000000000000004,0
Status,miller2_trddvlpmnt(mrkr),0.020000000000000004,0
Status,miller2_ntdmnt(prjct-lvlbdgt),0.033333333333333326,0
Status,miller2_stts,0.6266666666666667,1
Status,miller2_rbnsss(mrkr),0.020000000000000004,0
Status,miller2_clmtchngdpttn(mrkr),0.020000000000000004,0
Status,miller2_brnchd,0.2,0
Status,miller2_dsrtfctn(mrkr),0.020000000000000004,0
Status,miller2_pbtp,0.30666666666666664,0
Status,miller2_rgnstnclss,0.4,0
Status,miller2_rgnstntp,0.4285714285714286,0
Status,miller2_ndgnssss(mrkr),0.020000000000000004,0
Status,miller2_ctstlfrdvlpmnt(mrkr),0.020000000000000004,0
Status,miller2_cfl(mrkr),0.020000000000000004,0
Status,miller2_cntrrgnprcnt,0.033333333333333326,0
Status,miller2_rgnlprgrm(mrkr),0.020000000000000004,0
Status,miller2_prtcptrdvlpmntndgdgvrnnc,0.020000000000000004,0
Status,miller2_chldrnsss(mrkr),0.020000000000000004,0
Status,miller2_fndcntrnm,0.2711111111111111,0
Status,miller2_rgnstnsb-clss,0.368421052631579,0
Status,miller2_dvsnnm,0.28888888888888886,0
Status,miller2_nvrmntlsstnblt(mrkr),0.020000000000000004,0
Status,miller2_rtcprcnt,0.033333333333333326,0
Status,miller2_dsbltsss(mrkr),0.020000000000000004,0
Status,miller2_prjctbrwsrcntrd,0.3015873015873016,0
Status,miller2_rgnstnnm,0.3523809523809524,0
Status,miller2_gndrqlt(mrkr),0.020000000000000004,0
Status,miller2_rgnstnd,0.36410256410256414,0
Status,miller2_cntnntd,0.020000000000000004,0
Status,miller2_cntnntnm,0.3523809523809524,0
Status,miller2_cntrrgnd,0.2761904761904762,0
Status,miller2_sctrnm,0.3777777777777778,0
Status,miller2_sctrprcnt,0.033333333333333326,0
Status,miller2_mntspnt,0.033333333333333326,0
Urban issues (marker),miller2_fsclr,0.020000000000000004,0
Urban issues (marker),miller2_brnchnm,0.020000000000000004,0
Urban issues (marker),miller2_cdbsnssdlvrmdl(ld),0.020000000000000004,0
Urban issues (marker),miller2_prjctnmbr,0.020000000000000004,0
Urban issues (marker),miller2_sctrd,0.46092307692307694,0
Urban issues (marker),miller2_sctnnm,0.020000000000000004,0
Urban issues (marker),miller2_fstcprcnt,0.05,0
Urban issues (marker),miller2_thsss(mrkr),0.64995596995597,0
Urban issues (marker),miller2_cntrrgnnm,0.020000000000000004,0
Urban issues (marker),miller2_bltrld(ntrntnlmrkr),0.48563005621829153,0
Urban issues (marker),miller2_trddvlpmnt(mrkr),0.5870085470085471,0
Urban issues (marker),miller2_ntdmnt(prjct-lvlbdgt),0.05,0
Urban issues (marker),miller2_stts,0.020000000000000004,0
Urban issues (marker),miller2_rbnsss(mrkr),0.686993006993007,1
Urban issues (marker),miller2_clmtchngdpttn(mrkr),0.5603418803418804,0
Urban issues (marker),miller2_brnchd,0.020000000000000004,0
Urban issues (marker),miller2_dsrtfctn(mrkr),0.597948717948718,0
Urban issues (marker),miller2_pbtp,0.020000000000000004,0
Urban issues (marker),miller2_rgnstnclss,0.020000000000000004,0
Urban issues (marker),miller2_rgnstntp,0.020000000000000004,0
Urban issues (marker),miller2_ndgnssss(mrkr),0.6187871387871389,0
Urban issues (marker),miller2_ctstlfrdvlpmnt(mrkr),0.573597240965662,0
Urban issues (marker),miller2_cfl(mrkr),0.5455270655270656,0
Urban issues (marker),miller2_cntrrgnprcnt,0.05,0
Urban issues (marker),miller2_rgnlprgrm(mrkr),0.5920879120879121,0
Urban issues (marker),miller2_prtcptrdvlpmntndgdgvrnnc,0.445658709106985,0
Urban issues (marker),miller2_chldrnsss(mrkr),0.6196336996336997,0
Urban issues (marker),miller2_fndcntrnm,0.020000000000000004,0
Urban issues (marker),miller2_rgnstnsb-clss,0.020000000000000004,0
Urban issues (marker),miller2_dvsnnm,0.020000000000000004,0
Urban issues (marker),miller2_nvrmntlsstnblt(mrkr),0.573597240965662,0
Urban issues (marker),miller2_rtcprcnt,0.05,0
Urban issues (marker),miller2_dsbltsss(mrkr),0.6187871387871389,0
Urban issues (marker),miller2_prjctbrwsrcntrd,0.020000000000000004,0
Urban issues (marker),miller2_rgnstnnm,0.020000000000000004,0
Urban issues (marker),miller2_gndrqlt(mrkr),0.5677492877492878,0
Urban issues (marker),miller2_rgnstnd,0.020000000000000004,0
Urban issues (marker),miller2_cntnntd,0.4502564102564103,0
Urban issues (marker),miller2_cntnntnm,0.020000000000000004,0
Urban issues (marker),miller2_cntrrgnd,0.020000000000000004,0
Urban issues (marker),miller2_sctrnm,0.020000000000000004,0
Urban issues (marker),miller2_sctrprcnt,0.05,0
Urban issues (marker),miller2_mntspnt,0.05,0
Climate change adaptation (marker),miller2_fsclr,0.020000000000000004,0
Climate change adaptation (marker),miller2_brnchnm,0.020000000000000004,0
Climate change adaptation (marker),miller2_cdbsnssdlvrmdl(ld),0.020000000000000004,0
Climate change adaptation (marker),miller2_prjctnmbr,0.020000000000000004,0
Climate change adaptation (marker),miller2_sctrd,0.453986013986014,0
Climate change adaptation (marker),miller2_sctnnm,0.020000000000000004,0
Climate change adaptation (marker),miller2_fstcprcnt,0.05,0
Climate change adaptation (marker),miller2_thsss(mrkr),0.5250539936254222,0
Climate change adaptation (marker),miller2_cntrrgnnm,0.020000000000000004,0
Climate change adaptation (marker),miller2_bltrld(ntrntnlmrkr),0.4808754270939145,0
Climate change adaptation (marker),miller2_trddvlpmnt(mrkr),0.5681447963800905,0
Climate change adaptation (marker),miller2_ntdmnt(prjct-lvlbdgt),0.05,0
Climate change adaptation (marker),miller2_stts,0.020000000000000004,0
Climate change adaptation (marker),miller2_rbnsss(mrkr),0.5206384092098378,0
Climate change adaptation (marker),miller2_clmtchngdpttn(mrkr),0.6288178640581387,1
Climate change adaptation (marker),miller2_brnchd,0.020000000000000004,0
Climate change adaptation (marker),miller2_dsrtfctn(mrkr),0.6024978196406768,0
Climate change adaptation (marker),miller2_pbtp,0.020000000000000004,0
Climate change adaptation (marker),miller2_rgnstnclss,0.020000000000000004,0
Climate change adaptation (marker),miller2_rgnstntp,0.020000000000000004,0
Climate change adaptation (marker),miller2_ndgnssss(mrkr),0.5589604046746904,0
Climate change adaptation (marker),miller2_ctstlfrdvlpmnt(mrkr),0.5741077969649399,0
Climate change adaptation (marker),miller2_cfl(mrkr),0.565875170581053,0
Climate change adaptation (marker),miller2_cntrrgnprcnt,0.05,0
Climate change adaptation (marker),miller2_rgnlprgrm(mrkr),0.5426552159325269,0
Climate change adaptation (marker),miller2_prtcptrdvlpmntndgdgvrnnc,0.4536199790089734,0
Climate change adaptation (marker),miller2_chldrnsss(mrkr),0.5837461786333967,0
Climate change adaptation (marker),miller2_fndcntrnm,0.020000000000000004,0
Climate change adaptation (marker),miller2_rgnstnsb-clss,0.020000000000000004,0
Climate change adaptation (marker),miller2_dvsnnm,0.020000000000000004,0
Climate change adaptation (marker),miller2_nvrmntlsstnblt(mrkr),0.5429827315541602,0
Climate change adaptation (marker),miller2_rtcprcnt,0.05,0
Climate change adaptation (marker),miller2_dsbltsss(mrkr),0.5417128902843189,0
Climate change adaptation (marker),miller2_prjctbrwsrcntrd,0.020000000000000004,0
Climate change adaptation (marker),miller2_rgnstnnm,0.020000000000000004,0
Climate change adaptation (marker),miller2_gndrqlt(mrkr),0.5453836919383138,0
Climate change adaptation (marker),miller2_rgnstnd,0.020000000000000004,0
Climate change adaptation (marker),miller2_cntnntd,0.47459599224305116,0
Climate change adaptation (marker),miller2_cntnntnm,0.020000000000000004,0
Climate change adaptation (marker),miller2_cntrrgnd,0.020000000000000004,0
Climate change adaptation (marker),miller2_sctrnm,0.020000000000000004,0
Climate change adaptation (marker),miller2_sctrprcnt,0.05,0
Climate change adaptation (marker),miller2_mntspnt,0.05,0
Branch ID,miller2_fsclr,0.3616161616161616,0
Branch ID,miller2_brnchnm,0.5965811965811966,0
Branch ID,miller2_cdbsnssdlvrmdl(ld),0.45955555555555555,0
Branch ID,miller2_prjctnmbr,0.3955555555555556,0
Branch ID,miller2_sctrd,0.020000000000000004,0
Branch ID,miller2_sctnnm,0.35555555555555557,0
Branch ID,miller2_fstcprcnt,0.033333333333333326,0
Branch ID,miller2_thsss(mrkr),0.020000000000000004,0
Branch ID,miller2_cntrrgnnm,0.3955555555555556,0
Branch ID,miller2_bltrld(ntrntnlmrkr),0.020000000000000004,0
Branch ID,miller2_trddvlpmnt(mrkr),0.020000000000000004,0
Branch ID,miller2_ntdmnt(prjct-lvlbdgt),0.033333333333333326,0
Branch ID,miller2_stts,0.3196581196581197,0
Branch ID,miller2_rbnsss(mrkr),0.020000000000000004,0
Branch ID,miller2_clmtchngdpttn(mrkr),0.020000000000000004,0
Branch ID,miller2_brnchd,0.6277777777777779,1
Branch ID,miller2_dsrtfctn(mrkr),0.020000000000000004,0
Branch ID,miller2_pbtp,0.3688888888888889,0
Branch ID,miller2_rgnstnclss,0.4388888888888889,0
Branch ID,miller2_rgnstntp,0.4031746031746032,0
Branch ID,miller2_ndgnssss(mrkr),0.020000000000000004,0
Branch ID,miller2_ctstlfrdvlpmnt(mrkr),0.020000000000000004,0
Branch ID,miller2_cfl(mrkr),0.020000000000000004,0
Branch ID,miller2_cntrrgnprcnt,0.033333333333333326,0
Branch ID,miller2_rgnlprgrm(mrkr),0.020000000000000004,0
Branch ID,miller2_prtcptrdvlpmntndgdgvrnnc,0.020000000000000004,0
Branch ID,miller2_chldrnsss(mrkr),0.020000000000000004,0
Branch ID,miller2_fndcntrnm,0.3955555555555556,0
Branch ID,miller2_rgnstnsb-clss,0.41520467836257313,0
Branch ID,miller2_dvsnnm,0.37777777777777777,0
Branch ID,miller2_nvrmntlsstnblt(mrkr),0.020000000000000004,0
Branch ID,miller2_rtcprcnt,0.033333333333333326,0
Branch ID,miller2_dsbltsss(mrkr),0.020000000000000004,0
Branch ID,miller2_prjctbrwsrcntrd,0.4031746031746032,0
Branch ID,miller2_rgnstnnm,0.4031746031746032,0
Branch ID,miller2_gndrqlt(mrkr),0.020000000000000004,0
Branch ID,miller2_rgnstnd,0.411965811965812,0
Branch ID,miller2_cntnntd,0.020000000000000004,0
Branch ID,miller2_cntnntnm,0.3482295482295482,0
Branch ID,miller2_cntrrgnd,0.4031746031746032,0
Branch ID,miller2_sctrnm,0.4222222222222223,0
Branch ID,miller2_sctrprcnt,0.033333333333333326,0
Branch ID,miller2_mntspnt,0.033333333333333326,0
Desertification (marker),miller2_fsclr,0.020000000000000004,0
Desertification (marker),miller2_brnchnm,0.020000000000000004,0
Desertification (marker),miller2_cdbsnssdlvrmdl(ld),0.020000000000000004,0
Desertification (marker),miller2_prjctnmbr,0.020000000000000004,0
Desertification (marker),miller2_sctrd,0.5046153846153847,0
Desertification (marker),miller2_sctnnm,0.020000000000000004,0
Desertification (marker),miller2_fstcprcnt,0.05,0
Desertification (marker),miller2_thsss(mrkr),0.5749370629370629,0
Desertification (marker),miller2_cntrrgnnm,0.020000000000000004,0
Desertification (marker),miller2_bltrld(ntrntnlmrkr),0.4880241327300151,0
Desertification (marker),miller2_trddvlpmnt(mrkr),0.584537062937063,0
Desertification (marker),miller2_ntdmnt(prjct-lvlbdgt),0.05,0
Desertification (marker),miller2_stts,0.020000000000000004,0
Desertification (marker),miller2_rbnsss(mrkr),0.5907985347985348,0
Desertification (marker),miller2_clmtchngdpttn(mrkr),0.6212747252747254,0
Desertification (marker),miller2_brnchd,0.020000000000000004,0
Desertification (marker),miller2_dsrtfctn(mrkr),0.7524548494983279,1
Desertification (marker),miller2_pbtp,0.020000000000000004,0
Desertification (marker),miller2_rgnstnclss,0.020000000000000004,0
Desertification (marker),miller2_rgnstntp,0.020000000000000004,0
Desertification (marker),miller2_ndgnssss(mrkr),0.5867631498935847,0
Desertification (marker),miller2_ctstlfrdvlpmnt(mrkr),0.6181220159151193,0
Desertification (marker),miller2_cfl(mrkr),0.5767148407148408,0
Desertification (marker),miller2_cntrrgnprcnt,0.05,0
Desertification (marker),miller2_rgnlprgrm(mrkr),0.6016037296037295,0
Desertification (marker),miller2_prtcptrdvlpmntndgdgvrnnc,0.4871794871794872,0
Desertification (marker),miller2_chldrnsss(mrkr),0.6098461538461538,0
Desertification (marker),miller2_fndcntrnm,0.020000000000000004,0
Desertification (marker),miller2_rgnstnsb-clss,0.020000000000000004,0
Desertification (marker),miller2_dvsnnm,0.020000000000000004,0
Desertification (marker),miller2_nvrmntlsstnblt(mrkr),0.6181220159151193,0
Desertification (marker),miller2_rtcprcnt,0.05,0
Desertification (marker),miller2_dsbltsss(mrkr),0.6133244147157191,0
Desertification (marker),miller2_prjctbrwsrcntrd,0.020000000000000004,0
Desertification (marker),miller2_rgnstnnm,0.020000000000000004,0
Desertification (marker),miller2_gndrqlt(mrkr),0.6171188811188811,0
Desertification (marker),miller2_rgnstnd,0.020000000000000004,0
Desertification (marker),miller2_cntnntd,0.4937062937062937,0
Desertification (marker),miller2_cntnntnm,0.020000000000000004,0
Desertification (marker),miller2_cntrrgnd,0.020000000000000004,0
Desertification (marker),miller2_sctrnm,0.020000000000000004,0
Desertification (marker),miller2_sctrprcnt,0.05,0
Desertification (marker),miller2_mntspnt,0.05,0
PBA type,miller2_fsclr,0.2727272727272727,0
PBA type,miller2_brnchnm,0.3527272727272727,0
PBA type,miller2_cdbsnssdlvrmdl(ld),0.2958288770053476,0
PBA type,miller2_prjctnmbr,0.40606060606060607,0
PBA type,miller2_sctrd,0.020000000000000004,0
PBA type,miller2_sctnnm,0.31636363636363635,0
PBA type,miller2_fstcprcnt,0.033333333333333326,0
PBA type,miller2_thsss(mrkr),0.020000000000000004,0
PBA type,miller2_cntrrgnnm,0.3034965034965035,0
PBA type,miller2_bltrld(ntrntnlmrkr),0.020000000000000004,0
PBA type,miller2_trddvlpmnt(mrkr),0.020000000000000004,0
PBA type,miller2_ntdmnt(prjct-lvlbdgt),0.033333333333333326,0
PBA type,miller2_stts,0.33636363636363636,0
PBA type,miller2_rbnsss(mrkr),0.020000000000000004,0
PBA type,miller2_clmtchngdpttn(mrkr),0.020000000000000004,0
PBA type,miller2_brnchd,0.3616161616161616,0
PBA type,miller2_dsrtfctn(mrkr),0.020000000000000004,0
PBA type,miller2_pbtp,0.5649350649350648,1
PBA type,miller2_rgnstnclss,0.3012987012987013,0
PBA type,miller2_rgnstntp,0.40606060606060607,0
PBA type,miller2_ndgnssss(mrkr),0.020000000000000004,0
PBA type,miller2_ctstlfrdvlpmnt(mrkr),0.020000000000000004,0
PBA type,miller2_cfl(mrkr),0.020000000000000004,0
PBA type,miller2_cntrrgnprcnt,0.033333333333333326,0
PBA type,miller2_rgnlprgrm(mrkr),0.020000000000000004,0
PBA type,miller2_prtcptrdvlpmntndgdgvrnnc,0.020000000000000004,0
PBA type,miller2_chldrnsss(mrkr),0.020000000000000004,0
PBA type,miller2_fndcntrnm,0.3034965034965035,0
PBA type,miller2_rgnstnsb-clss,0.32272727272727275,0
PBA type,miller2_dvsnnm,0.2727272727272727,0
PBA type,miller2_nvrmntlsstnblt(mrkr),0.020000000000000004,0
PBA type,miller2_rtcprcnt,0.033333333333333326,0
PBA type,miller2_dsbltsss(mrkr),0.020000000000000004,0
PBA type,miller2_prjctbrwsrcntrd,0.3616161616161616,0
PBA type,miller2_rgnstnnm,0.30606060606060603,0
PBA type,miller2_gndrqlt(mrkr),0.020000000000000004,0
PBA type,miller2_rgnstnd,0.3090909090909091,0
PBA type,miller2_cntnntd,0.020000000000000004,0
PBA type,miller2_cntnntnm,0.30606060606060603,0
PBA type,miller2_cntrrgnd,0.30606060606060603,0
PBA type,miller2_sctrnm,0.31636363636363635,0
PBA type,miller2_sctrprcnt,0.033333333333333326,0
PBA type,miller2_mntspnt,0.033333333333333326,0
Organisation class,miller2_fsclr,0.4168627450980393,0
Organisation class,miller2_brnchnm,0.3929824561403509,0
Organisation class,miller2_cdbsnssdlvrmdl(ld),0.3980489685752844,0
Organisation class,miller2_prjctnmbr,0.38095238095238093,0
Organisation class,miller2_sctrd,0.020000000000000004,0
Organisation class,miller2_sctnnm,0.40303030303030307,0
Organisation class,miller2_fstcprcnt,0.033333333333333326,0
Organisation class,miller2_thsss(mrkr),0.020000000000000004,0
Organisation class,miller2_cntrrgnnm,0.41904761904761906,0
Organisation class,miller2_bltrld(ntrntnlmrkr),0.020000000000000004,0
Organisation class,miller2_trddvlpmnt(mrkr),0.020000000000000004,0
Organisation class,miller2_ntdmnt(prjct-lvlbdgt),0.033333333333333326,0
Organisation class,miller2_stts,0.4611111111111111,0
Organisation class,miller2_rbnsss(mrkr),0.020000000000000004,0
Organisation class,miller2_clmtchngdpttn(mrkr),0.020000000000000004,0
Organisation class,miller2_brnchd,0.35858585858585856,0
Organisation class,miller2_dsrtfctn(mrkr),0.020000000000000004,0
Organisation class,miller2_pbtp,0.31666666666666665,0
Organisation class,miller2_rgnstnclss,0.5581818181818181,1
Organisation class,miller2_rgnstntp,0.5066666666666666,0
Organisation class,miller2_ndgnssss(mrkr),0.020000000000000004,0
Organisation class,miller2_ctstlfrdvlpmnt(mrkr),0.020000000000000004,0
Organisation class,miller2_cfl(mrkr),0.020000000000000004,0
Organisation class,miller2_cntrrgnprcnt,0.033333333333333326,0
Organisation class,miller2_rgnlprgrm(mrkr),0.020000000000000004,0
Organisation class,miller2_prtcptrdvlpmntndgdgvrnnc,0.020000000000000004,0
Organisation class,miller2_chldrnsss(mrkr),0.020000000000000004,0
Organisation class,miller2_fndcntrnm,0.38095238095238093,0
Organisation class,miller2_rgnstnsb-clss,0.5142222222222222,0
Organisation class,miller2_dvsnnm,0.35858585858585856,0
Organisation class,miller2_nvrmntlsstnblt(mrkr),0.020000000000000004,0
Organisation class,miller2_rtcprcnt,0.033333333333333326,0
Organisation class,miller2_dsbltsss(mrkr),0.020000000000000004,0
Organisation class,miller2_prjctbrwsrcntrd,0.3622222222222222,0
Organisation class,miller2_rgnstnnm,0.5066666666666666,0
Organisation class,miller2_gndrqlt(mrkr),0.020000000000000004,0
Organisation class,miller2_rgnstnd,0.5192982456140351,0
Organisation class,miller2_cntnntd,0.020000000000000004,0
Organisation class,miller2_cntnntnm,0.3866666666666667,0
Organisation class,miller2_cntrrgnd,0.3866666666666667,0
Organisation class,miller2_sctrnm,0.40303030303030307,0
Organisation class,miller2_sctrprcnt,0.033333333333333326,0
Organisation class,miller2_mntspnt,0.033333333333333326,0
Organisation type,miller2_fsclr,0.3197860962566845,0
Organisation type,miller2_brnchnm,0.3990430622009569,0
Organisation type,miller2_cdbsnssdlvrmdl(ld),0.3074125874125874,0
Organisation type,miller2_prjctnmbr,0.38701298701298703,0
Organisation type,miller2_sctrd,0.020000000000000004,0
Organisation type,miller2_sctnnm,0.40969696969696967,0
Organisation type,miller2_fstcprcnt,0.033333333333333326,0
Organisation type,miller2_thsss(mrkr),0.020000000000000004,0
Organisation type,miller2_cntrrgnnm,0.4251082251082251,0
Organisation type,miller2_bltrld(ntrntnlmrkr),0.020000000000000004,0
Organisation type,miller2_trddvlpmnt(mrkr),0.020000000000000004,0
Organisation type,miller2_ntdmnt(prjct-lvlbdgt),0.033333333333333326,0
Organisation type,miller2_stts,0.38636363636363635,0
Organisation type,miller2_rbnsss(mrkr),0.020000000000000004,0
Organisation type,miller2_clmtchngdpttn(mrkr),0.020000000000000004,0
Organisation type,miller2_brnchd,0.3616161616161616,0
Organisation type,miller2_dsrtfctn(mrkr),0.020000000000000004,0
Organisation type,miller2_pbtp,0.46136363636363636,0
Organisation type,miller2_rgnstnclss,0.4909090909090909,0
Organisation type,miller2_rgnstntp,0.543030303030303,1
Organisation type,miller2_ndgnssss(mrkr),0.020000000000000004,0
Organisation type,miller2_ctstlfrdvlpmnt(mrkr),0.020000000000000004,0
Organisation type,miller2_cfl(mrkr),0.020000000000000004,0
Organisation type,miller2_cntrrgnprcnt,0.033333333333333326,0
Organisation type,miller2_rgnlprgrm(mrkr),0.020000000000000004,0
Organisation type,miller2_prtcptrdvlpmntndgdgvrnnc,0.020000000000000004,0
Organisation type,miller2_chldrnsss(mrkr),0.020000000000000004,0
Organisation type,miller2_fndcntrnm,0.38701298701298703,0
Organisation type,miller2_rgnstnsb-clss,0.4647272727272727,0
Organisation type,miller2_dvsnnm,0.3616161616161616,0
Organisation type,miller2_nvrmntlsstnblt(mrkr),0.020000000000000004,0
Organisation type,miller2_rtcprcnt,0.033333333333333326,0
Organisation type,miller2_dsbltsss(mrkr),0.020000000000000004,0
Organisation type,miller2_prjctbrwsrcntrd,0.3616161616161616,0
Organisation type,miller2_rgnstnnm,0.5127272727272727,0
Organisation type,miller2_gndrqlt(mrkr),0.020000000000000004,0
Organisation type,miller2_rgnstnd,0.5253588516746411,0
Organisation type,miller2_cntnntd,0.020000000000000004,0
Organisation type,miller2_cntnntnm,0.39272727272727276,0
Organisation type,miller2_cntrrgnd,0.39272727272727276,0
Organisation type,miller2_sctrnm,0.40969696969696967,0
Organisation type,miller2_sctrprcnt,0.033333333333333326,0
Organisation type,miller2_mntspnt,0.033333333333333326,0
Indigenous issues (marker),miller2_fsclr,0.020000000000000004,0
Indigenous issues (marker),miller2_brnchnm,0.020000000000000004,0
Indigenous issues (marker),miller2_cdbsnssdlvrmdl(ld),0.020000000000000004,0
Indigenous issues (marker),miller2_prjctnmbr,0.020000000000000004,0
Indigenous issues (marker),miller2_sctrd,0.4636610448375154,0
Indigenous issues (marker),miller2_sctnnm,0.020000000000000004,0
Indigenous issues (marker),miller2_fstcprcnt,0.05,0
Indigenous issues (marker),miller2_thsss(mrkr),0.6516988893459482,0
Indigenous issues (marker),miller2_cntrrgnnm,0.020000000000000004,0
Indigenous issues (marker),miller2_bltrld(ntrntnlmrkr),0.48164906988436407,0
Indigenous issues (marker),miller2_trddvlpmnt(mrkr),0.5739366515837105,0
Indigenous issues (marker),miller2_ntdmnt(prjct-lvlbdgt),0.05,0
Indigenous issues (marker),miller2_stts,0.020000000000000004,0
Indigenous issues (marker),miller2_rbnsss(mrkr),0.6415384615384615,0
Indigenous issues (marker),miller2_clmtchngdpttn(mrkr),0.5854626532887404,0
Indigenous issues (marker),miller2_brnchd,0.020000000000000004,0
Indigenous issues (marker),miller2_dsrtfctn(mrkr),0.5768996145466734,0
Indigenous issues (marker),miller2_pbtp,0.020000000000000004,0
Indigenous issues (marker),miller2_rgnstnclss,0.020000000000000004,0
Indigenous issues (marker),miller2_rgnstntp,0.020000000000000004,0
Indigenous issues (marker),miller2_ndgnssss(mrkr),0.6801628001628002,1
Indigenous issues (marker),miller2_ctstlfrdvlpmnt(mrkr),0.569492207139266,0
Indigenous issues (marker),miller2_cfl(mrkr),0.5472699849170437,0
Indigenous issues (marker),miller2_cntrrgnprcnt,0.05,0
Indigenous issues (marker),miller2_rgnlprgrm(mrkr),0.5828255404725994,0
Indigenous issues (marker),miller2_prtcptrdvlpmntndgdgvrnnc,0.4722171945701358,0
Indigenous issues (marker),miller2_chldrnsss(mrkr),0.6236437246963563,0
Indigenous issues (marker),miller2_fndcntrnm,0.020000000000000004,0
Indigenous issues (marker),miller2_rgnstnsb-clss,0.020000000000000004,0
Indigenous issues (marker),miller2_dvsnnm,0.020000000000000004,0
Indigenous issues (marker),miller2_nvrmntlsstnblt(mrkr),0.5825641025641026,0
Indigenous issues (marker),miller2_rtcprcnt,0.05,0
Indigenous issues (marker),miller2_dsbltsss(mrkr),0.620530058177117,0
Indigenous issues (marker),miller2_prjctbrwsrcntrd,0.020000000000000004,0
Indigenous issues (marker),miller2_rgnstnnm,0.020000000000000004,0
Indigenous issues (marker),miller2_gndrqlt(mrkr),0.5786425339366517,0
Indigenous issues (marker),miller2_rgnstnd,0.020000000000000004,0
Indigenous issues (marker),miller2_cntnntd,0.4722171945701358,0
Indigenous issues (marker),miller2_cntnntnm,0.020000000000000004,0
Indigenous issues (marker),miller2_cntrrgnd,0.020000000000000004,0
Indigenous issues (marker),miller2_sctrnm,0.020000000000000004,0
Indigenous issues (marker),miller2_sctrprcnt,0.05,0
Indigenous issues (marker),miller2_mntspnt,0.05,0
ICT as a tool for development (marker),miller2_fsclr,0.020000000000000004,0
ICT as a tool for development (marker),miller2_brnchnm,0.020000000000000004,0
ICT as a tool for development (marker),miller2_cdbsnssdlvrmdl(ld),0.020000000000000004,0
ICT as a tool for development (marker),miller2_prjctnmbr,0.020000000000000004,0
ICT as a tool for development (marker),miller2_sctrd,0.5156695156695157,0
ICT as a tool for development (marker),miller2_sctnnm,0.020000000000000004,0
ICT as a tool for development (marker),miller2_fstcprcnt,0.05,0
ICT as a tool for development (marker),miller2_thsss(mrkr),0.5435409035409036,0
ICT as a tool for development (marker),miller2_cntrrgnnm,0.020000000000000004,0
ICT as a tool for development (marker),miller2_bltrld(ntrntnlmrkr),0.5040264310852547,0
ICT as a tool for development (marker),miller2_trddvlpmnt(mrkr),0.6434955520669807,0
ICT as a tool for development (marker),miller2_ntdmnt(prjct-lvlbdgt),0.05,0
ICT as a tool for development (marker),miller2_stts,0.020000000000000004,0
ICT as a tool for development (marker),miller2_rbnsss(mrkr),0.5236852036852038,0
ICT as a tool for development (marker),miller2_clmtchngdpttn(mrkr),0.5611455211455212,0
ICT as a tool for development (marker),miller2_brnchd,0.020000000000000004,0
ICT as a tool for development (marker),miller2_dsrtfctn(mrkr),0.5648973248973249,0
ICT as a tool for development (marker),miller2_pbtp,0.020000000000000004,0
ICT as a tool for development (marker),miller2_rgnstnclss,0.020000000000000004,0
ICT as a tool for development (marker),miller2_rgnstntp,0.020000000000000004,0
ICT as a tool for development (marker),miller2_ndgnssss(mrkr),0.5286977350135245,0
ICT as a tool for development (marker),miller2_ctstlfrdvlpmnt(mrkr),0.6158919773037421,1
ICT as a tool for development (marker),miller2_cfl(mrkr),0.569844758416187,0
ICT as a tool for development (marker),miller2_cntrrgnprcnt,0.05,0
ICT as a tool for development (marker),miller2_rgnlprgrm(mrkr),0.5478121878121879,0
ICT as a tool for development (marker),miller2_prtcptrdvlpmntndgdgvrnnc,0.4806526806526807,0
ICT as a tool for development (marker),miller2_chldrnsss(mrkr),0.5274947274947275,0
ICT as a tool for development (marker),miller2_fndcntrnm,0.020000000000000004,0
ICT as a tool for development (marker),miller2_rgnstnsb-clss,0.020000000000000004,0
ICT as a tool for development (marker),miller2_dvsnnm,0.020000000000000004,0
ICT as a tool for development (marker),miller2_nvrmntlsstnblt(mrkr),0.557001221001221,0
ICT as a tool for development (marker),miller2_rtcprcnt,0.05,0
ICT as a tool for development (marker),miller2_dsbltsss(mrkr),0.5514212103685788,0
ICT as a tool for development (marker),miller2_prjctbrwsrcntrd,0.020000000000000004,0
ICT as a tool for development (marker),miller2_rgnstnnm,0.020000000000000004,0
ICT as a tool for development (marker),miller2_gndrqlt(mrkr),0.5554312354312354,0
ICT as a tool for development (marker),miller2_rgnstnd,0.020000000000000004,0
ICT as a tool for development (marker),miller2_cntnntd,0.48361564361564363,0
ICT as a tool for development (marker),miller2_cntnntnm,0.020000000000000004,0
ICT as a tool for development (marker),miller2_cntrrgnd,0.020000000000000004,0
ICT as a tool for development (marker),miller2_sctrnm,0.020000000000000004,0
ICT as a tool for development (marker),miller2_sctrprcnt,0.05,0
ICT as a tool for development (marker),miller2_mntspnt,0.05,0
CFLI (marker),miller2_fsclr,0.020000000000000004,0
CFLI (marker),miller2_brnchnm,0.020000000000000004,0
CFLI (marker),miller2_cdbsnssdlvrmdl(ld),0.020000000000000004,0
CFLI (marker),miller2_prjctnmbr,0.020000000000000004,0
CFLI (marker),miller2_sctrd,0.47350427350427354,0
CFLI (marker),miller2_sctnnm,0.020000000000000004,0
CFLI (marker),miller2_fstcprcnt,0.05,0
CFLI (marker),miller2_thsss(mrkr),0.5589370629370629,0
CFLI (marker),miller2_cntrrgnnm,0.020000000000000004,0
CFLI (marker),miller2_bltrld(ntrntnlmrkr),0.4884343891402715,0
CFLI (marker),miller2_trddvlpmnt(mrkr),0.5817942057942058,0
CFLI (marker),miller2_ntdmnt(prjct-lvlbdgt),0.05,0
CFLI (marker),miller2_stts,0.020000000000000004,0
CFLI (marker),miller2_rbnsss(mrkr),0.5856037296037295,0
CFLI (marker),miller2_clmtchngdpttn(mrkr),0.6051402714932126,0
CFLI (marker),miller2_brnchd,0.020000000000000004,0
CFLI (marker),miller2_dsrtfctn(mrkr),0.5856037296037295,0
CFLI (marker),miller2_pbtp,0.020000000000000004,0
CFLI (marker),miller2_rgnstnclss,0.020000000000000004,0
CFLI (marker),miller2_rgnstntp,0.020000000000000004,0
CFLI (marker),miller2_ndgnssss(mrkr),0.5589370629370629,0
CFLI (marker),miller2_ctstlfrdvlpmnt(mrkr),0.6365128205128205,0
CFLI (marker),miller2_cfl(mrkr),0.8041318681318683,1
CFLI (marker),miller2_cntrrgnprcnt,0.05,0
CFLI (marker),miller2_rgnlprgrm(mrkr),0.6016037296037295,0
CFLI (marker),miller2_prtcptrdvlpmntndgdgvrnnc,0.4495504495504496,0
