source,target,conf,realConf
Fiscal year,Fiscal year,1.0,1
Fiscal year,Biodiversity (marker),0.020000000000000004,0
Fiscal year,Bilateral aid (international marker),0.020000000000000004,0
Fiscal year,Regional program (marker),0.020000000000000004,0
Fiscal year,PBA type,0.5142857142857142,0
Fiscal year,Section name,0.7143589743589744,0
Fiscal year,FSTC percent,0.033333333333333326,0
Fiscal year,Climate change mitigation (marker),0.020000000000000004,0
Fiscal year,Organisation type,0.6480519480519482,0
Fiscal year,Branch name,0.6199999999999999,0
Fiscal year,Organisation sub-class,0.650909090909091,0
Fiscal year,CountryRegion ID,0.5558441558441558,0
Fiscal year,Status,0.46060606060606063,0
Fiscal year,Amount spent,0.033333333333333326,0
Fiscal year,Continent ID,0.020000000000000004,0
Fiscal year,Urban issues (marker),0.020000000000000004,0
Fiscal year,Children issues (marker),0.020000000000000004,0
Fiscal year,Youth issues (marker),0.020000000000000004,0
Fiscal year,Indigenous issues (marker),0.020000000000000004,0
Fiscal year,Disability issues (marker),0.020000000000000004,0
Fiscal year,ICT as a tool for development (marker),0.020000000000000004,0
Fiscal year,Knowledge for development (marker),0.020000000000000004,0
Fiscal year,Gender equality (marker),0.020000000000000004,0
Fiscal year,Organisation ID,0.5980519480519482,0
Fiscal year,Organisation name,0.6975757575757577,0
Fiscal year,Organisation class,0.8025974025974028,0
Fiscal year,Continent name,0.6133333333333333,0
Fiscal year,Project Browser country ID,0.5551820728291317,0
Fiscal year,CountryRegion name,0.6354632034632035,0
Fiscal year,CountryRegion percent,0.033333333333333326,0
Fiscal year,Sector ID,0.020000000000000004,0
Fiscal year,Sector name,0.6975757575757577,0
Fiscal year,Sector percent,0.033333333333333326,0
Biodiversity (marker),Fiscal year,0.020000000000000004,0
Biodiversity (marker),Biodiversity (marker),1.0,1
Biodiversity (marker),Bilateral aid (international marker),0.6573420479302833,0
Biodiversity (marker),Regional program (marker),0.6755555555555556,0
Biodiversity (marker),PBA type,0.020000000000000004,0
Biodiversity (marker),Section name,0.020000000000000004,0
Biodiversity (marker),FSTC percent,0.05,0
Biodiversity (marker),Climate change mitigation (marker),0.7452380952380953,0
Biodiversity (marker),Organisation type,0.020000000000000004,0
Biodiversity (marker),Branch name,0.020000000000000004,0
Biodiversity (marker),Organisation sub-class,0.020000000000000004,0
Biodiversity (marker),CountryRegion ID,0.020000000000000004,0
Biodiversity (marker),Status,0.020000000000000004,0
Biodiversity (marker),Amount spent,0.05,0
Biodiversity (marker),Continent ID,0.5301587301587302,0
Biodiversity (marker),Urban issues (marker),0.6622222222222223,0
Biodiversity (marker),Children issues (marker),0.6746666666666667,0
Biodiversity (marker),Youth issues (marker),0.7186666666666668,0
Biodiversity (marker),Indigenous issues (marker),0.6622222222222223,0
Biodiversity (marker),Disability issues (marker),0.6746666666666667,0
Biodiversity (marker),ICT as a tool for development (marker),0.720623428858723,0
Biodiversity (marker),Knowledge for development (marker),0.714316742081448,0
Biodiversity (marker),Gender equality (marker),0.7364705882352942,0
Biodiversity (marker),Organisation ID,0.020000000000000004,0
Biodiversity (marker),Organisation name,0.020000000000000004,0
Biodiversity (marker),Organisation class,0.020000000000000004,0
Biodiversity (marker),Continent name,0.020000000000000004,0
Biodiversity (marker),Project Browser country ID,0.020000000000000004,0
Biodiversity (marker),CountryRegion name,0.020000000000000004,0
Biodiversity (marker),CountryRegion percent,0.05,0
Biodiversity (marker),Sector ID,0.6089340999557719,0
Biodiversity (marker),Sector name,0.020000000000000004,0
Biodiversity (marker),Sector percent,0.05,0
Bilateral aid (international marker),Fiscal year,0.020000000000000004,0
Bilateral aid (international marker),Biodiversity (marker),0.6573420479302833,0
Bilateral aid (international marker),Bilateral aid (international marker),1.0,1
Bilateral aid (international marker),Regional program (marker),0.7443609022556392,0
Bilateral aid (international marker),PBA type,0.020000000000000004,0
Bilateral aid (international marker),Section name,0.020000000000000004,0
Bilateral aid (international marker),FSTC percent,0.05,0
Bilateral aid (international marker),Climate change mitigation (marker),0.7478345184227537,0
Bilateral aid (international marker),Organisation type,0.020000000000000004,0
Bilateral aid (international marker),Branch name,0.020000000000000004,0
Bilateral aid (international marker),Organisation sub-class,0.020000000000000004,0
Bilateral aid (international marker),CountryRegion ID,0.020000000000000004,0
Bilateral aid (international marker),Status,0.020000000000000004,0
Bilateral aid (international marker),Amount spent,0.05,0
Bilateral aid (international marker),Continent ID,0.5771428571428572,0
Bilateral aid (international marker),Urban issues (marker),0.6761904761904761,0
Bilateral aid (international marker),Children issues (marker),0.6151536978427734,0
Bilateral aid (international marker),Youth issues (marker),0.6489377289377289,0
Bilateral aid (international marker),Indigenous issues (marker),0.6761904761904761,0
Bilateral aid (international marker),Disability issues (marker),0.600672268907563,0
Bilateral aid (international marker),ICT as a tool for development (marker),0.7375910364145659,0
Bilateral aid (international marker),Knowledge for development (marker),0.7415841301555588,0
Bilateral aid (international marker),Gender equality (marker),0.6864643293214723,0
Bilateral aid (international marker),Organisation ID,0.020000000000000004,0
Bilateral aid (international marker),Organisation name,0.020000000000000004,0
Bilateral aid (international marker),Organisation class,0.020000000000000004,0
Bilateral aid (international marker),Continent name,0.020000000000000004,0
Bilateral aid (international marker),Project Browser country ID,0.020000000000000004,0
Bilateral aid (international marker),CountryRegion name,0.020000000000000004,0
Bilateral aid (international marker),CountryRegion percent,0.05,0
Bilateral aid (international marker),Sector ID,0.5731829573934837,0
Bilateral aid (international marker),Sector name,0.020000000000000004,0
Bilateral aid (international marker),Sector percent,0.05,0
Regional program (marker),Fiscal year,0.020000000000000004,0
Regional program (marker),Biodiversity (marker),0.6755555555555556,0
Regional program (marker),Bilateral aid (international marker),0.7443609022556392,0
Regional program (marker),Regional program (marker),1.0,1
Regional program (marker),PBA type,0.020000000000000004,0
Regional program (marker),Section name,0.020000000000000004,0
Regional program (marker),FSTC percent,0.05,0
Regional program (marker),Climate change mitigation (marker),0.7429987379567211,0
Regional program (marker),Organisation type,0.020000000000000004,0
Regional program (marker),Branch name,0.020000000000000004,0
Regional program (marker),Organisation sub-class,0.020000000000000004,0
Regional program (marker),CountryRegion ID,0.020000000000000004,0
Regional program (marker),Status,0.020000000000000004,0
Regional program (marker),Amount spent,0.05,0
Regional program (marker),Continent ID,0.6282352941176472,0
Regional program (marker),Urban issues (marker),0.6888888888888889,0
Regional program (marker),Children issues (marker),0.6555555555555556,0
Regional program (marker),Youth issues (marker),0.6562962962962964,0
Regional program (marker),Indigenous issues (marker),0.6888888888888889,0
Regional program (marker),Disability issues (marker),0.6185185185185185,0
Regional program (marker),ICT as a tool for development (marker),0.7393866637564117,0
Regional program (marker),Knowledge for development (marker),0.7939393939393942,0
Regional program (marker),Gender equality (marker),0.6484330484330485,0
Regional program (marker),Organisation ID,0.020000000000000004,0
Regional program (marker),Organisation name,0.020000000000000004,0
Regional program (marker),Organisation class,0.020000000000000004,0
Regional program (marker),Continent name,0.020000000000000004,0
Regional program (marker),Project Browser country ID,0.020000000000000004,0
Regional program (marker),CountryRegion name,0.020000000000000004,0
Regional program (marker),CountryRegion percent,0.05,0
Regional program (marker),Sector ID,0.6485036119711043,0
Regional program (marker),Sector name,0.020000000000000004,0
Regional program (marker),Sector percent,0.05,0
PBA type,Fiscal year,0.5142857142857142,0
PBA type,Biodiversity (marker),0.020000000000000004,0
PBA type,Bilateral aid (international marker),0.020000000000000004,0
PBA type,Regional program (marker),0.020000000000000004,0
PBA type,PBA type,1.0,1
PBA type,Section name,0.6945697577276524,0
PBA type,FSTC percent,0.033333333333333326,0
PBA type,Climate change mitigation (marker),0.020000000000000004,0
PBA type,Organisation type,0.7662337662337662,0
PBA type,Branch name,0.6818713450292397,0
PBA type,Organisation sub-class,0.5515151515151515,0
PBA type,CountryRegion ID,0.5466191325014855,0
PBA type,Status,0.4531986531986532,0
PBA type,Amount spent,0.033333333333333326,0
PBA type,Continent ID,0.020000000000000004,0
PBA type,Urban issues (marker),0.020000000000000004,0
PBA type,Children issues (marker),0.020000000000000004,0
PBA type,Youth issues (marker),0.020000000000000004,0
PBA type,Indigenous issues (marker),0.020000000000000004,0
PBA type,Disability issues (marker),0.020000000000000004,0
PBA type,ICT as a tool for development (marker),0.020000000000000004,0
PBA type,Knowledge for development (marker),0.020000000000000004,0
PBA type,Gender equality (marker),0.020000000000000004,0
PBA type,Organisation ID,0.5337373737373737,0
PBA type,Organisation name,0.6188653451811346,0
PBA type,Organisation class,0.6924242424242425,0
PBA type,Continent name,0.6020821283979179,0
PBA type,Project Browser country ID,0.620641502746766,0
PBA type,CountryRegion name,0.6292099232037313,0
PBA type,CountryRegion percent,0.033333333333333326,0
PBA type,Sector ID,0.020000000000000004,0
PBA type,Sector name,0.650125313283208,0
PBA type,Sector percent,0.033333333333333326,0
Section name,Fiscal year,0.7143589743589744,0
Section name,Biodiversity (marker),0.020000000000000004,0
Section name,Bilateral aid (international marker),0.020000000000000004,0
Section name,Regional program (marker),0.020000000000000004,0
Section name,PBA type,0.6945697577276524,0
Section name,Section name,1.0,1
Section name,FSTC percent,0.033333333333333326,0
Section name,Climate change mitigation (marker),0.020000000000000004,0
Section name,Organisation type,0.8412698412698414,0
Section name,Branch name,0.9555555555555555,0
Section name,Organisation sub-class,0.7357142857142858,0
Section name,CountryRegion ID,0.7981297134238312,0
Section name,Status,0.704029304029304,0
Section name,Amount spent,0.033333333333333326,0
Section name,Continent ID,0.020000000000000004,0
Section name,Urban issues (marker),0.020000000000000004,0
Section name,Children issues (marker),0.020000000000000004,0
Section name,Youth issues (marker),0.020000000000000004,0
Section name,Indigenous issues (marker),0.020000000000000004,0
Section name,Disability issues (marker),0.020000000000000004,0
Section name,ICT as a tool for development (marker),0.020000000000000004,0
Section name,Knowledge for development (marker),0.020000000000000004,0
Section name,Gender equality (marker),0.020000000000000004,0
Section name,Organisation ID,0.8033613445378152,0
Section name,Organisation name,0.9333333333333333,0
Section name,Organisation class,0.8882783882783885,0
Section name,Continent name,0.8181818181818181,0
Section name,Project Browser country ID,0.7845852187028657,0
Section name,CountryRegion name,0.9487179487179487,0
Section name,CountryRegion percent,0.033333333333333326,0
Section name,Sector ID,0.020000000000000004,0
Section name,Sector name,0.8947368421052633,0
Section name,Sector percent,0.033333333333333326,0
FSTC percent,Fiscal year,0.033333333333333326,0
FSTC percent,Biodiversity (marker),0.05,0
FSTC percent,Bilateral aid (international marker),0.05,0
FSTC percent,Regional program (marker),0.05,0
FSTC percent,PBA type,0.033333333333333326,0
FSTC percent,Section name,0.033333333333333326,0
FSTC percent,FSTC percent,1.0,1
FSTC percent,Climate change mitigation (marker),0.05,0
FSTC percent,Organisation type,0.033333333333333326,0
FSTC percent,Branch name,0.033333333333333326,0
FSTC percent,Organisation sub-class,0.033333333333333326,0
FSTC percent,CountryRegion ID,0.033333333333333326,0
FSTC percent,Status,0.033333333333333326,0
FSTC percent,Amount spent,0.5492063492063493,0
FSTC percent,Continent ID,0.05,0
FSTC percent,Urban issues (marker),0.05,0
FSTC percent,Children issues (marker),0.05,0
FSTC percent,Youth issues (marker),0.05,0
FSTC percent,Indigenous issues (marker),0.05,0
FSTC percent,Disability issues (marker),0.05,0
FSTC percent,ICT as a tool for development (marker),0.05,0
FSTC percent,Knowledge for development (marker),0.05,0
FSTC percent,Gender equality (marker),0.05,0
FSTC percent,Organisation ID,0.033333333333333326,0
FSTC percent,Organisation name,0.033333333333333326,0
FSTC percent,Organisation class,0.033333333333333326,0
FSTC percent,Continent name,0.033333333333333326,0
FSTC percent,Project Browser country ID,0.033333333333333326,0
FSTC percent,CountryRegion name,0.033333333333333326,0
FSTC percent,CountryRegion percent,0.6475524475524475,0
FSTC percent,Sector ID,0.05,0
FSTC percent,Sector name,0.033333333333333326,0
FSTC percent,Sector percent,0.76,0
Climate change mitigation (marker),Fiscal year,0.020000000000000004,0
Climate change mitigation (marker),Biodiversity (marker),0.7452380952380953,0
Climate change mitigation (marker),Bilateral aid (international marker),0.7478345184227537,0
Climate change mitigation (marker),Regional program (marker),0.7429987379567211,0
Climate change mitigation (marker),PBA type,0.020000000000000004,0
Climate change mitigation (marker),Section name,0.020000000000000004,0
Climate change mitigation (marker),FSTC percent,0.05,0
Climate change mitigation (marker),Climate change mitigation (marker),1.0,1
Climate change mitigation (marker),Organisation type,0.020000000000000004,0
Climate change mitigation (marker),Branch name,0.020000000000000004,0
Climate change mitigation (marker),Organisation sub-class,0.020000000000000004,0
Climate change mitigation (marker),CountryRegion ID,0.020000000000000004,0
Climate change mitigation (marker),Status,0.020000000000000004,0
Climate change mitigation (marker),Amount spent,0.05,0
Climate change mitigation (marker),Continent ID,0.5396825396825398,0
Climate change mitigation (marker),Urban issues (marker),0.6834641548927263,0
Climate change mitigation (marker),Children issues (marker),0.6829199372056516,0
Climate change mitigation (marker),Youth issues (marker),0.7406070120355837,0
Climate change mitigation (marker),Indigenous issues (marker),0.6834641548927263,0
Climate change mitigation (marker),Disability issues (marker),0.7310832025117739,0
Climate change mitigation (marker),ICT as a tool for development (marker),0.8538914027149322,0
Climate change mitigation (marker),Knowledge for development (marker),0.8760439560439561,0
Climate change mitigation (marker),Gender equality (marker),0.7581894296180012,0
Climate change mitigation (marker),Organisation ID,0.020000000000000004,0
Climate change mitigation (marker),Organisation name,0.020000000000000004,0
Climate change mitigation (marker),Organisation class,0.020000000000000004,0
Climate change mitigation (marker),Continent name,0.020000000000000004,0
Climate change mitigation (marker),Project Browser country ID,0.020000000000000004,0
Climate change mitigation (marker),CountryRegion name,0.020000000000000004,0
Climate change mitigation (marker),CountryRegion percent,0.05,0
Climate change mitigation (marker),Sector ID,0.6056208898314162,0
Climate change mitigation (marker),Sector name,0.020000000000000004,0
Climate change mitigation (marker),Sector percent,0.05,0
Organisation type,Fiscal year,0.6480519480519482,0
Organisation type,Biodiversity (marker),0.020000000000000004,0
Organisation type,Bilateral aid (international marker),0.020000000000000004,0
Organisation type,Regional program (marker),0.020000000000000004,0
Organisation type,PBA type,0.7662337662337662,0
Organisation type,Section name,0.8412698412698414,0
Organisation type,FSTC percent,0.033333333333333326,0
Organisation type,Climate change mitigation (marker),0.020000000000000004,0
Organisation type,Organisation type,1.0,1
Organisation type,Branch name,0.7809523809523811,0
Organisation type,Organisation sub-class,0.7471861471861472,0
Organisation type,CountryRegion ID,0.7301616031027796,0
Organisation type,Status,0.5636363636363637,0
Organisation type,Amount spent,0.033333333333333326,0
Organisation type,Continent ID,0.020000000000000004,0
Organisation type,Urban issues (marker),0.020000000000000004,0
Organisation type,Children issues (marker),0.020000000000000004,0
Organisation type,Youth issues (marker),0.020000000000000004,0
Organisation type,Indigenous issues (marker),0.020000000000000004,0
Organisation type,Disability issues (marker),0.020000000000000004,0
Organisation type,ICT as a tool for development (marker),0.020000000000000004,0
Organisation type,Knowledge for development (marker),0.020000000000000004,0
Organisation type,Gender equality (marker),0.020000000000000004,0
Organisation type,Organisation ID,0.8233766233766235,0
Organisation type,Organisation name,0.8786967418546368,0
Organisation type,Organisation class,0.9333333333333333,0
Organisation type,Continent name,0.7233853865432813,0
Organisation type,Project Browser country ID,0.7651873272925904,0
Organisation type,CountryRegion name,0.767572778099094,0
Organisation type,CountryRegion percent,0.033333333333333326,0
Organisation type,Sector ID,0.020000000000000004,0
Organisation type,Sector name,0.8057142857142858,0
Organisation type,Sector percent,0.033333333333333326,0
Branch name,Fiscal year,0.6199999999999999,0
Branch name,Biodiversity (marker),0.020000000000000004,0
Branch name,Bilateral aid (international marker),0.020000000000000004,0
Branch name,Regional program (marker),0.020000000000000004,0
Branch name,PBA type,0.6818713450292397,0
Branch name,Section name,0.9555555555555555,0
Branch name,FSTC percent,0.033333333333333326,0
Branch name,Climate change mitigation (marker),0.020000000000000004,0
Branch name,Organisation type,0.7809523809523811,0
Branch name,Branch name,1.0,1
Branch name,Organisation sub-class,0.700952380952381,0
Branch name,CountryRegion ID,0.6411764705882353,0
Branch name,Status,0.7142857142857144,0
Branch name,Amount spent,0.033333333333333326,0
Branch name,Continent ID,0.020000000000000004,0
Branch name,Urban issues (marker),0.020000000000000004,0
Branch name,Children issues (marker),0.020000000000000004,0
Branch name,Youth issues (marker),0.020000000000000004,0
Branch name,Indigenous issues (marker),0.020000000000000004,0
Branch name,Disability issues (marker),0.020000000000000004,0
Branch name,ICT as a tool for development (marker),0.020000000000000004,0
Branch name,Knowledge for development (marker),0.020000000000000004,0
Branch name,Gender equality (marker),0.020000000000000004,0
Branch name,Organisation ID,0.7226190476190477,0
Branch name,Organisation name,0.8952380952380954,0
Branch name,Organisation class,0.7652661064425772,0
Branch name,Continent name,0.788888888888889,0
Branch name,Project Browser country ID,0.6684107327141384,0
Branch name,CountryRegion name,0.8258823529411765,0
Branch name,CountryRegion percent,0.033333333333333326,0
Branch name,Sector ID,0.020000000000000004,0
Branch name,Sector name,0.8857142857142859,0
Branch name,Sector percent,0.033333333333333326,0
Organisation sub-class,Fiscal year,0.650909090909091,0
Organisation sub-class,Biodiversity (marker),0.020000000000000004,0
Organisation sub-class,Bilateral aid (international marker),0.020000000000000004,0
Organisation sub-class,Regional program (marker),0.020000000000000004,0
Organisation sub-class,PBA type,0.5515151515151515,0
Organisation sub-class,Section name,0.7357142857142858,0
Organisation sub-class,FSTC percent,0.033333333333333326,0
Organisation sub-class,Climate change mitigation (marker),0.020000000000000004,0
Organisation sub-class,Organisation type,0.7471861471861472,0
Organisation sub-class,Branch name,0.700952380952381,0
Organisation sub-class,Organisation sub-class,1.0,1
Organisation sub-class,CountryRegion ID,0.656043956043956,0
Organisation sub-class,Status,0.5733333333333333,0
Organisation sub-class,Amount spent,0.033333333333333326,0
Organisation sub-class,Continent ID,0.020000000000000004,0
Organisation sub-class,Urban issues (marker),0.020000000000000004,0
Organisation sub-class,Children issues (marker),0.020000000000000004,0
Organisation sub-class,Youth issues (marker),0.020000000000000004,0
Organisation sub-class,Indigenous issues (marker),0.020000000000000004,0
Organisation sub-class,Disability issues (marker),0.020000000000000004,0
Organisation sub-class,ICT as a tool for development (marker),0.020000000000000004,0
Organisation sub-class,Knowledge for development (marker),0.020000000000000004,0
Organisation sub-class,Gender equality (marker),0.020000000000000004,0
Organisation sub-class,Organisation ID,0.7523809523809524,0
Organisation sub-class,Organisation name,0.7904761904761906,0
Organisation sub-class,Organisation class,0.9028571428571428,0
Organisation sub-class,Continent name,0.5855311355311354,0
Organisation sub-class,Project Browser country ID,0.6587545787545788,0
Organisation sub-class,CountryRegion name,0.6911355311355312,0
Organisation sub-class,CountryRegion percent,0.033333333333333326,0
Organisation sub-class,Sector ID,0.020000000000000004,0
Organisation sub-class,Sector name,0.7257142857142858,0
Organisation sub-class,Sector percent,0.033333333333333326,0
CountryRegion ID,Fiscal year,0.5558441558441558,0
CountryRegion ID,Biodiversity (marker),0.020000000000000004,0
CountryRegion ID,Bilateral aid (international marker),0.020000000000000004,0
CountryRegion ID,Regional program (marker),0.020000000000000004,0
CountryRegion ID,PBA type,0.5466191325014855,0
CountryRegion ID,Section name,0.7981297134238312,0
CountryRegion ID,FSTC percent,0.033333333333333326,0
CountryRegion ID,Climate change mitigation (marker),0.020000000000000004,0
CountryRegion ID,Organisation type,0.7301616031027796,0
CountryRegion ID,Branch name,0.6411764705882353,0
CountryRegion ID,Organisation sub-class,0.656043956043956,0
CountryRegion ID,CountryRegion ID,1.0,1
CountryRegion ID,Status,0.5015384615384615,0
CountryRegion ID,Amount spent,0.033333333333333326,0
CountryRegion ID,Continent ID,0.020000000000000004,0
CountryRegion ID,Urban issues (marker),0.020000000000000004,0
CountryRegion ID,Children issues (marker),0.020000000000000004,0
CountryRegion ID,Youth issues (marker),0.020000000000000004,0
CountryRegion ID,Indigenous issues (marker),0.020000000000000004,0
CountryRegion ID,Disability issues (marker),0.020000000000000004,0
CountryRegion ID,ICT as a tool for development (marker),0.020000000000000004,0
CountryRegion ID,Knowledge for development (marker),0.020000000000000004,0
CountryRegion ID,Gender equality (marker),0.020000000000000004,0
CountryRegion ID,Organisation ID,0.8741880341880341,0
CountryRegion ID,Organisation name,0.7113380736910149,0
CountryRegion ID,Organisation class,0.7689670329670331,0
CountryRegion ID,Continent name,0.5898395721925134,0
CountryRegion ID,Project Browser country ID,0.8862090290661719,0
CountryRegion ID,CountryRegion name,0.8997821350762527,0
CountryRegion ID,CountryRegion percent,0.033333333333333326,0
CountryRegion ID,Sector ID,0.020000000000000004,0
CountryRegion ID,Sector name,0.743259929612871,0
CountryRegion ID,Sector percent,0.033333333333333326,0
Status,Fiscal year,0.46060606060606063,0
Status,Biodiversity (marker),0.020000000000000004,0
Status,Bilateral aid (international marker),0.020000000000000004,0
Status,Regional program (marker),0.020000000000000004,0
Status,PBA type,0.4531986531986532,0
Status,Section name,0.704029304029304,0
Status,FSTC percent,0.033333333333333326,0
Status,Climate change mitigation (marker),0.020000000000000004,0
Status,Organisation type,0.5636363636363637,0
Status,Branch name,0.7142857142857144,0
Status,Organisation sub-class,0.5733333333333333,0
Status,CountryRegion ID,0.5015384615384615,0
Status,Status,1.0,1
Status,Amount spent,0.033333333333333326,0
Status,Continent ID,0.020000000000000004,0
Status,Urban issues (marker),0.020000000000000004,0
Status,Children issues (marker),0.020000000000000004,0
Status,Youth issues (marker),0.020000000000000004,0
Status,Indigenous issues (marker),0.020000000000000004,0
Status,Disability issues (marker),0.020000000000000004,0
Status,ICT as a tool for development (marker),0.020000000000000004,0
Status,Knowledge for development (marker),0.020000000000000004,0
Status,Gender equality (marker),0.020000000000000004,0
Status,Organisation ID,0.5487179487179488,0
Status,Organisation name,0.7142857142857144,0
Status,Organisation class,0.6242424242424243,0
Status,Continent name,0.6476190476190476,0
Status,Project Browser country ID,0.4664615384615385,0
Status,CountryRegion name,0.6457142857142857,0
Status,CountryRegion percent,0.033333333333333326,0
Status,Sector ID,0.020000000000000004,0
Status,Sector name,0.7142857142857144,0
Status,Sector percent,0.033333333333333326,0
Amount spent,Fiscal year,0.033333333333333326,0
Amount spent,Biodiversity (marker),0.05,0
Amount spent,Bilateral aid (international marker),0.05,0
Amount spent,Regional program (marker),0.05,0
Amount spent,PBA type,0.033333333333333326,0
Amount spent,Section name,0.033333333333333326,0
Amount spent,FSTC percent,0.5492063492063493,0
Amount spent,Climate change mitigation (marker),0.05,0
Amount spent,Organisation type,0.033333333333333326,0
Amount spent,Branch name,0.033333333333333326,0
Amount spent,Organisation sub-class,0.033333333333333326,0
Amount spent,CountryRegion ID,0.033333333333333326,0
Amount spent,Status,0.033333333333333326,0
Amount spent,Amount spent,1.0,1
Amount spent,Continent ID,0.05,0
Amount spent,Urban issues (marker),0.05,0
Amount spent,Children issues (marker),0.05,0
Amount spent,Youth issues (marker),0.05,0
Amount spent,Indigenous issues (marker),0.05,0
Amount spent,Disability issues (marker),0.05,0
Amount spent,ICT as a tool for development (marker),0.05,0
Amount spent,Knowledge for development (marker),0.05,0
Amount spent,Gender equality (marker),0.05,0
Amount spent,Organisation ID,0.033333333333333326,0
Amount spent,Organisation name,0.033333333333333326,0
Amount spent,Organisation class,0.033333333333333326,0
Amount spent,Continent name,0.033333333333333326,0
Amount spent,Project Browser country ID,0.033333333333333326,0
Amount spent,CountryRegion name,0.033333333333333326,0
Amount spent,CountryRegion percent,0.6285714285714287,0
Amount spent,Sector ID,0.05,0
Amount spent,Sector name,0.033333333333333326,0
Amount spent,Sector percent,0.6157142857142857,0
Continent ID,Fiscal year,0.020000000000000004,0
Continent ID,Biodiversity (marker),0.5301587301587302,0
Continent ID,Bilateral aid (international marker),0.5771428571428572,0
Continent ID,Regional program (marker),0.6282352941176472,0
Continent ID,PBA type,0.020000000000000004,0
Continent ID,Section name,0.020000000000000004,0
Continent ID,FSTC percent,0.05,0
Continent ID,Climate change mitigation (marker),0.5396825396825398,0
Continent ID,Organisation type,0.020000000000000004,0
Continent ID,Branch name,0.020000000000000004,0
Continent ID,Organisation sub-class,0.020000000000000004,0
Continent ID,CountryRegion ID,0.020000000000000004,0
Continent ID,Status,0.020000000000000004,0
Continent ID,Amount spent,0.05,0
Continent ID,Continent ID,1.0,1
Continent ID,Urban issues (marker),0.5512380952380953,0
Continent ID,Children issues (marker),0.5465322128851542,0
Continent ID,Youth issues (marker),0.5398095238095239,0
Continent ID,Indigenous issues (marker),0.5512380952380953,0
Continent ID,Disability issues (marker),0.5067936507936508,0
Continent ID,ICT as a tool for development (marker),0.6320448179271709,0
Continent ID,Knowledge for development (marker),0.6925490196078432,0
Continent ID,Gender equality (marker),0.516952380952381,0
Continent ID,Organisation ID,0.020000000000000004,0
Continent ID,Organisation name,0.020000000000000004,0
Continent ID,Organisation class,0.020000000000000004,0
Continent ID,Continent name,0.020000000000000004,0
Continent ID,Project Browser country ID,0.020000000000000004,0
Continent ID,CountryRegion name,0.020000000000000004,0
Continent ID,CountryRegion percent,0.05,0
Continent ID,Sector ID,0.7968253968253969,0
Continent ID,Sector name,0.020000000000000004,0
Continent ID,Sector percent,0.05,0
Project number,Fiscal year,0.6857142857142857,0
Project number,Biodiversity (marker),0.020000000000000004,0
Project number,Bilateral aid (international marker),0.020000000000000004,0
Project number,Regional program (marker),0.020000000000000004,0
Project number,PBA type,0.711111111111111,0
Project number,Section name,0.842857142857143,0
Project number,FSTC percent,0.033333333333333326,0
Project number,Climate change mitigation (marker),0.020000000000000004,0
Project number,Organisation type,0.8533333333333333,0
Project number,Branch name,0.7731203007518797,0
Project number,Organisation sub-class,0.6964102564102564,0
Project number,CountryRegion ID,0.7733333333333332,0
Project number,Status,0.5729603729603729,0
Project number,Amount spent,0.033333333333333326,0
Project number,Continent ID,0.020000000000000004,0
Project number,Urban issues (marker),0.020000000000000004,0
Project number,Children issues (marker),0.020000000000000004,0
Project number,Youth issues (marker),0.020000000000000004,0
Project number,Indigenous issues (marker),0.020000000000000004,0
Project number,Disability issues (marker),0.020000000000000004,0
Project number,ICT as a tool for development (marker),0.020000000000000004,0
Project number,Knowledge for development (marker),0.020000000000000004,0
Project number,Gender equality (marker),0.020000000000000004,0
Project number,Organisation ID,0.8700000000000001,0
Project number,Organisation name,0.8628571428571428,0
Project number,Organisation class,0.8755555555555556,0
Project number,Continent name,0.7481203007518797,0
Project number,Project Browser country ID,0.825925925925926,0
Project number,CountryRegion name,0.7676190476190476,0
Project number,CountryRegion percent,0.033333333333333326,0
Project number,Sector ID,0.020000000000000004,0
Project number,Sector name,0.8025062656641604,0
Project number,Sector percent,0.033333333333333326,0
Maximum CIDA contribution (project-level),Fiscal year,0.033333333333333326,0
Maximum CIDA contribution (project-level),Biodiversity (marker),0.05,0
Maximum CIDA contribution (project-level),Bilateral aid (international marker),0.05,0
Maximum CIDA contribution (project-level),Regional program (marker),0.05,0
Maximum CIDA contribution (project-level),PBA type,0.033333333333333326,0
Maximum CIDA contribution (project-level),Section name,0.033333333333333326,0
Maximum CIDA contribution (project-level),FSTC percent,0.46476190476190476,0
Maximum CIDA contribution (project-level),Climate change mitigation (marker),0.05,0
Maximum CIDA contribution (project-level),Organisation type,0.033333333333333326,0
Maximum CIDA contribution (project-level),Branch name,0.033333333333333326,0
Maximum CIDA contribution (project-level),Organisation sub-class,0.033333333333333326,0
Maximum CIDA contribution (project-level),CountryRegion ID,0.033333333333333326,0
Maximum CIDA contribution (project-level),Status,0.033333333333333326,0
Maximum CIDA contribution (project-level),Amount spent,0.6791697191697192,0
Maximum CIDA contribution (project-level),Continent ID,0.05,0
Maximum CIDA contribution (project-level),Urban issues (marker),0.05,0
Maximum CIDA contribution (project-level),Children issues (marker),0.05,0
Maximum CIDA contribution (project-level),Youth issues (marker),0.05,0
Maximum CIDA contribution (project-level),Indigenous issues (marker),0.05,0
Maximum CIDA contribution (project-level),Disability issues (marker),0.05,0
Maximum CIDA contribution (project-level),ICT as a tool for development (marker),0.05,0
Maximum CIDA contribution (project-level),Knowledge for development (marker),0.05,0
Maximum CIDA contribution (project-level),Gender equality (marker),0.05,0
Maximum CIDA contribution (project-level),Organisation ID,0.033333333333333326,0
Maximum CIDA contribution (project-level),Organisation name,0.033333333333333326,0
Maximum CIDA contribution (project-level),Organisation class,0.033333333333333326,0
Maximum CIDA contribution (project-level),Continent name,0.033333333333333326,0
Maximum CIDA contribution (project-level),Project Browser country ID,0.033333333333333326,0
Maximum CIDA contribution (project-level),CountryRegion name,0.033333333333333326,0
Maximum CIDA contribution (project-level),CountryRegion percent,0.6011302982731555,0
Maximum CIDA contribution (project-level),Sector ID,0.05,0
Maximum CIDA contribution (project-level),Sector name,0.033333333333333326,0
Maximum CIDA contribution (project-level),Sector percent,0.52,0
Branch ID,Fiscal year,0.5371428571428571,0
Branch ID,Biodiversity (marker),0.020000000000000004,0
Branch ID,Bilateral aid (international marker),0.020000000000000004,0
Branch ID,Regional program (marker),0.020000000000000004,0
Branch ID,PBA type,0.6444444444444445,0
Branch ID,Section name,0.7620915032679738,0
Branch ID,FSTC percent,0.033333333333333326,0
Branch ID,Climate change mitigation (marker),0.020000000000000004,0
Branch ID,Organisation type,0.7333333333333334,0
Branch ID,Branch name,0.7638888888888891,0
Branch ID,Organisation sub-class,0.6533333333333333,0
Branch ID,CountryRegion ID,0.8640522875816994,0
Branch ID,Status,0.5487179487179488,0
Branch ID,Amount spent,0.033333333333333326,0
Branch ID,Continent ID,0.020000000000000004,0
Branch ID,Urban issues (marker),0.020000000000000004,0
Branch ID,Children issues (marker),0.020000000000000004,0
Branch ID,Youth issues (marker),0.020000000000000004,0
Branch ID,Indigenous issues (marker),0.020000000000000004,0
Branch ID,Disability issues (marker),0.020000000000000004,0
Branch ID,ICT as a tool for development (marker),0.020000000000000004,0
Branch ID,Knowledge for development (marker),0.020000000000000004,0
Branch ID,Gender equality (marker),0.020000000000000004,0
Branch ID,Organisation ID,0.8857142857142859,0
Branch ID,Organisation name,0.6888888888888889,0
Branch ID,Organisation class,0.7176470588235293,0
Branch ID,Continent name,0.5384920634920636,0
Branch ID,Project Browser country ID,0.7904139433551198,0
Branch ID,CountryRegion name,0.739607843137255,0
Branch ID,CountryRegion percent,0.033333333333333326,0
Branch ID,Sector ID,0.020000000000000004,0
Branch ID,Sector name,0.6857142857142857,0
Branch ID,Sector percent,0.033333333333333326,0
Division ID,Fiscal year,0.5357142857142857,0
Division ID,Biodiversity (marker),0.020000000000000004,0
Division ID,Bilateral aid (international marker),0.020000000000000004,0
Division ID,Regional program (marker),0.020000000000000004,0
Division ID,PBA type,0.6000000000000001,0
Division ID,Section name,0.8176470588235294,0
Division ID,FSTC percent,0.033333333333333326,0
Division ID,Climate change mitigation (marker),0.020000000000000004,0
Division ID,Organisation type,0.7792429792429794,0
Division ID,Branch name,0.7514705882352941,0
Division ID,Organisation sub-class,0.6455074337427279,0
Division ID,CountryRegion ID,0.8711111111111112,0
Division ID,Status,0.4953846153846154,0
Division ID,Amount spent,0.033333333333333326,0
Division ID,Continent ID,0.020000000000000004,0
Division ID,Urban issues (marker),0.020000000000000004,0
Division ID,Children issues (marker),0.020000000000000004,0
Division ID,Youth issues (marker),0.020000000000000004,0
Division ID,Indigenous issues (marker),0.020000000000000004,0
Division ID,Disability issues (marker),0.020000000000000004,0
Division ID,ICT as a tool for development (marker),0.020000000000000004,0
Division ID,Knowledge for development (marker),0.020000000000000004,0
Division ID,Gender equality (marker),0.020000000000000004,0
Division ID,Organisation ID,0.9076923076923078,0
Division ID,Organisation name,0.7219780219780221,0
Division ID,Organisation class,0.8681318681318682,0
Division ID,Continent name,0.55,0
Division ID,Project Browser country ID,0.8124756335282652,0
Division ID,CountryRegion name,0.7555555555555555,0
Division ID,CountryRegion percent,0.033333333333333326,0
Division ID,Sector ID,0.020000000000000004,0
Division ID,Sector name,0.7058479532163744,0
Division ID,Sector percent,0.033333333333333326,0
Division name,Fiscal year,0.6352380952380954,0
Division name,Biodiversity (marker),0.020000000000000004,0
Division name,Bilateral aid (international marker),0.020000000000000004,0
Division name,Regional program (marker),0.020000000000000004,0
Division name,PBA type,0.6945697577276524,0
Division name,Section name,1.0,0
Division name,FSTC percent,0.033333333333333326,0
Division name,Climate change mitigation (marker),0.020000000000000004,0
Division name,Organisation type,0.8173382173382173,0
Division name,Branch name,0.9764705882352942,0
Division name,Organisation sub-class,0.6908424908424908,0
Division name,CountryRegion ID,0.7019607843137254,0
Division name,Status,0.6876190476190477,0
Division name,Amount spent,0.033333333333333326,0
Division name,Continent ID,0.020000000000000004,0
Division name,Urban issues (marker),0.020000000000000004,0
Division name,Children issues (marker),0.020000000000000004,0
Division name,Youth issues (marker),0.020000000000000004,0
Division name,Indigenous issues (marker),0.020000000000000004,0
Division name,Disability issues (marker),0.020000000000000004,0
Division name,ICT as a tool for development (marker),0.020000000000000004,0
Division name,Knowledge for development (marker),0.020000000000000004,0
Division name,Gender equality (marker),0.020000000000000004,0
Division name,Organisation ID,0.76007326007326,0
Division name,Organisation name,0.9076923076923078,0
Division name,Organisation class,0.9062271062271063,0
Division name,Continent name,0.8,0
Division name,Project Browser country ID,0.7266666666666668,0
Division name,CountryRegion name,0.8666666666666667,0
Division name,CountryRegion percent,0.033333333333333326,0
Division name,Sector ID,0.020000000000000004,0
Division name,Sector name,0.8947368421052633,0
Division name,Sector percent,0.033333333333333326,0
Section ID,Fiscal year,0.6315018315018316,0
Section ID,Biodiversity (marker),0.020000000000000004,0
Section ID,Bilateral aid (international marker),0.020000000000000004,0
Section ID,Regional program (marker),0.020000000000000004,0
Section ID,PBA type,0.6000000000000001,0
Section ID,Section name,0.8176470588235294,0
Section ID,FSTC percent,0.033333333333333326,0
Section ID,Climate change mitigation (marker),0.020000000000000004,0
Section ID,Organisation type,0.8031746031746032,0
Section ID,Branch name,0.7305555555555556,0
Section ID,Organisation sub-class,0.6976190476190476,0
Section ID,CountryRegion ID,0.9487179487179487,0
Section ID,Status,0.5282051282051283,0
Section ID,Amount spent,0.033333333333333326,0
Section ID,Continent ID,0.020000000000000004,0
Section ID,Urban issues (marker),0.020000000000000004,0
Section ID,Children issues (marker),0.020000000000000004,0
Section ID,Youth issues (marker),0.020000000000000004,0
Section ID,Indigenous issues (marker),0.020000000000000004,0
Section ID,Disability issues (marker),0.020000000000000004,0
Section ID,ICT as a tool for development (marker),0.020000000000000004,0
Section ID,Knowledge for development (marker),0.020000000000000004,0
Section ID,Gender equality (marker),0.020000000000000004,0
Section ID,Organisation ID,0.9333333333333333,0
Section ID,Organisation name,0.7476190476190476,0
Section ID,Organisation class,0.8501831501831503,0
Section ID,Continent name,0.5931818181818183,0
Section ID,Project Browser country ID,0.8755656108597287,0
Section ID,CountryRegion name,0.8331623931623933,0
Section ID,CountryRegion percent,0.033333333333333326,0
Section ID,Sector ID,0.020000000000000004,0
Section ID,Sector name,0.7058479532163744,0
Section ID,Sector percent,0.033333333333333326,0
Fund centre ID,Fiscal year,0.020000000000000004,0
Fund centre ID,Biodiversity (marker),0.5828571428571429,0
Fund centre ID,Bilateral aid (international marker),0.6021350078492935,0
Fund centre ID,Regional program (marker),0.6702262443438914,0
Fund centre ID,PBA type,0.020000000000000004,0
Fund centre ID,Section name,0.020000000000000004,0
Fund centre ID,FSTC percent,0.05,0
Fund centre ID,Climate change mitigation (marker),0.6545418167266908,0
Fund centre ID,Organisation type,0.020000000000000004,0
Fund centre ID,Branch name,0.020000000000000004,0
Fund centre ID,Organisation sub-class,0.020000000000000004,0
Fund centre ID,CountryRegion ID,0.020000000000000004,0
Fund centre ID,Status,0.020000000000000004,0
Fund centre ID,Amount spent,0.05,0
Fund centre ID,Continent ID,0.7398319327731093,0
Fund centre ID,Urban issues (marker),0.5723809523809524,0
Fund centre ID,Children issues (marker),0.5761904761904761,0
Fund centre ID,Youth issues (marker),0.6008403361344539,0
Fund centre ID,Indigenous issues (marker),0.5723809523809524,0
Fund centre ID,Disability issues (marker),0.5523809523809524,0
Fund centre ID,ICT as a tool for development (marker),0.7477924503134588,0
Fund centre ID,Knowledge for development (marker),0.7423716153127917,0
Fund centre ID,Gender equality (marker),0.5920634920634922,0
Fund centre ID,Organisation ID,0.020000000000000004,0
Fund centre ID,Organisation name,0.020000000000000004,0
Fund centre ID,Organisation class,0.020000000000000004,0
Fund centre ID,Continent name,0.020000000000000004,0
Fund centre ID,Project Browser country ID,0.020000000000000004,0
Fund centre ID,CountryRegion name,0.020000000000000004,0
Fund centre ID,CountryRegion percent,0.05,0
Fund centre ID,Sector ID,0.8514285714285714,0
Fund centre ID,Sector name,0.020000000000000004,0
Fund centre ID,Sector percent,0.05,0
Fund centre name,Fiscal year,0.6000000000000001,0
Fund centre name,Biodiversity (marker),0.020000000000000004,0
Fund centre name,Bilateral aid (international marker),0.020000000000000004,0
Fund centre name,Regional program (marker),0.020000000000000004,0
Fund centre name,PBA type,0.6241002506265665,0
Fund centre name,Section name,0.8942857142857144,0
Fund centre name,FSTC percent,0.033333333333333326,0
Fund centre name,Climate change mitigation (marker),0.020000000000000004,0
Fund centre name,Organisation type,0.7714285714285714,0
Fund centre name,Branch name,0.848888888888889,0
Fund centre name,Organisation sub-class,0.6893772893772894,0
Fund centre name,CountryRegion ID,0.7768728004022123,0
Fund centre name,Status,0.6199800199800201,0
Fund centre name,Amount spent,0.033333333333333326,0
Fund centre name,Continent ID,0.020000000000000004,0
Fund centre name,Urban issues (marker),0.020000000000000004,0
Fund centre name,Children issues (marker),0.020000000000000004,0
Fund centre name,Youth issues (marker),0.020000000000000004,0
Fund centre name,Indigenous issues (marker),0.020000000000000004,0
Fund centre name,Disability issues (marker),0.020000000000000004,0
Fund centre name,ICT as a tool for development (marker),0.020000000000000004,0
Fund centre name,Knowledge for development (marker),0.020000000000000004,0
Fund centre name,Gender equality (marker),0.020000000000000004,0
Fund centre name,Organisation ID,0.7588795518207283,0
Fund centre name,Organisation name,0.8628571428571428,0
Fund centre name,Organisation class,0.7588795518207283,0
Fund centre name,Continent name,0.7511111111111111,0
Fund centre name,Project Browser country ID,0.7642183027056977,0
Fund centre name,CountryRegion name,0.9023629964806437,0
Fund centre name,CountryRegion percent,0.033333333333333326,0
Fund centre name,Sector ID,0.020000000000000004,0
Fund centre name,Sector name,0.8514285714285714,0
Fund centre name,Sector percent,0.033333333333333326,0
Untied amount(Project-level budget),Fiscal year,0.033333333333333326,0
Untied amount(Project-level budget),Biodiversity (marker),0.05,0
Untied amount(Project-level budget),Bilateral aid (international marker),0.05,0
Untied amount(Project-level budget),Regional program (marker),0.05,0
Untied amount(Project-level budget),PBA type,0.033333333333333326,0
Untied amount(Project-level budget),Section name,0.033333333333333326,0
Untied amount(Project-level budget),FSTC percent,0.4542857142857143,0
Untied amount(Project-level budget),Climate change mitigation (marker),0.05,0
Untied amount(Project-level budget),Organisation type,0.033333333333333326,0
Untied amount(Project-level budget),Branch name,0.033333333333333326,0
Untied amount(Project-level budget),Organisation sub-class,0.033333333333333326,0
Untied amount(Project-level budget),CountryRegion ID,0.033333333333333326,0
Untied amount(Project-level budget),Status,0.033333333333333326,0
Untied amount(Project-level budget),Amount spent,0.738562091503268,0
Untied amount(Project-level budget),Continent ID,0.05,0
Untied amount(Project-level budget),Urban issues (marker),0.05,0
Untied amount(Project-level budget),Children issues (marker),0.05,0
Untied amount(Project-level budget),Youth issues (marker),0.05,0
Untied amount(Project-level budget),Indigenous issues (marker),0.05,0
Untied amount(Project-level budget),Disability issues (marker),0.05,0
Untied amount(Project-level budget),ICT as a tool for development (marker),0.05,0
Untied amount(Project-level budget),Knowledge for development (marker),0.05,0
Untied amount(Project-level budget),Gender equality (marker),0.05,0
Untied amount(Project-level budget),Organisation ID,0.033333333333333326,0
Untied amount(Project-level budget),Organisation name,0.033333333333333326,0
Untied amount(Project-level budget),Organisation class,0.033333333333333326,0
Untied amount(Project-level budget),Continent name,0.033333333333333326,0
Untied amount(Project-level budget),Project Browser country ID,0.033333333333333326,0
Untied amount(Project-level budget),CountryRegion name,0.033333333333333326,0
Untied amount(Project-level budget),CountryRegion percent,0.6280272108843539,0
Untied amount(Project-level budget),Sector ID,0.05,0
Untied amount(Project-level budget),Sector name,0.033333333333333326,0
Untied amount(Project-level budget),Sector percent,0.6146867167919801,0
IRTC percent,Fiscal year,0.033333333333333326,0
IRTC percent,Biodiversity (marker),0.05,0
IRTC percent,Bilateral aid (international marker),0.05,0
IRTC percent,Regional program (marker),0.05,0
IRTC percent,PBA type,0.033333333333333326,0
IRTC percent,Section name,0.033333333333333326,0
IRTC percent,FSTC percent,0.8,0
IRTC percent,Climate change mitigation (marker),0.05,0
IRTC percent,Organisation type,0.033333333333333326,0
IRTC percent,Branch name,0.033333333333333326,0
IRTC percent,Organisation sub-class,0.033333333333333326,0
IRTC percent,CountryRegion ID,0.033333333333333326,0
IRTC percent,Status,0.033333333333333326,0
IRTC percent,Amount spent,0.4603174603174603,0
IRTC percent,Continent ID,0.05,0
IRTC percent,Urban issues (marker),0.05,0
IRTC percent,Children issues (marker),0.05,0
IRTC percent,Youth issues (marker),0.05,0
IRTC percent,Indigenous issues (marker),0.05,0
IRTC percent,Disability issues (marker),0.05,0
IRTC percent,ICT as a tool for development (marker),0.05,0
IRTC percent,Knowledge for development (marker),0.05,0
IRTC percent,Gender equality (marker),0.05,0
IRTC percent,Organisation ID,0.033333333333333326,0
IRTC percent,Organisation name,0.033333333333333326,0
IRTC percent,Organisation class,0.033333333333333326,0
IRTC percent,Continent name,0.033333333333333326,0
IRTC percent,Project Browser country ID,0.033333333333333326,0
IRTC percent,CountryRegion name,0.033333333333333326,0
IRTC percent,CountryRegion percent,0.6766433566433567,0
IRTC percent,Sector ID,0.05,0
IRTC percent,Sector name,0.033333333333333326,0
IRTC percent,Sector percent,0.7342657342657344,0
CFLI (marker),Fiscal year,0.020000000000000004,0
CFLI (marker),Biodiversity (marker),0.675,0
CFLI (marker),Bilateral aid (international marker),0.6109727309727309,0
CFLI (marker),Regional program (marker),0.6622222222222223,0
CFLI (marker),PBA type,0.020000000000000004,0
CFLI (marker),Section name,0.020000000000000004,0
CFLI (marker),FSTC percent,0.05,0
CFLI (marker),Climate change mitigation (marker),0.7573593073593075,0
CFLI (marker),Organisation type,0.020000000000000004,0
CFLI (marker),Branch name,0.020000000000000004,0
CFLI (marker),Organisation sub-class,0.020000000000000004,0
CFLI (marker),CountryRegion ID,0.020000000000000004,0
CFLI (marker),Status,0.020000000000000004,0
CFLI (marker),Amount spent,0.05,0
CFLI (marker),Continent ID,0.5523809523809524,0
CFLI (marker),Urban issues (marker),0.6195555555555555,0
CFLI (marker),Children issues (marker),0.6586666666666667,0
CFLI (marker),Youth issues (marker),0.6693333333333333,0
CFLI (marker),Indigenous issues (marker),0.6195555555555555,0
CFLI (marker),Disability issues (marker),0.6434285714285715,0
CFLI (marker),ICT as a tool for development (marker),0.714199525964232,0
CFLI (marker),Knowledge for development (marker),0.6824615384615385,0
CFLI (marker),Gender equality (marker),0.6758974358974359,0
CFLI (marker),Organisation ID,0.020000000000000004,0
CFLI (marker),Organisation name,0.020000000000000004,0
CFLI (marker),Organisation class,0.020000000000000004,0
CFLI (marker),Continent name,0.020000000000000004,0
CFLI (marker),Project Browser country ID,0.020000000000000004,0
CFLI (marker),CountryRegion name,0.020000000000000004,0
CFLI (marker),CountryRegion percent,0.05,0
CFLI (marker),Sector ID,0.6050125313283208,0
CFLI (marker),Sector name,0.020000000000000004,0
CFLI (marker),Sector percent,0.05,0
CIDA business delivery model (old),Fiscal year,0.6110822510822511,0
CIDA business delivery model (old),Biodiversity (marker),0.020000000000000004,0
CIDA business delivery model (old),Bilateral aid (international marker),0.020000000000000004,0
CIDA business delivery model (old),Regional program (marker),0.020000000000000004,0
CIDA business delivery model (old),PBA type,0.6349453720882293,0
CIDA business delivery model (old),Section name,0.7169401731984659,0
CIDA business delivery model (old),FSTC percent,0.033333333333333326,0
CIDA business delivery model (old),Climate change mitigation (marker),0.020000000000000004,0
CIDA business delivery model (old),Organisation type,0.7708634222919939,0
CIDA business delivery model (old),Branch name,0.6401592215833702,0
CIDA business delivery model (old),Organisation sub-class,0.7035072490534675,0
CIDA business delivery model (old),CountryRegion ID,0.7187079587079588,0
CIDA business delivery model (old),Status,0.5232323232323233,0
CIDA business delivery model (old),Amount spent,0.033333333333333326,0
CIDA business delivery model (old),Continent ID,0.020000000000000004,0
CIDA business delivery model (old),Urban issues (marker),0.020000000000000004,0
CIDA business delivery model (old),Children issues (marker),0.020000000000000004,0
CIDA business delivery model (old),Youth issues (marker),0.020000000000000004,0
CIDA business delivery model (old),Indigenous issues (marker),0.020000000000000004,0
CIDA business delivery model (old),Disability issues (marker),0.020000000000000004,0
CIDA business delivery model (old),ICT as a tool for development (marker),0.020000000000000004,0
CIDA business delivery model (old),Knowledge for development (marker),0.020000000000000004,0
CIDA business delivery model (old),Gender equality (marker),0.020000000000000004,0
CIDA business delivery model (old),Organisation ID,0.7803872318158034,0
CIDA business delivery model (old),Organisation name,0.7331537635297034,0
CIDA business delivery model (old),Organisation class,0.7746241060526775,0
CIDA business delivery model (old),Continent name,0.6245304059545547,0
CIDA business delivery model (old),Project Browser country ID,0.7700807574491786,0
CIDA business delivery model (old),CountryRegion name,0.6998385670057496,0
CIDA business delivery model (old),CountryRegion percent,0.033333333333333326,0
CIDA business delivery model (old),Sector ID,0.020000000000000004,0
CIDA business delivery model (old),Sector name,0.7129138353906155,0
CIDA business delivery model (old),Sector percent,0.033333333333333326,0
Programming process (new),Fiscal year,0.5296969696969698,0
Programming process (new),Biodiversity (marker),0.020000000000000004,0
Programming process (new),Bilateral aid (international marker),0.020000000000000004,0
Programming process (new),Regional program (marker),0.020000000000000004,0
Programming process (new),PBA type,0.5126215538847118,0
Programming process (new),Section name,0.6622222222222223,0
Programming process (new),FSTC percent,0.033333333333333326,0
Programming process (new),Climate change mitigation (marker),0.020000000000000004,0
Programming process (new),Organisation type,0.7253333333333334,0
Programming process (new),Branch name,0.6622222222222223,0
Programming process (new),Organisation sub-class,0.6942857142857144,0
Programming process (new),CountryRegion ID,0.6481481481481481,0
Programming process (new),Status,0.4671428571428572,0
Programming process (new),Amount spent,0.033333333333333326,0
Programming process (new),Continent ID,0.020000000000000004,0
Programming process (new),Urban issues (marker),0.020000000000000004,0
Programming process (new),Children issues (marker),0.020000000000000004,0
Programming process (new),Youth issues (marker),0.020000000000000004,0
Programming process (new),Indigenous issues (marker),0.020000000000000004,0
Programming process (new),Disability issues (marker),0.020000000000000004,0
Programming process (new),ICT as a tool for development (marker),0.020000000000000004,0
Programming process (new),Knowledge for development (marker),0.020000000000000004,0
Programming process (new),Gender equality (marker),0.020000000000000004,0
Programming process (new),Organisation ID,0.7342857142857144,0
Programming process (new),Organisation name,0.7631746031746032,0
Programming process (new),Organisation class,0.768,0
Programming process (new),Continent name,0.6177777777777778,0
Programming process (new),Project Browser country ID,0.688608776844071,0
Programming process (new),CountryRegion name,0.6888888888888889,0
Programming process (new),CountryRegion percent,0.033333333333333326,0
Programming process (new),Sector ID,0.020000000000000004,0
Programming process (new),Sector name,0.6177777777777778,0
Programming process (new),Sector percent,0.033333333333333326,0
Enviromental sustainability (marker),Fiscal year,0.020000000000000004,0
Enviromental sustainability (marker),Biodiversity (marker),0.7013333333333334,0
Enviromental sustainability (marker),Bilateral aid (international marker),0.7143945578231292,0
Enviromental sustainability (marker),Regional program (marker),0.7418181818181819,0
Enviromental sustainability (marker),PBA type,0.020000000000000004,0
Enviromental sustainability (marker),Section name,0.020000000000000004,0
Enviromental sustainability (marker),FSTC percent,0.05,0
Enviromental sustainability (marker),Climate change mitigation (marker),0.7138267747290306,0
Enviromental sustainability (marker),Organisation type,0.020000000000000004,0
Enviromental sustainability (marker),Branch name,0.020000000000000004,0
Enviromental sustainability (marker),Organisation sub-class,0.020000000000000004,0
Enviromental sustainability (marker),CountryRegion ID,0.020000000000000004,0
Enviromental sustainability (marker),Status,0.020000000000000004,0
Enviromental sustainability (marker),Amount spent,0.05,0
Enviromental sustainability (marker),Continent ID,0.553992673992674,0
Enviromental sustainability (marker),Urban issues (marker),0.6198573975044563,0
Enviromental sustainability (marker),Children issues (marker),0.6618181818181819,0
Enviromental sustainability (marker),Youth issues (marker),0.7158169934640524,0
Enviromental sustainability (marker),Indigenous issues (marker),0.6521212121212121,0
Enviromental sustainability (marker),Disability issues (marker),0.6496969696969697,0
Enviromental sustainability (marker),ICT as a tool for development (marker),0.7494385580319085,0
Enviromental sustainability (marker),Knowledge for development (marker),0.7549114331723028,0
Enviromental sustainability (marker),Gender equality (marker),0.7616161616161616,0
Enviromental sustainability (marker),Organisation ID,0.020000000000000004,0
Enviromental sustainability (marker),Organisation name,0.020000000000000004,0
Enviromental sustainability (marker),Organisation class,0.020000000000000004,0
Enviromental sustainability (marker),Continent name,0.020000000000000004,0
Enviromental sustainability (marker),Project Browser country ID,0.020000000000000004,0
Enviromental sustainability (marker),CountryRegion name,0.020000000000000004,0
Enviromental sustainability (marker),CountryRegion percent,0.05,0
Enviromental sustainability (marker),Sector ID,0.5862322472848789,0
Enviromental sustainability (marker),Sector name,0.020000000000000004,0
Enviromental sustainability (marker),Sector percent,0.05,0
Climate change adaptation (marker),Fiscal year,0.020000000000000004,0
Climate change adaptation (marker),Biodiversity (marker),0.7619047619047621,0
Climate change adaptation (marker),Bilateral aid (international marker),0.751510989010989,0
Climate change adaptation (marker),Regional program (marker),0.7812663526949242,0
Climate change adaptation (marker),PBA type,0.020000000000000004,0
Climate change adaptation (marker),Section name,0.020000000000000004,0
Climate change adaptation (marker),FSTC percent,0.05,0
Climate change adaptation (marker),Climate change mitigation (marker),0.9698529411764707,0
Climate change adaptation (marker),Organisation type,0.020000000000000004,0
Climate change adaptation (marker),Branch name,0.020000000000000004,0
Climate change adaptation (marker),Organisation sub-class,0.020000000000000004,0
Climate change adaptation (marker),CountryRegion ID,0.020000000000000004,0
Climate change adaptation (marker),Status,0.020000000000000004,0
Climate change adaptation (marker),Amount spent,0.05,0
Climate change adaptation (marker),Continent ID,0.5523809523809524,0
Climate change adaptation (marker),Urban issues (marker),0.6977498691784405,0
Climate change adaptation (marker),Children issues (marker),0.6972056514913658,0
Climate change adaptation (marker),Youth issues (marker),0.7548927263212979,0
Climate change adaptation (marker),Indigenous issues (marker),0.6977498691784405,0
Climate change adaptation (marker),Disability issues (marker),0.7453689167974882,0
Climate change adaptation (marker),ICT as a tool for development (marker),0.8638914027149323,0
Climate change adaptation (marker),Knowledge for development (marker),0.8874725274725275,0
Climate change adaptation (marker),Gender equality (marker),0.7724751439037154,0
Climate change adaptation (marker),Organisation ID,0.020000000000000004,0
Climate change adaptation (marker),Organisation name,0.020000000000000004,0
Climate change adaptation (marker),Organisation class,0.020000000000000004,0
Climate change adaptation (marker),Continent name,0.020000000000000004,0
Climate change adaptation (marker),Project Browser country ID,0.020000000000000004,0
Climate change adaptation (marker),CountryRegion name,0.020000000000000004,0
Climate change adaptation (marker),CountryRegion percent,0.05,0
Climate change adaptation (marker),Sector ID,0.6183193025298288,0
Climate change adaptation (marker),Sector name,0.020000000000000004,0
Climate change adaptation (marker),Sector percent,0.05,0
Desertification (marker),Fiscal year,0.020000000000000004,0
Desertification (marker),Biodiversity (marker),0.7166666666666666,0
Desertification (marker),Bilateral aid (international marker),0.6173219373219374,0
