source,target,conf,realConf
Fiscal year,FiYe,0.6666666666666667,1
Fiscal year,CIDABusDeliMod,0.4882539682539683,0
Fiscal year,CoReID,0.4114285714285715,0
Fiscal year,Bio,0.020000000000000004,0
Fiscal year,OrganN,0.5748484848484848,0
Fiscal year,DivID,0.4031746031746032,0
Fiscal year,ProPr,0.5333333333333333,0
Fiscal year,DiviN,0.5081818181818182,0
Fiscal year,ContiID,0.020000000000000004,0
Fiscal year,SecID,0.5753246753246752,0
Fiscal year,PrNum,0.37777777777777777,0
Fiscal year,TrDev,0.020000000000000004,0
Fiscal year,BraN,0.5015151515151515,0
Fiscal year,ContiN,0.5045454545454545,0
Fiscal year,CounRegPer,0.033333333333333326,0
Fiscal year,UrIs,0.020000000000000004,0
Fiscal year,ChIss,0.020000000000000004,0
Fiscal year,YoIss,0.020000000000000004,0
Fiscal year,IndiIss,0.020000000000000004,0
Fiscal year,DisIs,0.020000000000000004,0
Fiscal year,ICTAAToFoDev,0.020000000000000004,0
Fiscal year,KnoFoDevelo,0.020000000000000004,0
Fiscal year,GeEq,0.020000000000000004,0
Fiscal year,OrgaID,0.4042857142857143,0
Fiscal year,OrgTy,0.39047619047619053,0
Fiscal year,OrgCl,0.5753246753246752,0
Fiscal year,OrgS,0.3523809523809524,0
Fiscal year,ProjBrCoID,0.49523809523809526,0
Fiscal year,CoReNa,0.4114285714285715,0
Fiscal year,SeID,0.020000000000000004,0
Fiscal year,SecN,0.6272727272727272,0
Fiscal year,SePerc,0.033333333333333326,0
Fiscal year,AmoSpe,0.033333333333333326,0
CIDA business delivery model (old),FiYe,0.3872108843537415,0
CIDA business delivery model (old),CIDABusDeliMod,0.7141059452720959,1
CIDA business delivery model (old),CoReID,0.6473050758765044,0
CIDA business delivery model (old),Bio,0.020000000000000004,0
CIDA business delivery model (old),OrganN,0.5807039243129468,0
CIDA business delivery model (old),DivID,0.6332467532467533,0
CIDA business delivery model (old),ProPr,0.5677375256322625,0
CIDA business delivery model (old),DiviN,0.5172047000618429,0
CIDA business delivery model (old),ContiID,0.020000000000000004,0
CIDA business delivery model (old),SecID,0.6576772247360483,0
CIDA business delivery model (old),PrNum,0.470995670995671,0
CIDA business delivery model (old),TrDev,0.020000000000000004,0
CIDA business delivery model (old),BraN,0.5523387536832916,0
CIDA business delivery model (old),ContiN,0.5249144506287363,0
CIDA business delivery model (old),CounRegPer,0.033333333333333326,0
CIDA business delivery model (old),UrIs,0.020000000000000004,0
CIDA business delivery model (old),ChIss,0.020000000000000004,0
CIDA business delivery model (old),YoIss,0.020000000000000004,0
CIDA business delivery model (old),IndiIss,0.020000000000000004,0
CIDA business delivery model (old),DisIs,0.020000000000000004,0
CIDA business delivery model (old),ICTAAToFoDev,0.020000000000000004,0
CIDA business delivery model (old),KnoFoDevelo,0.020000000000000004,0
CIDA business delivery model (old),GeEq,0.020000000000000004,0
CIDA business delivery model (old),OrgaID,0.5885295656724228,0
CIDA business delivery model (old),OrgTy,0.3504761904761905,0
CIDA business delivery model (old),OrgCl,0.5733333333333334,0
CIDA business delivery model (old),OrgS,0.3464646464646465,0
CIDA business delivery model (old),ProjBrCoID,0.6424494024494025,0
CIDA business delivery model (old),CoReNa,0.5315541601255886,0
CIDA business delivery model (old),SeID,0.020000000000000004,0
CIDA business delivery model (old),SecN,0.5793517406962785,0
CIDA business delivery model (old),SePerc,0.033333333333333326,0
CIDA business delivery model (old),AmoSpe,0.033333333333333326,0
CountryRegion ID,FiYe,0.47555555555555556,0
CountryRegion ID,CIDABusDeliMod,0.5974949979991997,0
CountryRegion ID,CoReID,0.8951111111111112,1
CountryRegion ID,Bio,0.020000000000000004,0
CountryRegion ID,OrganN,0.732078431372549,0
CountryRegion ID,DivID,0.8151111111111111,0
CountryRegion ID,ProPr,0.7937777777777779,0
CountryRegion ID,DiviN,0.5658039215686275,0
CountryRegion ID,ContiID,0.020000000000000004,0
CountryRegion ID,SecID,0.8577777777777778,0
CountryRegion ID,PrNum,0.7226666666666668,0
CountryRegion ID,TrDev,0.020000000000000004,0
CountryRegion ID,BraN,0.5810420168067227,0
CountryRegion ID,ContiN,0.6618039215686276,0
CountryRegion ID,CounRegPer,0.033333333333333326,0
CountryRegion ID,UrIs,0.020000000000000004,0
CountryRegion ID,ChIss,0.020000000000000004,0
CountryRegion ID,YoIss,0.020000000000000004,0
CountryRegion ID,IndiIss,0.020000000000000004,0
CountryRegion ID,DisIs,0.020000000000000004,0
CountryRegion ID,ICTAAToFoDev,0.020000000000000004,0
CountryRegion ID,KnoFoDevelo,0.020000000000000004,0
CountryRegion ID,GeEq,0.020000000000000004,0
CountryRegion ID,OrgaID,0.8151111111111111,0
CountryRegion ID,OrgTy,0.48444444444444446,0
CountryRegion ID,OrgCl,0.5861880341880341,0
CountryRegion ID,OrgS,0.4577777777777778,0
CountryRegion ID,ProjBrCoID,0.8107936507936508,0
CountryRegion ID,CoReNa,0.7724444444444445,0
CountryRegion ID,SeID,0.020000000000000004,0
CountryRegion ID,SecN,0.6618039215686276,0
CountryRegion ID,SePerc,0.033333333333333326,0
CountryRegion ID,AmoSpe,0.033333333333333326,0
Biodiversity (marker),FiYe,0.020000000000000004,0
Biodiversity (marker),CIDABusDeliMod,0.020000000000000004,0
Biodiversity (marker),CoReID,0.020000000000000004,0
Biodiversity (marker),Bio,0.41333333333333333,1
Biodiversity (marker),OrganN,0.020000000000000004,0
Biodiversity (marker),DivID,0.020000000000000004,0
Biodiversity (marker),ProPr,0.020000000000000004,0
Biodiversity (marker),DiviN,0.020000000000000004,0
Biodiversity (marker),ContiID,0.465546218487395,0
Biodiversity (marker),SecID,0.020000000000000004,0
Biodiversity (marker),PrNum,0.020000000000000004,0
Biodiversity (marker),TrDev,0.40666666666666673,0
Biodiversity (marker),BraN,0.020000000000000004,0
Biodiversity (marker),ContiN,0.020000000000000004,0
Biodiversity (marker),CounRegPer,0.05,0
Biodiversity (marker),UrIs,0.4266666666666667,0
Biodiversity (marker),ChIss,0.3066666666666667,0
Biodiversity (marker),YoIss,0.3352380952380953,0
Biodiversity (marker),IndiIss,0.4033333333333333,0
Biodiversity (marker),DisIs,0.38666666666666666,0
Biodiversity (marker),ICTAAToFoDev,0.4509803921568628,0
Biodiversity (marker),KnoFoDevelo,0.4702222222222223,0
Biodiversity (marker),GeEq,0.4666666666666667,0
Biodiversity (marker),OrgaID,0.020000000000000004,0
Biodiversity (marker),OrgTy,0.020000000000000004,0
Biodiversity (marker),OrgCl,0.020000000000000004,0
Biodiversity (marker),OrgS,0.020000000000000004,0
Biodiversity (marker),ProjBrCoID,0.020000000000000004,0
Biodiversity (marker),CoReNa,0.020000000000000004,0
Biodiversity (marker),SeID,0.48515406162464986,0
Biodiversity (marker),SecN,0.020000000000000004,0
Biodiversity (marker),SePerc,0.05,0
Biodiversity (marker),AmoSpe,0.05,0
Organisation name,FiYe,0.39047619047619053,0
Organisation name,CIDABusDeliMod,0.6441269841269841,0
Organisation name,CoReID,0.6812030075187969,0
Organisation name,Bio,0.020000000000000004,0
Organisation name,OrganN,0.7318681318681319,1
Organisation name,DivID,0.5302380952380952,0
Organisation name,ProPr,0.627012987012987,0
Organisation name,DiviN,0.5761538461538462,0
Organisation name,ContiID,0.020000000000000004,0
Organisation name,SecID,0.680952380952381,0
Organisation name,PrNum,0.6155844155844156,0
Organisation name,TrDev,0.020000000000000004,0
Organisation name,BraN,0.6103643724696357,0
Organisation name,ContiN,0.6343891402714933,0
Organisation name,CounRegPer,0.033333333333333326,0
Organisation name,UrIs,0.020000000000000004,0
Organisation name,ChIss,0.020000000000000004,0
Organisation name,YoIss,0.020000000000000004,0
Organisation name,IndiIss,0.020000000000000004,0
Organisation name,DisIs,0.020000000000000004,0
Organisation name,ICTAAToFoDev,0.020000000000000004,0
Organisation name,KnoFoDevelo,0.020000000000000004,0
Organisation name,GeEq,0.020000000000000004,0
Organisation name,OrgaID,0.6035714285714286,0
Organisation name,OrgTy,0.3885714285714286,0
Organisation name,OrgCl,0.6461538461538462,0
Organisation name,OrgS,0.41333333333333333,0
Organisation name,ProjBrCoID,0.6420474262579525,0
Organisation name,CoReNa,0.6284557547715443,0
Organisation name,SeID,0.020000000000000004,0
Organisation name,SecN,0.7128205128205127,0
Organisation name,SePerc,0.033333333333333326,0
Organisation name,AmoSpe,0.033333333333333326,0
Division ID,FiYe,0.44,0
Division ID,CIDABusDeliMod,0.5764967975494292,0
Division ID,CoReID,0.8800000000000001,0
Division ID,Bio,0.020000000000000004,0
Division ID,OrganN,0.6800000000000002,0
Division ID,DivID,0.8181818181818181,1
Division ID,ProPr,0.7260606060606061,0
Division ID,DiviN,0.6172549019607845,0
Division ID,ContiID,0.020000000000000004,0
Division ID,SecID,0.9111111111111112,0
Division ID,PrNum,0.6290909090909091,0
Division ID,TrDev,0.020000000000000004,0
Division ID,BraN,0.4937461300309598,0
Division ID,ContiN,0.49212669683257926,0
Division ID,CounRegPer,0.033333333333333326,0
Division ID,UrIs,0.020000000000000004,0
Division ID,ChIss,0.020000000000000004,0
Division ID,YoIss,0.020000000000000004,0
Division ID,IndiIss,0.020000000000000004,0
Division ID,DisIs,0.020000000000000004,0
Division ID,ICTAAToFoDev,0.020000000000000004,0
Division ID,KnoFoDevelo,0.020000000000000004,0
Division ID,GeEq,0.020000000000000004,0
Division ID,OrgaID,0.7333333333333334,0
Division ID,OrgTy,0.2727272727272727,0
Division ID,OrgCl,0.5379020979020979,0
Division ID,OrgS,0.29696969696969694,0
Division ID,ProjBrCoID,0.768888888888889,0
Division ID,CoReNa,0.6830769230769231,0
Division ID,SeID,0.020000000000000004,0
Division ID,SecN,0.6616993464052288,0
Division ID,SePerc,0.033333333333333326,0
Division ID,AmoSpe,0.033333333333333326,0
Programming process (new),FiYe,0.4127863247863248,0
Programming process (new),CIDABusDeliMod,0.527717996289425,0
Programming process (new),CoReID,0.5595816993464053,0
Programming process (new),Bio,0.020000000000000004,0
Programming process (new),OrganN,0.6234920634920635,0
Programming process (new),DivID,0.5084186401833461,0
Programming process (new),ProPr,0.5413333333333333,1
Programming process (new),DiviN,0.44926984126984126,0
Programming process (new),ContiID,0.020000000000000004,0
Programming process (new),SecID,0.6164705882352941,0
Programming process (new),PrNum,0.4773333333333334,0
Programming process (new),TrDev,0.020000000000000004,0
Programming process (new),BraN,0.4812698412698413,0
Programming process (new),ContiN,0.46793650793650793,0
Programming process (new),CounRegPer,0.033333333333333326,0
Programming process (new),UrIs,0.020000000000000004,0
Programming process (new),ChIss,0.020000000000000004,0
Programming process (new),YoIss,0.020000000000000004,0
Programming process (new),IndiIss,0.020000000000000004,0
Programming process (new),DisIs,0.020000000000000004,0
Programming process (new),ICTAAToFoDev,0.020000000000000004,0
Programming process (new),KnoFoDevelo,0.020000000000000004,0
Programming process (new),GeEq,0.020000000000000004,0
Programming process (new),OrgaID,0.5570909090909091,0
Programming process (new),OrgTy,0.36914285714285716,0
Programming process (new),OrgCl,0.5682539682539682,0
Programming process (new),OrgS,0.4114285714285715,0
Programming process (new),ProjBrCoID,0.5810678210678211,0
Programming process (new),CoReNa,0.47586928104575166,0
Programming process (new),SeID,0.020000000000000004,0
Programming process (new),SecN,0.5555555555555556,0
Programming process (new),SePerc,0.033333333333333326,0
Programming process (new),AmoSpe,0.033333333333333326,0
Division name,FiYe,0.41333333333333333,0
Division name,CIDABusDeliMod,0.5626455026455026,0
Division name,CoReID,0.6526315789473685,0
Division name,Bio,0.020000000000000004,0
Division name,OrganN,0.7755656108597286,0
Division name,DivID,0.5931818181818183,0
Division name,ProPr,0.627012987012987,0
Division name,DiviN,0.712820512820513,1
Division name,ContiID,0.020000000000000004,0
Division name,SecID,0.711111111111111,0
Division name,PrNum,0.6155844155844156,0
Division name,TrDev,0.020000000000000004,0
Division name,BraN,0.6103643724696357,0
Division name,ContiN,0.5876923076923077,0
Division name,CounRegPer,0.033333333333333326,0
Division name,UrIs,0.020000000000000004,0
Division name,ChIss,0.020000000000000004,0
Division name,YoIss,0.020000000000000004,0
Division name,IndiIss,0.020000000000000004,0
Division name,DisIs,0.020000000000000004,0
Division name,ICTAAToFoDev,0.020000000000000004,0
Division name,KnoFoDevelo,0.020000000000000004,0
Division name,GeEq,0.020000000000000004,0
Division name,OrgaID,0.525,0
Division name,OrgTy,0.2727272727272727,0
Division name,OrgCl,0.6025174825174826,0
Division name,OrgS,0.29696969696969694,0
Division name,ProjBrCoID,0.6193612235717498,0
Division name,CoReNa,0.6284557547715443,0
Division name,SeID,0.020000000000000004,0
Division name,SecN,0.7572649572649572,0
Division name,SePerc,0.033333333333333326,0
Division name,AmoSpe,0.033333333333333326,0
Continent ID,FiYe,0.020000000000000004,0
Continent ID,CIDABusDeliMod,0.020000000000000004,0
Continent ID,CoReID,0.020000000000000004,0
Continent ID,Bio,0.45777777777777784,0
Continent ID,OrganN,0.020000000000000004,0
Continent ID,DivID,0.020000000000000004,0
Continent ID,ProPr,0.020000000000000004,0
Continent ID,DiviN,0.020000000000000004,0
Continent ID,ContiID,0.8857142857142859,1
Continent ID,SecID,0.020000000000000004,0
Continent ID,PrNum,0.020000000000000004,0
Continent ID,TrDev,0.43272727272727274,0
Continent ID,BraN,0.020000000000000004,0
Continent ID,ContiN,0.020000000000000004,0
Continent ID,CounRegPer,0.05,0
Continent ID,UrIs,0.6733333333333333,0
Continent ID,ChIss,0.43272727272727274,0
Continent ID,YoIss,0.43272727272727274,0
Continent ID,IndiIss,0.6082051282051283,0
Continent ID,DisIs,0.47806267806267805,0
Continent ID,ICTAAToFoDev,0.4747669172932331,0
Continent ID,KnoFoDevelo,0.4094584286803966,0
Continent ID,GeEq,0.49777777777777776,0
Continent ID,OrgaID,0.020000000000000004,0
Continent ID,OrgTy,0.020000000000000004,0
Continent ID,OrgCl,0.020000000000000004,0
Continent ID,OrgS,0.020000000000000004,0
Continent ID,ProjBrCoID,0.020000000000000004,0
Continent ID,CoReNa,0.020000000000000004,0
Continent ID,SeID,0.7416666666666667,0
Continent ID,SecN,0.020000000000000004,0
Continent ID,SePerc,0.05,0
Continent ID,AmoSpe,0.05,0
Section ID,FiYe,0.48888888888888893,0
Section ID,CIDABusDeliMod,0.6373015873015873,0
Section ID,CoReID,0.8976470588235295,0
Section ID,Bio,0.020000000000000004,0
Section ID,OrganN,0.715032679738562,0
Section ID,DivID,0.7976470588235294,0
Section ID,ProPr,0.7709803921568628,0
Section ID,DiviN,0.603921568627451,0
Section ID,ContiID,0.020000000000000004,0
Section ID,SecID,0.8947368421052633,1
Section ID,PrNum,0.6776470588235295,0
Section ID,TrDev,0.020000000000000004,0
Section ID,BraN,0.62296918767507,0
Section ID,ContiN,0.6372549019607843,0
Section ID,CounRegPer,0.033333333333333326,0
Section ID,UrIs,0.020000000000000004,0
Section ID,ChIss,0.020000000000000004,0
Section ID,YoIss,0.020000000000000004,0
Section ID,IndiIss,0.020000000000000004,0
Section ID,DisIs,0.020000000000000004,0
Section ID,ICTAAToFoDev,0.020000000000000004,0
Section ID,KnoFoDevelo,0.020000000000000004,0
Section ID,GeEq,0.020000000000000004,0
Section ID,OrgaID,0.7540106951871659,0
Section ID,OrgTy,0.3288888888888889,0
Section ID,OrgCl,0.5515384615384615,0
Section ID,OrgS,0.30666666666666664,0
Section ID,ProjBrCoID,0.7604515745692215,0
Section ID,CoReNa,0.7443137254901961,0
Section ID,SeID,0.020000000000000004,0
Section ID,SecN,0.6986584107327142,0
Section ID,SePerc,0.033333333333333326,0
Section ID,AmoSpe,0.033333333333333326,0
Project number,FiYe,0.34444444444444444,0
Project number,CIDABusDeliMod,0.584613941270288,0
Project number,CoReID,0.7441176470588236,0
Project number,Bio,0.020000000000000004,0
Project number,OrganN,0.7585081585081586,0
Project number,DivID,0.65,0
Project number,ProPr,0.6757575757575758,0
Project number,DiviN,0.5282051282051282,0
Project number,ContiID,0.020000000000000004,0
Project number,SecID,0.77,0
Project number,PrNum,0.6329004329004329,1
Project number,TrDev,0.020000000000000004,0
Project number,BraN,0.6615384615384615,0
Project number,ContiN,0.6000000000000001,0
Project number,CounRegPer,0.033333333333333326,0
Project number,UrIs,0.020000000000000004,0
Project number,ChIss,0.020000000000000004,0
Project number,YoIss,0.020000000000000004,0
Project number,IndiIss,0.020000000000000004,0
Project number,DisIs,0.020000000000000004,0
Project number,ICTAAToFoDev,0.020000000000000004,0
Project number,KnoFoDevelo,0.020000000000000004,0
Project number,GeEq,0.020000000000000004,0
Project number,OrgaID,0.6900000000000001,0
Project number,OrgTy,0.37777777777777777,0
Project number,OrgCl,0.5905982905982907,0
Project number,OrgS,0.3718518518518519,0
Project number,ProjBrCoID,0.7566844919786095,0
Project number,CoReNa,0.4997737556561086,0
Project number,SeID,0.020000000000000004,0
Project number,SecN,0.6866666666666666,0
Project number,SePerc,0.033333333333333326,0
Project number,AmoSpe,0.033333333333333326,0
Trade development (marker),FiYe,0.020000000000000004,0
Trade development (marker),CIDABusDeliMod,0.020000000000000004,0
Trade development (marker),CoReID,0.020000000000000004,0
Trade development (marker),Bio,0.2571428571428572,0
Trade development (marker),OrganN,0.020000000000000004,0
Trade development (marker),DivID,0.020000000000000004,0
Trade development (marker),ProPr,0.020000000000000004,0
Trade development (marker),DiviN,0.020000000000000004,0
Trade development (marker),ContiID,0.6184537815126051,0
Trade development (marker),SecID,0.020000000000000004,0
Trade development (marker),PrNum,0.020000000000000004,0
Trade development (marker),TrDev,0.5714285714285714,1
Trade development (marker),BraN,0.020000000000000004,0
Trade development (marker),ContiN,0.020000000000000004,0
Trade development (marker),CounRegPer,0.05,0
Trade development (marker),UrIs,0.5954481792717088,0
Trade development (marker),ChIss,0.2,0
Trade development (marker),YoIss,0.24923076923076926,0
Trade development (marker),IndiIss,0.29244444444444445,0
Trade development (marker),DisIs,0.46176470588235297,0
Trade development (marker),ICTAAToFoDev,0.5504761904761906,0
Trade development (marker),KnoFoDevelo,0.5730164388987918,0
Trade development (marker),GeEq,0.5018039215686274,0
Trade development (marker),OrgaID,0.020000000000000004,0
Trade development (marker),OrgTy,0.020000000000000004,0
Trade development (marker),OrgCl,0.020000000000000004,0
Trade development (marker),OrgS,0.020000000000000004,0
Trade development (marker),ProjBrCoID,0.020000000000000004,0
Trade development (marker),CoReNa,0.020000000000000004,0
Trade development (marker),SeID,0.6224537815126051,0
Trade development (marker),SecN,0.020000000000000004,0
Trade development (marker),SePerc,0.05,0
Trade development (marker),AmoSpe,0.05,0
Branch name,FiYe,0.33333333333333337,0
Branch name,CIDABusDeliMod,0.6401857585139319,0
Branch name,CoReID,0.6217492260061919,0
Branch name,Bio,0.020000000000000004,0
Branch name,OrganN,0.7572649572649572,0
Branch name,DivID,0.4166666666666667,0
Branch name,ProPr,0.6431746031746031,0
Branch name,DiviN,0.5128205128205128,0
Branch name,ContiID,0.020000000000000004,0
Branch name,SecID,0.6697368421052632,0
Branch name,PrNum,0.6095238095238096,0
Branch name,TrDev,0.020000000000000004,0
Branch name,BraN,0.681447963800905,1
Branch name,ContiN,0.5572649572649573,0
Branch name,CounRegPer,0.033333333333333326,0
Branch name,UrIs,0.020000000000000004,0
Branch name,ChIss,0.020000000000000004,0
Branch name,YoIss,0.020000000000000004,0
Branch name,IndiIss,0.020000000000000004,0
Branch name,DisIs,0.020000000000000004,0
Branch name,ICTAAToFoDev,0.020000000000000004,0
Branch name,KnoFoDevelo,0.020000000000000004,0
Branch name,GeEq,0.020000000000000004,0
Branch name,OrgaID,0.51,0
Branch name,OrgTy,0.2888888888888889,0
Branch name,OrgCl,0.5763125763125763,0
Branch name,OrgS,0.31851851851851853,0
Branch name,ProjBrCoID,0.5898840993887433,0
Branch name,CoReNa,0.6610349402919062,0
Branch name,SeID,0.020000000000000004,0
Branch name,SecN,0.7408906882591093,0
Branch name,SePerc,0.033333333333333326,0
Branch name,AmoSpe,0.033333333333333326,0
Continent name,FiYe,0.40606060606060607,0
Continent name,CIDABusDeliMod,0.5746263093631514,0
Continent name,CoReID,0.6133458646616541,0
Continent name,Bio,0.020000000000000004,0
Continent name,OrganN,0.6100427350427351,0
Continent name,DivID,0.4583333333333333,0
Continent name,ProPr,0.6542857142857144,0
Continent name,DiviN,0.5435897435897437,0
Continent name,ContiID,0.020000000000000004,0
Continent name,SecID,0.575,0
Continent name,PrNum,0.6178571428571429,0
Continent name,TrDev,0.020000000000000004,0
Continent name,BraN,0.6103643724696357,0
Continent name,ContiN,0.7318681318681319,1
Continent name,CounRegPer,0.033333333333333326,0
Continent name,UrIs,0.020000000000000004,0
Continent name,ChIss,0.020000000000000004,0
Continent name,YoIss,0.020000000000000004,0
Continent name,IndiIss,0.020000000000000004,0
Continent name,DisIs,0.020000000000000004,0
Continent name,ICTAAToFoDev,0.020000000000000004,0
Continent name,KnoFoDevelo,0.020000000000000004,0
Continent name,GeEq,0.020000000000000004,0
Continent name,OrgaID,0.47500000000000003,0
Continent name,OrgTy,0.30606060606060603,0
Continent name,OrgCl,0.5794871794871794,0
Continent name,OrgS,0.28888888888888886,0
Continent name,ProjBrCoID,0.5781280123385386,0
Continent name,CoReNa,0.6526315789473685,0
Continent name,SeID,0.020000000000000004,0
Continent name,SecN,0.6461538461538462,0
Continent name,SePerc,0.033333333333333326,0
Continent name,AmoSpe,0.033333333333333326,0
CountryRegion percent,FiYe,0.033333333333333326,0
CountryRegion percent,CIDABusDeliMod,0.033333333333333326,0
CountryRegion percent,CoReID,0.033333333333333326,0
CountryRegion percent,Bio,0.05,0
CountryRegion percent,OrganN,0.033333333333333326,0
CountryRegion percent,DivID,0.033333333333333326,0
CountryRegion percent,ProPr,0.033333333333333326,0
CountryRegion percent,DiviN,0.033333333333333326,0
CountryRegion percent,ContiID,0.05,0
CountryRegion percent,SecID,0.033333333333333326,0
CountryRegion percent,PrNum,0.033333333333333326,0
CountryRegion percent,TrDev,0.05,0
CountryRegion percent,BraN,0.033333333333333326,0
CountryRegion percent,ContiN,0.033333333333333326,0
CountryRegion percent,CounRegPer,0.7317171717171718,1
CountryRegion percent,UrIs,0.05,0
CountryRegion percent,ChIss,0.05,0
CountryRegion percent,YoIss,0.05,0
CountryRegion percent,IndiIss,0.05,0
CountryRegion percent,DisIs,0.05,0
CountryRegion percent,ICTAAToFoDev,0.05,0
CountryRegion percent,KnoFoDevelo,0.05,0
CountryRegion percent,GeEq,0.05,0
CountryRegion percent,OrgaID,0.033333333333333326,0
CountryRegion percent,OrgTy,0.033333333333333326,0
CountryRegion percent,OrgCl,0.033333333333333326,0
CountryRegion percent,OrgS,0.033333333333333326,0
CountryRegion percent,ProjBrCoID,0.033333333333333326,0
CountryRegion percent,CoReNa,0.033333333333333326,0
CountryRegion percent,SeID,0.05,0
CountryRegion percent,SecN,0.033333333333333326,0
CountryRegion percent,SePerc,0.6082424242424243,0
CountryRegion percent,AmoSpe,0.4311111111111111,0
Status,FiYe,0.2,0
Status,CIDABusDeliMod,0.39046153846153847,0
Status,CoReID,0.4461538461538462,0
Status,Bio,0.020000000000000004,0
Status,OrganN,0.4895238095238096,0
Status,DivID,0.36410256410256414,0
Status,ProPr,0.48282828282828283,0
Status,DiviN,0.41333333333333333,0
Status,ContiID,0.020000000000000004,0
Status,SecID,0.4953846153846154,0
Status,PrNum,0.4531986531986532,0
Status,TrDev,0.020000000000000004,0
Status,BraN,0.4514285714285715,0
Status,ContiN,0.46181818181818185,0
Status,CounRegPer,0.033333333333333326,0
Status,UrIs,0.020000000000000004,0
Status,ChIss,0.020000000000000004,0
Status,YoIss,0.020000000000000004,0
Status,IndiIss,0.020000000000000004,0
Status,DisIs,0.020000000000000004,0
Status,ICTAAToFoDev,0.020000000000000004,0
Status,KnoFoDevelo,0.020000000000000004,0
Status,GeEq,0.020000000000000004,0
Status,OrgaID,0.41743589743589743,0
Status,OrgTy,0.33333333333333337,0
Status,OrgCl,0.41333333333333333,0
Status,OrgS,0.2,0
Status,ProjBrCoID,0.42646153846153845,0
Status,CoReNa,0.4461538461538462,0
Status,SeID,0.020000000000000004,0
Status,SecN,0.52,0
Status,SePerc,0.033333333333333326,0
Status,AmoSpe,0.033333333333333326,0
Maximum CIDA contribution (project-level),FiYe,0.033333333333333326,0
Maximum CIDA contribution (project-level),CIDABusDeliMod,0.033333333333333326,0
Maximum CIDA contribution (project-level),CoReID,0.033333333333333326,0
Maximum CIDA contribution (project-level),Bio,0.05,0
Maximum CIDA contribution (project-level),OrganN,0.033333333333333326,0
Maximum CIDA contribution (project-level),DivID,0.033333333333333326,0
Maximum CIDA contribution (project-level),ProPr,0.033333333333333326,0
Maximum CIDA contribution (project-level),DiviN,0.033333333333333326,0
Maximum CIDA contribution (project-level),ContiID,0.05,0
Maximum CIDA contribution (project-level),SecID,0.033333333333333326,0
Maximum CIDA contribution (project-level),PrNum,0.033333333333333326,0
Maximum CIDA contribution (project-level),TrDev,0.05,0
Maximum CIDA contribution (project-level),BraN,0.033333333333333326,0
Maximum CIDA contribution (project-level),ContiN,0.033333333333333326,0
Maximum CIDA contribution (project-level),CounRegPer,0.4493506493506494,0
Maximum CIDA contribution (project-level),UrIs,0.05,0
Maximum CIDA contribution (project-level),ChIss,0.05,0
Maximum CIDA contribution (project-level),YoIss,0.05,0
Maximum CIDA contribution (project-level),IndiIss,0.05,0
Maximum CIDA contribution (project-level),DisIs,0.05,0
Maximum CIDA contribution (project-level),ICTAAToFoDev,0.05,0
Maximum CIDA contribution (project-level),KnoFoDevelo,0.05,0
Maximum CIDA contribution (project-level),GeEq,0.05,0
Maximum CIDA contribution (project-level),OrgaID,0.033333333333333326,0
Maximum CIDA contribution (project-level),OrgTy,0.033333333333333326,0
Maximum CIDA contribution (project-level),OrgCl,0.033333333333333326,0
Maximum CIDA contribution (project-level),OrgS,0.033333333333333326,0
Maximum CIDA contribution (project-level),ProjBrCoID,0.033333333333333326,0
Maximum CIDA contribution (project-level),CoReNa,0.033333333333333326,0
Maximum CIDA contribution (project-level),SeID,0.05,0
Maximum CIDA contribution (project-level),SecN,0.033333333333333326,0
Maximum CIDA contribution (project-level),SePerc,0.48276233570351224,0
Maximum CIDA contribution (project-level),AmoSpe,0.42920634920634926,0
Branch ID,FiYe,0.4,0
Branch ID,CIDABusDeliMod,0.6838894622176356,0
Branch ID,CoReID,0.8741176470588237,0
Branch ID,Bio,0.020000000000000004,0
Branch ID,OrganN,0.6522875816993464,0
Branch ID,DivID,0.7466666666666668,0
Branch ID,ProPr,0.7422222222222223,0
Branch ID,DiviN,0.47450980392156866,0
Branch ID,ContiID,0.020000000000000004,0
Branch ID,SecID,0.8947368421052633,0
Branch ID,PrNum,0.6311111111111112,0
Branch ID,TrDev,0.020000000000000004,0
Branch ID,BraN,0.5764705882352941,0
Branch ID,ContiN,0.4649859943977591,0
Branch ID,CounRegPer,0.033333333333333326,0
Branch ID,UrIs,0.020000000000000004,0
Branch ID,ChIss,0.020000000000000004,0
Branch ID,YoIss,0.020000000000000004,0
Branch ID,IndiIss,0.020000000000000004,0
Branch ID,DisIs,0.020000000000000004,0
Branch ID,ICTAAToFoDev,0.020000000000000004,0
Branch ID,KnoFoDevelo,0.020000000000000004,0
Branch ID,GeEq,0.020000000000000004,0
Branch ID,OrgaID,0.76,0
Branch ID,OrgTy,0.2888888888888889,0
Branch ID,OrgCl,0.47741147741147744,0
Branch ID,OrgS,0.31851851851851853,0
Branch ID,ProjBrCoID,0.7388235294117647,0
Branch ID,CoReNa,0.7156561085972852,0
Branch ID,SeID,0.020000000000000004,0
Branch ID,SecN,0.6359133126934984,0
Branch ID,SePerc,0.033333333333333326,0
Branch ID,AmoSpe,0.033333333333333326,0
Section name,FiYe,0.4222222222222223,0
Section name,CIDABusDeliMod,0.6116594516594517,0
Section name,CoReID,0.6879256965944271,0
Section name,Bio,0.020000000000000004,0
Section name,OrganN,0.7675213675213675,0
Section name,DivID,0.5502941176470588,0
Section name,ProPr,0.6752941176470588,0
Section name,DiviN,0.6261072261072261,0
Section name,ContiID,0.020000000000000004,0
Section name,SecID,0.7123839009287927,0
Section name,PrNum,0.6638655462184874,0
Section name,TrDev,0.020000000000000004,0
Section name,BraN,0.6754578754578754,0
Section name,ContiN,0.6897435897435897,0
Section name,CounRegPer,0.033333333333333326,0
Section name,UrIs,0.020000000000000004,0
Section name,ChIss,0.020000000000000004,0
Section name,YoIss,0.020000000000000004,0
Section name,IndiIss,0.020000000000000004,0
Section name,DisIs,0.020000000000000004,0
Section name,ICTAAToFoDev,0.020000000000000004,0
Section name,KnoFoDevelo,0.020000000000000004,0
Section name,GeEq,0.020000000000000004,0
Section name,OrgaID,0.5602941176470588,0
Section name,OrgTy,0.3288888888888889,0
Section name,OrgCl,0.6130769230769231,0
Section name,OrgS,0.30666666666666664,0
Section name,ProjBrCoID,0.6315775040233245,0
Section name,CoReNa,0.684564352056612,0
Section name,SeID,0.020000000000000004,0
Section name,SecN,0.7511470985155195,0
Section name,SePerc,0.033333333333333326,0
Section name,AmoSpe,0.033333333333333326,0
Regional program (marker),FiYe,0.020000000000000004,0
Regional program (marker),CIDABusDeliMod,0.020000000000000004,0
Regional program (marker),CoReID,0.020000000000000004,0
Regional program (marker),Bio,0.3854545454545455,0
Regional program (marker),OrganN,0.020000000000000004,0
Regional program (marker),DivID,0.020000000000000004,0
Regional program (marker),ProPr,0.020000000000000004,0
Regional program (marker),DiviN,0.020000000000000004,0
Regional program (marker),ContiID,0.5552682611506141,0
Regional program (marker),SecID,0.020000000000000004,0
Regional program (marker),PrNum,0.020000000000000004,0
Regional program (marker),TrDev,0.3831111111111111,0
Regional program (marker),BraN,0.020000000000000004,0
Regional program (marker),ContiN,0.020000000000000004,0
Regional program (marker),CounRegPer,0.05,0
Regional program (marker),UrIs,0.4074358974358974,0
Regional program (marker),ChIss,0.2581818181818182,0
Regional program (marker),YoIss,0.33220202020202017,0
Regional program (marker),IndiIss,0.3357575757575758,0
Regional program (marker),DisIs,0.5160633484162896,0
Regional program (marker),ICTAAToFoDev,0.4405698005698006,0
Regional program (marker),KnoFoDevelo,0.43915343915343913,0
Regional program (marker),GeEq,0.5263549522373052,0
Regional program (marker),OrgaID,0.020000000000000004,0
Regional program (marker),OrgTy,0.020000000000000004,0
Regional program (marker),OrgCl,0.020000000000000004,0
Regional program (marker),OrgS,0.020000000000000004,0
Regional program (marker),ProjBrCoID,0.020000000000000004,0
Regional program (marker),CoReNa,0.020000000000000004,0
Regional program (marker),SeID,0.5456956115779645,0
Regional program (marker),SecN,0.020000000000000004,0
Regional program (marker),SePerc,0.05,0
Regional program (marker),AmoSpe,0.05,0
Fund centre ID,FiYe,0.020000000000000004,0
Fund centre ID,CIDABusDeliMod,0.020000000000000004,0
Fund centre ID,CoReID,0.020000000000000004,0
Fund centre ID,Bio,0.36000000000000004,0
Fund centre ID,OrganN,0.020000000000000004,0
Fund centre ID,DivID,0.020000000000000004,0
Fund centre ID,ProPr,0.020000000000000004,0
Fund centre ID,DiviN,0.020000000000000004,0
Fund centre ID,ContiID,0.7413903743315509,0
Fund centre ID,SecID,0.020000000000000004,0
Fund centre ID,PrNum,0.020000000000000004,0
Fund centre ID,TrDev,0.5337142857142858,0
Fund centre ID,BraN,0.020000000000000004,0
Fund centre ID,ContiN,0.020000000000000004,0
Fund centre ID,CounRegPer,0.05,0
Fund centre ID,UrIs,0.6383333333333333,0
Fund centre ID,ChIss,0.40800000000000003,0
Fund centre ID,YoIss,0.328,0
Fund centre ID,IndiIss,0.5893333333333334,0
Fund centre ID,DisIs,0.5833333333333333,0
Fund centre ID,ICTAAToFoDev,0.4902164502164503,0
Fund centre ID,KnoFoDevelo,0.4523872263002698,0
Fund centre ID,GeEq,0.5991111111111111,0
Fund centre ID,OrgaID,0.020000000000000004,0
Fund centre ID,OrgTy,0.020000000000000004,0
Fund centre ID,OrgCl,0.020000000000000004,0
Fund centre ID,OrgS,0.020000000000000004,0
Fund centre ID,ProjBrCoID,0.020000000000000004,0
Fund centre ID,CoReNa,0.020000000000000004,0
Fund centre ID,SeID,0.7446439628482973,0
Fund centre ID,SecN,0.020000000000000004,0
Fund centre ID,SePerc,0.05,0
Fund centre ID,AmoSpe,0.05,0
Fund centre name,FiYe,0.45333333333333337,0
Fund centre name,CIDABusDeliMod,0.6099551399507172,0
Fund centre name,CoReID,0.6383405572755417,0
Fund centre name,Bio,0.020000000000000004,0
Fund centre name,OrganN,0.7143833943833944,0
Fund centre name,DivID,0.5396638655462185,0
Fund centre name,ProPr,0.6282352941176472,0
Fund centre name,DiviN,0.5747692307692308,0
Fund centre name,ContiID,0.020000000000000004,0
Fund centre name,SecID,0.6366563467492261,0
Fund centre name,PrNum,0.6190924369747899,0
Fund centre name,TrDev,0.020000000000000004,0
Fund centre name,BraN,0.6590045248868779,0
Fund centre name,ContiN,0.6453146853146854,0
Fund centre name,CounRegPer,0.033333333333333326,0
Fund centre name,UrIs,0.020000000000000004,0
Fund centre name,ChIss,0.020000000000000004,0
Fund centre name,YoIss,0.020000000000000004,0
Fund centre name,IndiIss,0.020000000000000004,0
Fund centre name,DisIs,0.020000000000000004,0
Fund centre name,ICTAAToFoDev,0.020000000000000004,0
Fund centre name,KnoFoDevelo,0.020000000000000004,0
Fund centre name,GeEq,0.020000000000000004,0
Fund centre name,OrgaID,0.5282352941176471,0
Fund centre name,OrgTy,0.3155555555555556,0
Fund centre name,OrgCl,0.5650500610500611,0
Fund centre name,OrgS,0.2888888888888889,0
Fund centre name,ProjBrCoID,0.6257830095600994,0
Fund centre name,CoReNa,0.6356514816452896,0
Fund centre name,SeID,0.020000000000000004,0
Fund centre name,SecN,0.629344129554656,0
Fund centre name,SePerc,0.033333333333333326,0
Fund centre name,AmoSpe,0.033333333333333326,0
Untied amount(Project-level budget),FiYe,0.033333333333333326,0
Untied amount(Project-level budget),CIDABusDeliMod,0.033333333333333326,0
Untied amount(Project-level budget),CoReID,0.033333333333333326,0
Untied amount(Project-level budget),Bio,0.05,0
Untied amount(Project-level budget),OrganN,0.033333333333333326,0
Untied amount(Project-level budget),DivID,0.033333333333333326,0
Untied amount(Project-level budget),ProPr,0.033333333333333326,0
Untied amount(Project-level budget),DiviN,0.033333333333333326,0
Untied amount(Project-level budget),ContiID,0.05,0
Untied amount(Project-level budget),SecID,0.033333333333333326,0
Untied amount(Project-level budget),PrNum,0.033333333333333326,0
Untied amount(Project-level budget),TrDev,0.05,0
Untied amount(Project-level budget),BraN,0.033333333333333326,0
Untied amount(Project-level budget),ContiN,0.033333333333333326,0
Untied amount(Project-level budget),CounRegPer,0.493968253968254,0
Untied amount(Project-level budget),UrIs,0.05,0
Untied amount(Project-level budget),ChIss,0.05,0
Untied amount(Project-level budget),YoIss,0.05,0
Untied amount(Project-level budget),IndiIss,0.05,0
Untied amount(Project-level budget),DisIs,0.05,0
Untied amount(Project-level budget),ICTAAToFoDev,0.05,0
Untied amount(Project-level budget),KnoFoDevelo,0.05,0
Untied amount(Project-level budget),GeEq,0.05,0
Untied amount(Project-level budget),OrgaID,0.033333333333333326,0
Untied amount(Project-level budget),OrgTy,0.033333333333333326,0
Untied amount(Project-level budget),OrgCl,0.033333333333333326,0
Untied amount(Project-level budget),OrgS,0.033333333333333326,0
Untied amount(Project-level budget),ProjBrCoID,0.033333333333333326,0
Untied amount(Project-level budget),CoReNa,0.033333333333333326,0
Untied amount(Project-level budget),SeID,0.05,0
Untied amount(Project-level budget),SecN,0.033333333333333326,0
Untied amount(Project-level budget),SePerc,0.48237975532093175,0
Untied amount(Project-level budget),AmoSpe,0.5037037037037038,0
FSTC percent,FiYe,0.033333333333333326,0
FSTC percent,CIDABusDeliMod,0.033333333333333326,0
FSTC percent,CoReID,0.033333333333333326,0
FSTC percent,Bio,0.05,0
FSTC percent,OrganN,0.033333333333333326,0
FSTC percent,DivID,0.033333333333333326,0
FSTC percent,ProPr,0.033333333333333326,0
FSTC percent,DiviN,0.033333333333333326,0
FSTC percent,ContiID,0.05,0
FSTC percent,SecID,0.033333333333333326,0
FSTC percent,PrNum,0.033333333333333326,0
FSTC percent,TrDev,0.05,0
FSTC percent,BraN,0.033333333333333326,0
FSTC percent,ContiN,0.033333333333333326,0
FSTC percent,CounRegPer,0.5541818181818182,0
FSTC percent,UrIs,0.05,0
FSTC percent,ChIss,0.05,0
FSTC percent,YoIss,0.05,0
FSTC percent,IndiIss,0.05,0
FSTC percent,DisIs,0.05,0
FSTC percent,ICTAAToFoDev,0.05,0
FSTC percent,KnoFoDevelo,0.05,0
FSTC percent,GeEq,0.05,0
FSTC percent,OrgaID,0.033333333333333326,0
FSTC percent,OrgTy,0.033333333333333326,0
FSTC percent,OrgCl,0.033333333333333326,0
FSTC percent,OrgS,0.033333333333333326,0
FSTC percent,ProjBrCoID,0.033333333333333326,0
FSTC percent,CoReNa,0.033333333333333326,0
FSTC percent,SeID,0.05,0
FSTC percent,SecN,0.033333333333333326,0
FSTC percent,SePerc,0.6375757575757577,0
FSTC percent,AmoSpe,0.4171428571428572,0
IRTC percent,FiYe,0.033333333333333326,0
IRTC percent,CIDABusDeliMod,0.033333333333333326,0
IRTC percent,CoReID,0.033333333333333326,0
IRTC percent,Bio,0.05,0
IRTC percent,OrganN,0.033333333333333326,0
IRTC percent,DivID,0.033333333333333326,0
IRTC percent,ProPr,0.033333333333333326,0
IRTC percent,DiviN,0.033333333333333326,0
IRTC percent,ContiID,0.05,0
IRTC percent,SecID,0.033333333333333326,0
IRTC percent,PrNum,0.033333333333333326,0
IRTC percent,TrDev,0.05,0
IRTC percent,BraN,0.033333333333333326,0
IRTC percent,ContiN,0.033333333333333326,0
IRTC percent,CounRegPer,0.5598961038961039,0
IRTC percent,UrIs,0.05,0
IRTC percent,ChIss,0.05,0
IRTC percent,YoIss,0.05,0
IRTC percent,IndiIss,0.05,0
IRTC percent,DisIs,0.05,0
IRTC percent,ICTAAToFoDev,0.05,0
IRTC percent,KnoFoDevelo,0.05,0
IRTC percent,GeEq,0.05,0
IRTC percent,OrgaID,0.033333333333333326,0
IRTC percent,OrgTy,0.033333333333333326,0
IRTC percent,OrgCl,0.033333333333333326,0
IRTC percent,OrgS,0.033333333333333326,0
IRTC percent,ProjBrCoID,0.033333333333333326,0
IRTC percent,CoReNa,0.033333333333333326,0
IRTC percent,SeID,0.05,0
IRTC percent,SecN,0.033333333333333326,0
IRTC percent,SePerc,0.6709090909090909,0
IRTC percent,AmoSpe,0.36000000000000004,0
CFLI (marker),FiYe,0.020000000000000004,0
CFLI (marker),CIDABusDeliMod,0.020000000000000004,0
CFLI (marker),CoReID,0.020000000000000004,0
CFLI (marker),Bio,0.3523809523809524,0
CFLI (marker),OrganN,0.020000000000000004,0
CFLI (marker),DivID,0.020000000000000004,0
CFLI (marker),ProPr,0.020000000000000004,0
CFLI (marker),DiviN,0.020000000000000004,0
CFLI (marker),ContiID,0.5492063492063493,0
CFLI (marker),SecID,0.020000000000000004,0
CFLI (marker),PrNum,0.020000000000000004,0
CFLI (marker),TrDev,0.34444444444444444,0
CFLI (marker),BraN,0.020000000000000004,0
CFLI (marker),ContiN,0.020000000000000004,0
CFLI (marker),CounRegPer,0.05,0
CFLI (marker),UrIs,0.4,0
CFLI (marker),ChIss,0.39047619047619053,0
CFLI (marker),YoIss,0.3142857142857143,0
CFLI (marker),IndiIss,0.3642857142857143,0
CFLI (marker),DisIs,0.41904761904761906,0
CFLI (marker),ICTAAToFoDev,0.4524444444444445,0
CFLI (marker),KnoFoDevelo,0.4488888888888889,0
CFLI (marker),GeEq,0.39487179487179486,0
CFLI (marker),OrgaID,0.020000000000000004,0
CFLI (marker),OrgTy,0.020000000000000004,0
CFLI (marker),OrgCl,0.020000000000000004,0
CFLI (marker),OrgS,0.020000000000000004,0
CFLI (marker),ProjBrCoID,0.020000000000000004,0
CFLI (marker),CoReNa,0.020000000000000004,0
CFLI (marker),SeID,0.5047619047619047,0
CFLI (marker),SecN,0.020000000000000004,0
CFLI (marker),SePerc,0.05,0
CFLI (marker),AmoSpe,0.05,0
Bilateral aid (international marker),FiYe,0.020000000000000004,0
Bilateral aid (international marker),CIDABusDeliMod,0.020000000000000004,0
Bilateral aid (international marker),CoReID,0.020000000000000004,0
Bilateral aid (international marker),Bio,0.4,0
Bilateral aid (international marker),OrganN,0.020000000000000004,0
Bilateral aid (international marker),DivID,0.020000000000000004,0
Bilateral aid (international marker),ProPr,0.020000000000000004,0
Bilateral aid (international marker),DiviN,0.020000000000000004,0
Bilateral aid (international marker),ContiID,0.48075036075036076,0
Bilateral aid (international marker),SecID,0.020000000000000004,0
Bilateral aid (international marker),PrNum,0.020000000000000004,0
Bilateral aid (international marker),TrDev,0.4547474747474748,0
Bilateral aid (international marker),BraN,0.020000000000000004,0
Bilateral aid (international marker),ContiN,0.020000000000000004,0
Bilateral aid (international marker),CounRegPer,0.05,0
Bilateral aid (international marker),UrIs,0.3920879120879121,0
Bilateral aid (international marker),ChIss,0.32777777777777783,0
Bilateral aid (international marker),YoIss,0.3466666666666667,0
Bilateral aid (international marker),IndiIss,0.4661064425770308,0
Bilateral aid (international marker),DisIs,0.41124077161228867,0
Bilateral aid (international marker),ICTAAToFoDev,0.5181859410430839,0
Bilateral aid (international marker),KnoFoDevelo,0.43492063492063493,0
Bilateral aid (international marker),GeEq,0.46740740740740744,0
Bilateral aid (international marker),OrgaID,0.020000000000000004,0
Bilateral aid (international marker),OrgTy,0.020000000000000004,0
Bilateral aid (international marker),OrgCl,0.020000000000000004,0
Bilateral aid (international marker),OrgS,0.020000000000000004,0
Bilateral aid (international marker),ProjBrCoID,0.020000000000000004,0
Bilateral aid (international marker),CoReNa,0.020000000000000004,0
Bilateral aid (international marker),SeID,0.4839153439153439,0
Bilateral aid (international marker),SecN,0.020000000000000004,0
Bilateral aid (international marker),SePerc,0.05,0
Bilateral aid (international marker),AmoSpe,0.05,0
PBA type,FiYe,0.46666666666666673,0
PBA type,CIDABusDeliMod,0.6083681425786689,0
PBA type,CoReID,0.5555555555555556,0
PBA type,Bio,0.020000000000000004,0
PBA type,OrganN,0.6970588235294117,0
PBA type,DivID,0.37777777777777777,0
PBA type,ProPr,0.6326315789473684,0
PBA type,DiviN,0.5294117647058824,0
PBA type,ContiID,0.020000000000000004,0
PBA type,SecID,0.4527777777777778,0
PBA type,PrNum,0.48,0
PBA type,TrDev,0.020000000000000004,0
PBA type,BraN,0.7960784313725491,0
PBA type,ContiN,0.5738562091503268,0
PBA type,CounRegPer,0.033333333333333326,0
PBA type,UrIs,0.020000000000000004,0
PBA type,ChIss,0.020000000000000004,0
PBA type,YoIss,0.020000000000000004,0
PBA type,IndiIss,0.020000000000000004,0
PBA type,DisIs,0.020000000000000004,0
PBA type,ICTAAToFoDev,0.020000000000000004,0
PBA type,KnoFoDevelo,0.020000000000000004,0
PBA type,GeEq,0.020000000000000004,0
PBA type,OrgaID,0.4920634920634921,0
PBA type,OrgTy,0.46666666666666673,0
PBA type,OrgCl,0.4181818181818182,0
PBA type,OrgS,0.2,0
PBA type,ProjBrCoID,0.6011928811928812,0
PBA type,CoReNa,0.6266666666666667,0
PBA type,SeID,0.020000000000000004,0
PBA type,SecN,0.6044117647058824,0
PBA type,SePerc,0.033333333333333326,0
PBA type,AmoSpe,0.033333333333333326,0
Enviromental sustainability (marker),FiYe,0.020000000000000004,0
Enviromental sustainability (marker),CIDABusDeliMod,0.020000000000000004,0
Enviromental sustainability (marker),CoReID,0.020000000000000004,0
Enviromental sustainability (marker),Bio,0.35372549019607846,0
Enviromental sustainability (marker),OrganN,0.020000000000000004,0
Enviromental sustainability (marker),DivID,0.020000000000000004,0
Enviromental sustainability (marker),ProPr,0.020000000000000004,0
Enviromental sustainability (marker),DiviN,0.020000000000000004,0
Enviromental sustainability (marker),ContiID,0.4993148028442146,0
Enviromental sustainability (marker),SecID,0.020000000000000004,0
Enviromental sustainability (marker),PrNum,0.020000000000000004,0
Enviromental sustainability (marker),TrDev,0.38533333333333336,0
Enviromental sustainability (marker),BraN,0.020000000000000004,0
Enviromental sustainability (marker),ContiN,0.020000000000000004,0
Enviromental sustainability (marker),CounRegPer,0.05,0
Enviromental sustainability (marker),UrIs,0.40523809523809523,0
Enviromental sustainability (marker),ChIss,0.29662745098039217,0
Enviromental sustainability (marker),YoIss,0.3210084033613446,0
Enviromental sustainability (marker),IndiIss,0.3843137254901961,0
Enviromental sustainability (marker),DisIs,0.3833333333333333,0
Enviromental sustainability (marker),ICTAAToFoDev,0.4784451324389405,0
Enviromental sustainability (marker),KnoFoDevelo,0.47740740740740745,0
Enviromental sustainability (marker),GeEq,0.5264468864468865,0
Enviromental sustainability (marker),OrgaID,0.020000000000000004,0
Enviromental sustainability (marker),OrgTy,0.020000000000000004,0
Enviromental sustainability (marker),OrgCl,0.020000000000000004,0
Enviromental sustainability (marker),OrgS,0.020000000000000004,0
Enviromental sustainability (marker),ProjBrCoID,0.020000000000000004,0
Enviromental sustainability (marker),CoReNa,0.020000000000000004,0
Enviromental sustainability (marker),SeID,0.4666666666666667,0
Enviromental sustainability (marker),SecN,0.020000000000000004,0
Enviromental sustainability (marker),SePerc,0.05,0
Enviromental sustainability (marker),AmoSpe,0.05,0
Climate change adaptation (marker),FiYe,0.020000000000000004,0
Climate change adaptation (marker),CIDABusDeliMod,0.020000000000000004,0
Climate change adaptation (marker),CoReID,0.020000000000000004,0
Climate change adaptation (marker),Bio,0.3304615384615385,0
Climate change adaptation (marker),OrganN,0.020000000000000004,0
Climate change adaptation (marker),DivID,0.020000000000000004,0
Climate change adaptation (marker),ProPr,0.020000000000000004,0
Climate change adaptation (marker),DiviN,0.020000000000000004,0
Climate change adaptation (marker),ContiID,0.5215007215007215,0
Climate change adaptation (marker),SecID,0.020000000000000004,0
Climate change adaptation (marker),PrNum,0.020000000000000004,0
Climate change adaptation (marker),TrDev,0.37777777777777777,0
Climate change adaptation (marker),BraN,0.020000000000000004,0
Climate change adaptation (marker),ContiN,0.020000000000000004,0
Climate change adaptation (marker),CounRegPer,0.05,0
Climate change adaptation (marker),UrIs,0.43600000000000005,0
Climate change adaptation (marker),ChIss,0.41014245014245015,0
Climate change adaptation (marker),YoIss,0.29777777777777775,0
Climate change adaptation (marker),IndiIss,0.35619047619047617,0
Climate change adaptation (marker),DisIs,0.4505263157894737,0
Climate change adaptation (marker),ICTAAToFoDev,0.46851370851370855,0
Climate change adaptation (marker),KnoFoDevelo,0.43310911310911315,0
Climate change adaptation (marker),GeEq,0.5526695526695526,0
Climate change adaptation (marker),OrgaID,0.020000000000000004,0
Climate change adaptation (marker),OrgTy,0.020000000000000004,0
Climate change adaptation (marker),OrgCl,0.020000000000000004,0
Climate change adaptation (marker),OrgS,0.020000000000000004,0
Climate change adaptation (marker),ProjBrCoID,0.020000000000000004,0
Climate change adaptation (marker),CoReNa,0.020000000000000004,0
Climate change adaptation (marker),SeID,0.5579087579087579,0
Climate change adaptation (marker),SecN,0.020000000000000004,0
Climate change adaptation (marker),SePerc,0.05,0
Climate change adaptation (marker),AmoSpe,0.05,0
Climate change mitigation (marker),FiYe,0.020000000000000004,0
Climate change mitigation (marker),CIDABusDeliMod,0.020000000000000004,0
Climate change mitigation (marker),CoReID,0.020000000000000004,0
Climate change mitigation (marker),Bio,0.3304615384615385,0
Climate change mitigation (marker),OrganN,0.020000000000000004,0
Climate change mitigation (marker),DivID,0.020000000000000004,0
Climate change mitigation (marker),ProPr,0.020000000000000004,0
Climate change mitigation (marker),DiviN,0.020000000000000004,0
Climate change mitigation (marker),ContiID,0.5088023088023088,0
Climate change mitigation (marker),SecID,0.020000000000000004,0
Climate change mitigation (marker),PrNum,0.020000000000000004,0
Climate change mitigation (marker),TrDev,0.37777777777777777,0
Climate change mitigation (marker),BraN,0.020000000000000004,0
Climate change mitigation (marker),ContiN,0.020000000000000004,0
Climate change mitigation (marker),CounRegPer,0.05,0
Climate change mitigation (marker),UrIs,0.4093333333333333,0
Climate change mitigation (marker),ChIss,0.41014245014245015,0
Climate change mitigation (marker),YoIss,0.29777777777777775,0
Climate change mitigation (marker),IndiIss,0.35619047619047617,0
Climate change mitigation (marker),DisIs,0.448,0
Climate change mitigation (marker),ICTAAToFoDev,0.4879076479076479,0
Climate change mitigation (marker),KnoFoDevelo,0.41259629259629266,0
Climate change mitigation (marker),GeEq,0.5441847041847042,0
Climate change mitigation (marker),OrgaID,0.020000000000000004,0
Climate change mitigation (marker),OrgTy,0.020000000000000004,0
Climate change mitigation (marker),OrgCl,0.020000000000000004,0
Climate change mitigation (marker),OrgS,0.020000000000000004,0
Climate change mitigation (marker),ProjBrCoID,0.020000000000000004,0
Climate change mitigation (marker),CoReNa,0.020000000000000004,0
Climate change mitigation (marker),SeID,0.5452103452103452,0
Climate change mitigation (marker),SecN,0.020000000000000004,0
Climate change mitigation (marker),SePerc,0.05,0
Climate change mitigation (marker),AmoSpe,0.05,0
Desertification (marker),FiYe,0.020000000000000004,0
Desertification (marker),CIDABusDeliMod,0.020000000000000004,0
Desertification (marker),CoReID,0.020000000000000004,0
Desertification (marker),Bio,0.31851851851851853,0
Desertification (marker),OrganN,0.020000000000000004,0
Desertification (marker),DivID,0.020000000000000004,0
Desertification (marker),ProPr,0.020000000000000004,0
Desertification (marker),DiviN,0.020000000000000004,0
Desertification (marker),ContiID,0.4914285714285715,0
Desertification (marker),SecID,0.020000000000000004,0
Desertification (marker),PrNum,0.020000000000000004,0
Desertification (marker),TrDev,0.3888888888888889,0
Desertification (marker),BraN,0.020000000000000004,0
Desertification (marker),ContiN,0.020000000000000004,0
Desertification (marker),CounRegPer,0.05,0
Desertification (marker),UrIs,0.4666666666666667,0
Desertification (marker),ChIss,0.26928104575163403,0
Desertification (marker),YoIss,0.26928104575163403,0
Desertification (marker),IndiIss,0.3064327485380117,0
Desertification (marker),DisIs,0.3666666666666667,0
Desertification (marker),ICTAAToFoDev,0.45955555555555555,0
Desertification (marker),KnoFoDevelo,0.4854603174603175,0
Desertification (marker),GeEq,0.4615384615384615,0
Desertification (marker),OrgaID,0.020000000000000004,0
Desertification (marker),OrgTy,0.020000000000000004,0
Desertification (marker),OrgCl,0.020000000000000004,0
Desertification (marker),OrgS,0.020000000000000004,0
Desertification (marker),ProjBrCoID,0.020000000000000004,0
Desertification (marker),CoReNa,0.020000000000000004,0
Desertification (marker),SeID,0.5047619047619047,0
Desertification (marker),SecN,0.020000000000000004,0
Desertification (marker),SePerc,0.05,0
Desertification (marker),AmoSpe,0.05,0
Participatory development and good governance,FiYe,0.020000000000000004,0
Participatory development and good governance,CIDABusDeliMod,0.020000000000000004,0
Participatory development and good governance,CoReID,0.020000000000000004,0
Participatory development and good governance,Bio,0.3789010989010989,0
Participatory development and good governance,OrganN,0.020000000000000004,0
Participatory development and good governance,DivID,0.020000000000000004,0
Participatory development and good governance,ProPr,0.020000000000000004,0
Participatory development and good governance,DiviN,0.020000000000000004,0
Participatory development and good governance,ContiID,0.57119825708061,0
Participatory development and good governance,SecID,0.020000000000000004,0
Participatory development and good governance,PrNum,0.020000000000000004,0
Participatory development and good governance,TrDev,0.44571428571428573,0
Participatory development and good governance,BraN,0.020000000000000004,0
Participatory development and good governance,ContiN,0.020000000000000004,0
Participatory development and good governance,CounRegPer,0.05,0
Participatory development and good governance,UrIs,0.4937757667169433,0
Participatory development and good governance,ChIss,0.2788888888888889,0
Participatory development and good governance,YoIss,0.3660683760683761,0
Participatory development and good governance,IndiIss,0.35153127917833804,0
Participatory development and good governance,DisIs,0.4103945031003855,0
Participatory development and good governance,ICTAAToFoDev,0.4516983545554975,0
Participatory development and good governance,KnoFoDevelo,0.5292356942777111,0
Participatory development and good governance,GeEq,0.5064320429026312,0
Participatory development and good governance,OrgaID,0.020000000000000004,0
Participatory development and good governance,OrgTy,0.020000000000000004,0
Participatory development and good governance,OrgCl,0.020000000000000004,0
Participatory development and good governance,OrgS,0.020000000000000004,0
Participatory development and good governance,ProjBrCoID,0.020000000000000004,0
Participatory development and good governance,CoReNa,0.020000000000000004,0
Participatory development and good governance,SeID,0.5745315904139434,0
Participatory development and good governance,SecN,0.020000000000000004,0
Participatory development and good governance,SePerc,0.05,0
Participatory development and good governance,AmoSpe,0.05,0
