source,target,conf,realConf
Fiscal year,fsclr,1.0,1
Fiscal year,dsrtfctn(mrkr),0.25,0
Fiscal year,prjctnmbr,0.0015552099533437014,0
Fiscal year,ntdmnt(prjct-lvlbdgt),0.002304147465437788,0
Fiscal year,ndgnssss(mrkr),0.25,0
Fiscal year,sctrd,0.008130081300813009,0
Fiscal year,ctstlfrdvlpmnt(mrkr),0.3333333333333333,0
Fiscal year,fndcntrd,0.019230769230769232,0
Fiscal year,chldrnsss(mrkr),0.25,0
Fiscal year,prgrmmngprcss(nw),1.0,0
Fiscal year,knwldgfrdvlpmnt(mrkr),0.25,0
Fiscal year,dvsnnm,0.07692307692307693,0
Fiscal year,mxmmcdcntrbtn(prjct-lvl),0.0019455252918287938,0
Fiscal year,cntrrgnprcnt,0.0024875621890547263,0
Fiscal year,stts,0.3333333333333333,0
Fiscal year,brnchd,0.2,0
Fiscal year,trddvlpmnt(mrkr),0.25,0
Fiscal year,cntnntnm,0.2,0
Fiscal year,rgnstnclss,0.16666666666666666,0
Fiscal year,cntrrgnd,0.007042253521126761,0
Fiscal year,pbtp,1.0,0
Fiscal year,rgnlprgrm(mrkr),0.5,0
Fiscal year,bdvrst(mrkr),0.25,0
Fiscal year,cntnntd,0.2,0
Fiscal year,cntrrgnnm,0.006896551724137931,0
Fiscal year,prtcptrdvlpmntndgdgvrnnc,0.25,0
Fiscal year,rbnsss(mrkr),0.25,0
Fiscal year,thsss(mrkr),0.25,0
Fiscal year,dsbltsss(mrkr),0.25,0
Fiscal year,gndrqlt(mrkr),0.25,0
Fiscal year,rgnstnd,0.0029498525073746312,0
Fiscal year,rgnstnnm,0.0029498525073746312,0
Fiscal year,rgnstntp,0.25,0
Fiscal year,rgnstnsb-clss,0.041666666666666664,0
Fiscal year,prjctbrwsrcntrd,0.006535947712418301,0
Fiscal year,sctrnm,0.008130081300813009,0
Fiscal year,sctrprcnt,0.005405405405405406,0
Fiscal year,mntspnt,0.00019920318725099602,0
Desertification (marker),fsclr,0.25,0
Desertification (marker),dsrtfctn(mrkr),1.0,1
Desertification (marker),prjctnmbr,0.006220839813374806,0
Desertification (marker),ntdmnt(prjct-lvlbdgt),0.009216589861751152,0
Desertification (marker),ndgnssss(mrkr),1.0,0
Desertification (marker),sctrd,0.032520325203252036,0
Desertification (marker),ctstlfrdvlpmnt(mrkr),0.75,0
Desertification (marker),fndcntrd,0.07692307692307693,0
Desertification (marker),chldrnsss(mrkr),1.0,0
Desertification (marker),prgrmmngprcss(nw),0.25,0
Desertification (marker),knwldgfrdvlpmnt(mrkr),1.0,0
Desertification (marker),dvsnnm,0.3076923076923077,0
Desertification (marker),mxmmcdcntrbtn(prjct-lvl),0.007782101167315175,0
Desertification (marker),cntrrgnprcnt,0.009950248756218905,0
Desertification (marker),stts,0.75,0
Desertification (marker),brnchd,0.8,0
Desertification (marker),trddvlpmnt(mrkr),1.0,0
Desertification (marker),cntnntnm,0.8,0
Desertification (marker),rgnstnclss,0.6666666666666666,0
Desertification (marker),cntrrgnd,0.028169014084507043,0
Desertification (marker),pbtp,0.25,0
Desertification (marker),rgnlprgrm(mrkr),0.5,0
Desertification (marker),bdvrst(mrkr),1.0,0
Desertification (marker),cntnntd,0.8,0
Desertification (marker),cntrrgnnm,0.027586206896551724,0
Desertification (marker),prtcptrdvlpmntndgdgvrnnc,1.0,0
Desertification (marker),rbnsss(mrkr),1.0,0
Desertification (marker),thsss(mrkr),1.0,0
Desertification (marker),dsbltsss(mrkr),1.0,0
Desertification (marker),gndrqlt(mrkr),1.0,0
Desertification (marker),rgnstnd,0.011799410029498525,0
Desertification (marker),rgnstnnm,0.011799410029498525,0
Desertification (marker),rgnstntp,1.0,0
Desertification (marker),rgnstnsb-clss,0.16666666666666666,0
Desertification (marker),prjctbrwsrcntrd,0.026143790849673203,0
Desertification (marker),sctrnm,0.032520325203252036,0
Desertification (marker),sctrprcnt,0.021621621621621623,0
Desertification (marker),mntspnt,0.0007968127490039841,0
Project number,fsclr,0.0007331378299120235,0
Project number,dsrtfctn(mrkr),0.002932551319648094,0
Project number,prjctnmbr,0.4714076246334311,1
Project number,ntdmnt(prjct-lvlbdgt),0.3181818181818182,0
Project number,ndgnssss(mrkr),0.002932551319648094,0
Project number,sctrd,0.09017595307917889,0
Project number,ctstlfrdvlpmnt(mrkr),0.0021994134897360706,0
Project number,fndcntrd,0.03812316715542522,0
Project number,chldrnsss(mrkr),0.002932551319648094,0
Project number,prgrmmngprcss(nw),0.0007331378299120235,0
Project number,knwldgfrdvlpmnt(mrkr),0.002932551319648094,0
Project number,dvsnnm,0.009530791788856305,0
Project number,mxmmcdcntrbtn(prjct-lvl),0.37683284457478006,0
Project number,cntrrgnprcnt,0.29472140762463345,0
Project number,stts,0.0021994134897360706,0
Project number,brnchd,0.0036656891495601175,0
Project number,trddvlpmnt(mrkr),0.002932551319648094,0
Project number,cntnntnm,0.0036656891495601175,0
Project number,rgnstnclss,0.004398826979472141,0
Project number,cntrrgnd,0.10410557184750734,0
Project number,pbtp,0.0007331378299120235,0
Project number,rgnlprgrm(mrkr),0.001466275659824047,0
Project number,bdvrst(mrkr),0.002932551319648094,0
Project number,cntnntd,0.0036656891495601175,0
Project number,cntrrgnnm,0.1063049853372434,0
Project number,prtcptrdvlpmntndgdgvrnnc,0.002932551319648094,0
Project number,rbnsss(mrkr),0.002932551319648094,0
Project number,thsss(mrkr),0.002932551319648094,0
Project number,dsbltsss(mrkr),0.002932551319648094,0
Project number,gndrqlt(mrkr),0.002932551319648094,0
Project number,rgnstnd,0.24853372434017595,0
Project number,rgnstnnm,0.24853372434017595,0
Project number,rgnstntp,0.002932551319648094,0
Project number,rgnstnsb-clss,0.017595307917888565,0
Project number,prjctbrwsrcntrd,0.11217008797653959,0
Project number,sctrnm,0.09017595307917889,0
Project number,sctrprcnt,0.13563049853372433,0
Project number,mntspnt,0.27171314741035857,0
Untied amount(Project-level budget),fsclr,0.0011641443538998836,0
Untied amount(Project-level budget),dsrtfctn(mrkr),0.004656577415599534,0
Untied amount(Project-level budget),prjctnmbr,0.7485448195576252,0
Untied amount(Project-level budget),ntdmnt(prjct-lvlbdgt),0.5052386495925495,1
Untied amount(Project-level budget),ndgnssss(mrkr),0.004656577415599534,0
Untied amount(Project-level budget),sctrd,0.14318975552968569,0
Untied amount(Project-level budget),ctstlfrdvlpmnt(mrkr),0.0034924330616996507,0
Untied amount(Project-level budget),fndcntrd,0.06053550640279395,0
Untied amount(Project-level budget),chldrnsss(mrkr),0.004656577415599534,0
Untied amount(Project-level budget),prgrmmngprcss(nw),0.0011641443538998836,0
Untied amount(Project-level budget),knwldgfrdvlpmnt(mrkr),0.004656577415599534,0
Untied amount(Project-level budget),dvsnnm,0.015133876600698487,0
Untied amount(Project-level budget),mxmmcdcntrbtn(prjct-lvl),0.5983701979045402,0
Untied amount(Project-level budget),cntrrgnprcnt,0.4679860302677532,0
Untied amount(Project-level budget),stts,0.0034924330616996507,0
Untied amount(Project-level budget),brnchd,0.005820721769499418,0
Untied amount(Project-level budget),trddvlpmnt(mrkr),0.004656577415599534,0
Untied amount(Project-level budget),cntnntnm,0.005820721769499418,0
Untied amount(Project-level budget),rgnstnclss,0.006984866123399301,0
Untied amount(Project-level budget),cntrrgnd,0.16530849825378346,0
Untied amount(Project-level budget),pbtp,0.0011641443538998836,0
Untied amount(Project-level budget),rgnlprgrm(mrkr),0.002328288707799767,0
Untied amount(Project-level budget),bdvrst(mrkr),0.004656577415599534,0
Untied amount(Project-level budget),cntnntd,0.005820721769499418,0
Untied amount(Project-level budget),cntrrgnnm,0.16880093131548313,0
Untied amount(Project-level budget),prtcptrdvlpmntndgdgvrnnc,0.004656577415599534,0
Untied amount(Project-level budget),rbnsss(mrkr),0.004656577415599534,0
Untied amount(Project-level budget),thsss(mrkr),0.004656577415599534,0
Untied amount(Project-level budget),dsbltsss(mrkr),0.004656577415599534,0
Untied amount(Project-level budget),gndrqlt(mrkr),0.004656577415599534,0
Untied amount(Project-level budget),rgnstnd,0.3946449359720605,0
Untied amount(Project-level budget),rgnstnnm,0.3946449359720605,0
Untied amount(Project-level budget),rgnstntp,0.004656577415599534,0
Untied amount(Project-level budget),rgnstnsb-clss,0.027939464493597205,0
Untied amount(Project-level budget),prjctbrwsrcntrd,0.1781140861466822,0
Untied amount(Project-level budget),sctrnm,0.14318975552968569,0
Untied amount(Project-level budget),sctrprcnt,0.21536670547147846,0
Untied amount(Project-level budget),mntspnt,0.1711155378486056,0
Indigenous issues (marker),fsclr,0.25,0
Indigenous issues (marker),dsrtfctn(mrkr),1.0,0
Indigenous issues (marker),prjctnmbr,0.006220839813374806,0
Indigenous issues (marker),ntdmnt(prjct-lvlbdgt),0.009216589861751152,0
Indigenous issues (marker),ndgnssss(mrkr),1.0,1
Indigenous issues (marker),sctrd,0.032520325203252036,0
Indigenous issues (marker),ctstlfrdvlpmnt(mrkr),0.75,0
Indigenous issues (marker),fndcntrd,0.07692307692307693,0
Indigenous issues (marker),chldrnsss(mrkr),1.0,0
Indigenous issues (marker),prgrmmngprcss(nw),0.25,0
Indigenous issues (marker),knwldgfrdvlpmnt(mrkr),1.0,0
Indigenous issues (marker),dvsnnm,0.3076923076923077,0
Indigenous issues (marker),mxmmcdcntrbtn(prjct-lvl),0.007782101167315175,0
Indigenous issues (marker),cntrrgnprcnt,0.009950248756218905,0
Indigenous issues (marker),stts,0.75,0
Indigenous issues (marker),brnchd,0.8,0
Indigenous issues (marker),trddvlpmnt(mrkr),1.0,0
Indigenous issues (marker),cntnntnm,0.8,0
Indigenous issues (marker),rgnstnclss,0.6666666666666666,0
Indigenous issues (marker),cntrrgnd,0.028169014084507043,0
Indigenous issues (marker),pbtp,0.25,0
Indigenous issues (marker),rgnlprgrm(mrkr),0.5,0
Indigenous issues (marker),bdvrst(mrkr),1.0,0
Indigenous issues (marker),cntnntd,0.8,0
Indigenous issues (marker),cntrrgnnm,0.027586206896551724,0
Indigenous issues (marker),prtcptrdvlpmntndgdgvrnnc,1.0,0
Indigenous issues (marker),rbnsss(mrkr),1.0,0
Indigenous issues (marker),thsss(mrkr),1.0,0
Indigenous issues (marker),dsbltsss(mrkr),1.0,0
Indigenous issues (marker),gndrqlt(mrkr),1.0,0
Indigenous issues (marker),rgnstnd,0.011799410029498525,0
Indigenous issues (marker),rgnstnnm,0.011799410029498525,0
Indigenous issues (marker),rgnstntp,1.0,0
Indigenous issues (marker),rgnstnsb-clss,0.16666666666666666,0
Indigenous issues (marker),prjctbrwsrcntrd,0.026143790849673203,0
Indigenous issues (marker),sctrnm,0.032520325203252036,0
Indigenous issues (marker),sctrprcnt,0.021621621621621623,0
Indigenous issues (marker),mntspnt,0.0007968127490039841,0
Sector ID,fsclr,0.00641025641025641,0
Sector ID,dsrtfctn(mrkr),0.02564102564102564,0
Sector ID,prjctnmbr,0.24261275272161742,0
Sector ID,ntdmnt(prjct-lvlbdgt),0.35944700460829493,0
Sector ID,ndgnssss(mrkr),0.02564102564102564,0
Sector ID,sctrd,0.7884615384615384,1
Sector ID,ctstlfrdvlpmnt(mrkr),0.019230769230769232,0
Sector ID,fndcntrd,0.3333333333333333,0
Sector ID,chldrnsss(mrkr),0.02564102564102564,0
Sector ID,prgrmmngprcss(nw),0.00641025641025641,0
Sector ID,knwldgfrdvlpmnt(mrkr),0.02564102564102564,0
Sector ID,dvsnnm,0.08333333333333333,0
Sector ID,mxmmcdcntrbtn(prjct-lvl),0.3035019455252918,0
Sector ID,cntrrgnprcnt,0.3880597014925373,0
Sector ID,stts,0.019230769230769232,0
Sector ID,brnchd,0.03205128205128205,0
Sector ID,trddvlpmnt(mrkr),0.02564102564102564,0
Sector ID,cntnntnm,0.03205128205128205,0
Sector ID,rgnstnclss,0.038461538461538464,0
Sector ID,cntrrgnd,0.9102564102564102,0
Sector ID,pbtp,0.00641025641025641,0
Sector ID,rgnlprgrm(mrkr),0.01282051282051282,0
Sector ID,bdvrst(mrkr),0.02564102564102564,0
Sector ID,cntnntd,0.03205128205128205,0
Sector ID,cntrrgnnm,0.9294871794871795,0
Sector ID,prtcptrdvlpmntndgdgvrnnc,0.02564102564102564,0
Sector ID,rbnsss(mrkr),0.02564102564102564,0
Sector ID,thsss(mrkr),0.02564102564102564,0
Sector ID,dsbltsss(mrkr),0.02564102564102564,0
Sector ID,gndrqlt(mrkr),0.02564102564102564,0
Sector ID,rgnstnd,0.46017699115044247,0
Sector ID,rgnstnnm,0.46017699115044247,0
Sector ID,rgnstntp,0.02564102564102564,0
Sector ID,rgnstnsb-clss,0.15384615384615385,0
Sector ID,prjctbrwsrcntrd,0.9807692307692307,0
Sector ID,sctrnm,0.7884615384615384,0
Sector ID,sctrprcnt,0.8432432432432433,0
Sector ID,mntspnt,0.031075697211155377,0
ICT as a tool for development (marker),fsclr,0.25,0
ICT as a tool for development (marker),dsrtfctn(mrkr),1.0,0
ICT as a tool for development (marker),prjctnmbr,0.006220839813374806,0
ICT as a tool for development (marker),ntdmnt(prjct-lvlbdgt),0.009216589861751152,0
ICT as a tool for development (marker),ndgnssss(mrkr),1.0,0
ICT as a tool for development (marker),sctrd,0.032520325203252036,0
ICT as a tool for development (marker),ctstlfrdvlpmnt(mrkr),0.75,1
ICT as a tool for development (marker),fndcntrd,0.07692307692307693,0
ICT as a tool for development (marker),chldrnsss(mrkr),1.0,0
ICT as a tool for development (marker),prgrmmngprcss(nw),0.25,0
ICT as a tool for development (marker),knwldgfrdvlpmnt(mrkr),1.0,0
ICT as a tool for development (marker),dvsnnm,0.3076923076923077,0
ICT as a tool for development (marker),mxmmcdcntrbtn(prjct-lvl),0.007782101167315175,0
ICT as a tool for development (marker),cntrrgnprcnt,0.009950248756218905,0
ICT as a tool for development (marker),stts,0.75,0
ICT as a tool for development (marker),brnchd,0.8,0
ICT as a tool for development (marker),trddvlpmnt(mrkr),1.0,0
ICT as a tool for development (marker),cntnntnm,0.8,0
ICT as a tool for development (marker),rgnstnclss,0.6666666666666666,0
ICT as a tool for development (marker),cntrrgnd,0.028169014084507043,0
ICT as a tool for development (marker),pbtp,0.25,0
ICT as a tool for development (marker),rgnlprgrm(mrkr),0.5,0
ICT as a tool for development (marker),bdvrst(mrkr),1.0,0
ICT as a tool for development (marker),cntnntd,0.8,0
ICT as a tool for development (marker),cntrrgnnm,0.027586206896551724,0
ICT as a tool for development (marker),prtcptrdvlpmntndgdgvrnnc,1.0,0
ICT as a tool for development (marker),rbnsss(mrkr),1.0,0
ICT as a tool for development (marker),thsss(mrkr),1.0,0
ICT as a tool for development (marker),dsbltsss(mrkr),1.0,0
ICT as a tool for development (marker),gndrqlt(mrkr),1.0,0
ICT as a tool for development (marker),rgnstnd,0.011799410029498525,0
ICT as a tool for development (marker),rgnstnnm,0.011799410029498525,0
ICT as a tool for development (marker),rgnstntp,1.0,0
ICT as a tool for development (marker),rgnstnsb-clss,0.16666666666666666,0
ICT as a tool for development (marker),prjctbrwsrcntrd,0.026143790849673203,0
ICT as a tool for development (marker),sctrnm,0.032520325203252036,0
ICT as a tool for development (marker),sctrprcnt,0.021621621621621623,0
ICT as a tool for development (marker),mntspnt,0.0007968127490039841,0
Fund centre ID,fsclr,0.006172839506172839,0
Fund centre ID,dsrtfctn(mrkr),0.024691358024691357,0
Fund centre ID,prjctnmbr,0.25194401244167963,0
Fund centre ID,ntdmnt(prjct-lvlbdgt),0.37327188940092165,0
Fund centre ID,ndgnssss(mrkr),0.024691358024691357,0
Fund centre ID,sctrd,0.7592592592592593,0
Fund centre ID,ctstlfrdvlpmnt(mrkr),0.018518518518518517,0
Fund centre ID,fndcntrd,0.32098765432098764,1
Fund centre ID,chldrnsss(mrkr),0.024691358024691357,0
Fund centre ID,prgrmmngprcss(nw),0.006172839506172839,0
Fund centre ID,knwldgfrdvlpmnt(mrkr),0.024691358024691357,0
Fund centre ID,dvsnnm,0.08024691358024691,0
Fund centre ID,mxmmcdcntrbtn(prjct-lvl),0.3151750972762646,0
Fund centre ID,cntrrgnprcnt,0.40298507462686567,0
Fund centre ID,stts,0.018518518518518517,0
Fund centre ID,brnchd,0.030864197530864196,0
Fund centre ID,trddvlpmnt(mrkr),0.024691358024691357,0
Fund centre ID,cntnntnm,0.030864197530864196,0
Fund centre ID,rgnstnclss,0.037037037037037035,0
Fund centre ID,cntrrgnd,0.8765432098765432,0
Fund centre ID,pbtp,0.006172839506172839,0
Fund centre ID,rgnlprgrm(mrkr),0.012345679012345678,0
Fund centre ID,bdvrst(mrkr),0.024691358024691357,0
Fund centre ID,cntnntd,0.030864197530864196,0
Fund centre ID,cntrrgnnm,0.8950617283950617,0
Fund centre ID,prtcptrdvlpmntndgdgvrnnc,0.024691358024691357,0
Fund centre ID,rbnsss(mrkr),0.024691358024691357,0
Fund centre ID,thsss(mrkr),0.024691358024691357,0
Fund centre ID,dsbltsss(mrkr),0.024691358024691357,0
Fund centre ID,gndrqlt(mrkr),0.024691358024691357,0
Fund centre ID,rgnstnd,0.4778761061946903,0
Fund centre ID,rgnstnnm,0.4778761061946903,0
Fund centre ID,rgnstntp,0.024691358024691357,0
Fund centre ID,rgnstnsb-clss,0.14814814814814814,0
Fund centre ID,prjctbrwsrcntrd,0.9444444444444444,0
Fund centre ID,sctrnm,0.7592592592592593,0
Fund centre ID,sctrprcnt,0.8756756756756757,0
Fund centre ID,mntspnt,0.03227091633466136,0
Children issues (marker),fsclr,0.25,0
Children issues (marker),dsrtfctn(mrkr),1.0,0
Children issues (marker),prjctnmbr,0.006220839813374806,0
Children issues (marker),ntdmnt(prjct-lvlbdgt),0.009216589861751152,0
Children issues (marker),ndgnssss(mrkr),1.0,0
Children issues (marker),sctrd,0.032520325203252036,0
Children issues (marker),ctstlfrdvlpmnt(mrkr),0.75,0
Children issues (marker),fndcntrd,0.07692307692307693,0
Children issues (marker),chldrnsss(mrkr),1.0,1
Children issues (marker),prgrmmngprcss(nw),0.25,0
Children issues (marker),knwldgfrdvlpmnt(mrkr),1.0,0
Children issues (marker),dvsnnm,0.3076923076923077,0
Children issues (marker),mxmmcdcntrbtn(prjct-lvl),0.007782101167315175,0
Children issues (marker),cntrrgnprcnt,0.009950248756218905,0
Children issues (marker),stts,0.75,0
Children issues (marker),brnchd,0.8,0
Children issues (marker),trddvlpmnt(mrkr),1.0,0
Children issues (marker),cntnntnm,0.8,0
Children issues (marker),rgnstnclss,0.6666666666666666,0
Children issues (marker),cntrrgnd,0.028169014084507043,0
Children issues (marker),pbtp,0.25,0
Children issues (marker),rgnlprgrm(mrkr),0.5,0
Children issues (marker),bdvrst(mrkr),1.0,0
Children issues (marker),cntnntd,0.8,0
Children issues (marker),cntrrgnnm,0.027586206896551724,0
Children issues (marker),prtcptrdvlpmntndgdgvrnnc,1.0,0
Children issues (marker),rbnsss(mrkr),1.0,0
Children issues (marker),thsss(mrkr),1.0,0
Children issues (marker),dsbltsss(mrkr),1.0,0
Children issues (marker),gndrqlt(mrkr),1.0,0
Children issues (marker),rgnstnd,0.011799410029498525,0
Children issues (marker),rgnstnnm,0.011799410029498525,0
Children issues (marker),rgnstntp,1.0,0
Children issues (marker),rgnstnsb-clss,0.16666666666666666,0
Children issues (marker),prjctbrwsrcntrd,0.026143790849673203,0
Children issues (marker),sctrnm,0.032520325203252036,0
Children issues (marker),sctrprcnt,0.021621621621621623,0
Children issues (marker),mntspnt,0.0007968127490039841,0
Programming process (new),fsclr,1.0,0
Programming process (new),dsrtfctn(mrkr),0.25,0
Programming process (new),prjctnmbr,0.0015552099533437014,0
Programming process (new),ntdmnt(prjct-lvlbdgt),0.002304147465437788,0
Programming process (new),ndgnssss(mrkr),0.25,0
Programming process (new),sctrd,0.008130081300813009,0
Programming process (new),ctstlfrdvlpmnt(mrkr),0.3333333333333333,0
Programming process (new),fndcntrd,0.019230769230769232,0
Programming process (new),chldrnsss(mrkr),0.25,0
Programming process (new),prgrmmngprcss(nw),1.0,1
Programming process (new),knwldgfrdvlpmnt(mrkr),0.25,0
Programming process (new),dvsnnm,0.07692307692307693,0
Programming process (new),mxmmcdcntrbtn(prjct-lvl),0.0019455252918287938,0
Programming process (new),cntrrgnprcnt,0.0024875621890547263,0
Programming process (new),stts,0.3333333333333333,0
Programming process (new),brnchd,0.2,0
Programming process (new),trddvlpmnt(mrkr),0.25,0
Programming process (new),cntnntnm,0.2,0
Programming process (new),rgnstnclss,0.16666666666666666,0
Programming process (new),cntrrgnd,0.007042253521126761,0
Programming process (new),pbtp,1.0,0
Programming process (new),rgnlprgrm(mrkr),0.5,0
Programming process (new),bdvrst(mrkr),0.25,0
Programming process (new),cntnntd,0.2,0
Programming process (new),cntrrgnnm,0.006896551724137931,0
Programming process (new),prtcptrdvlpmntndgdgvrnnc,0.25,0
Programming process (new),rbnsss(mrkr),0.25,0
Programming process (new),thsss(mrkr),0.25,0
Programming process (new),dsbltsss(mrkr),0.25,0
Programming process (new),gndrqlt(mrkr),0.25,0
Programming process (new),rgnstnd,0.0029498525073746312,0
Programming process (new),rgnstnnm,0.0029498525073746312,0
Programming process (new),rgnstntp,0.25,0
Programming process (new),rgnstnsb-clss,0.041666666666666664,0
Programming process (new),prjctbrwsrcntrd,0.006535947712418301,0
Programming process (new),sctrnm,0.008130081300813009,0
Programming process (new),sctrprcnt,0.005405405405405406,0
Programming process (new),mntspnt,0.00019920318725099602,0
Knowledge for development (marker),fsclr,0.25,0
Knowledge for development (marker),dsrtfctn(mrkr),1.0,0
Knowledge for development (marker),prjctnmbr,0.006220839813374806,0
Knowledge for development (marker),ntdmnt(prjct-lvlbdgt),0.009216589861751152,0
Knowledge for development (marker),ndgnssss(mrkr),1.0,0
Knowledge for development (marker),sctrd,0.032520325203252036,0
Knowledge for development (marker),ctstlfrdvlpmnt(mrkr),0.75,0
Knowledge for development (marker),fndcntrd,0.07692307692307693,0
Knowledge for development (marker),chldrnsss(mrkr),1.0,0
Knowledge for development (marker),prgrmmngprcss(nw),0.25,0
Knowledge for development (marker),knwldgfrdvlpmnt(mrkr),1.0,1
Knowledge for development (marker),dvsnnm,0.3076923076923077,0
Knowledge for development (marker),mxmmcdcntrbtn(prjct-lvl),0.007782101167315175,0
Knowledge for development (marker),cntrrgnprcnt,0.009950248756218905,0
Knowledge for development (marker),stts,0.75,0
Knowledge for development (marker),brnchd,0.8,0
Knowledge for development (marker),trddvlpmnt(mrkr),1.0,0
Knowledge for development (marker),cntnntnm,0.8,0
Knowledge for development (marker),rgnstnclss,0.6666666666666666,0
Knowledge for development (marker),cntrrgnd,0.028169014084507043,0
Knowledge for development (marker),pbtp,0.25,0
Knowledge for development (marker),rgnlprgrm(mrkr),0.5,0
Knowledge for development (marker),bdvrst(mrkr),1.0,0
Knowledge for development (marker),cntnntd,0.8,0
Knowledge for development (marker),cntrrgnnm,0.027586206896551724,0
Knowledge for development (marker),prtcptrdvlpmntndgdgvrnnc,1.0,0
Knowledge for development (marker),rbnsss(mrkr),1.0,0
Knowledge for development (marker),thsss(mrkr),1.0,0
Knowledge for development (marker),dsbltsss(mrkr),1.0,0
Knowledge for development (marker),gndrqlt(mrkr),1.0,0
Knowledge for development (marker),rgnstnd,0.011799410029498525,0
Knowledge for development (marker),rgnstnnm,0.011799410029498525,0
Knowledge for development (marker),rgnstntp,1.0,0
Knowledge for development (marker),rgnstnsb-clss,0.16666666666666666,0
Knowledge for development (marker),prjctbrwsrcntrd,0.026143790849673203,0
Knowledge for development (marker),sctrnm,0.032520325203252036,0
Knowledge for development (marker),sctrprcnt,0.021621621621621623,0
Knowledge for development (marker),mntspnt,0.0007968127490039841,0
Division name,fsclr,0.058823529411764705,0
Division name,dsrtfctn(mrkr),0.23529411764705882,0
Division name,prjctnmbr,0.026438569206842923,0
Division name,ntdmnt(prjct-lvlbdgt),0.03917050691244239,0
Division name,ndgnssss(mrkr),0.23529411764705882,0
Division name,sctrd,0.13821138211382114,0
Division name,ctstlfrdvlpmnt(mrkr),0.17647058823529413,0
Division name,fndcntrd,0.3269230769230769,0
Division name,chldrnsss(mrkr),0.23529411764705882,0
Division name,prgrmmngprcss(nw),0.058823529411764705,0
Division name,knwldgfrdvlpmnt(mrkr),0.23529411764705882,0
Division name,dvsnnm,0.7647058823529411,1
Division name,mxmmcdcntrbtn(prjct-lvl),0.033073929961089495,0
Division name,cntrrgnprcnt,0.04228855721393035,0
Division name,stts,0.17647058823529413,0
Division name,brnchd,0.29411764705882354,0
Division name,trddvlpmnt(mrkr),0.23529411764705882,0
Division name,cntnntnm,0.29411764705882354,0
Division name,rgnstnclss,0.35294117647058826,0
Division name,cntrrgnd,0.11971830985915492,0
Division name,pbtp,0.058823529411764705,0
Division name,rgnlprgrm(mrkr),0.11764705882352941,0
Division name,bdvrst(mrkr),0.23529411764705882,0
Division name,cntnntd,0.29411764705882354,0
Division name,cntrrgnnm,0.11724137931034483,0
Division name,prtcptrdvlpmntndgdgvrnnc,0.23529411764705882,0
Division name,rbnsss(mrkr),0.23529411764705882,0
Division name,thsss(mrkr),0.23529411764705882,0
Division name,dsbltsss(mrkr),0.23529411764705882,0
Division name,gndrqlt(mrkr),0.23529411764705882,0
Division name,rgnstnd,0.05014749262536873,0
Division name,rgnstnnm,0.05014749262536873,0
Division name,rgnstntp,0.23529411764705882,0
Division name,rgnstnsb-clss,0.7083333333333334,0
Division name,prjctbrwsrcntrd,0.1111111111111111,0
Division name,sctrnm,0.13821138211382114,0
Division name,sctrprcnt,0.0918918918918919,0
Division name,mntspnt,0.003386454183266932,0
Maximum CIDA contribution (project-level),fsclr,0.0009132420091324201,0
Maximum CIDA contribution (project-level),dsrtfctn(mrkr),0.0036529680365296802,0
Maximum CIDA contribution (project-level),prjctnmbr,0.5872146118721461,0
Maximum CIDA contribution (project-level),ntdmnt(prjct-lvlbdgt),0.3963470319634703,0
Maximum CIDA contribution (project-level),ndgnssss(mrkr),0.0036529680365296802,0
Maximum CIDA contribution (project-level),sctrd,0.11232876712328767,0
Maximum CIDA contribution (project-level),ctstlfrdvlpmnt(mrkr),0.0027397260273972603,0
Maximum CIDA contribution (project-level),fndcntrd,0.047488584474885846,0
Maximum CIDA contribution (project-level),chldrnsss(mrkr),0.0036529680365296802,0
Maximum CIDA contribution (project-level),prgrmmngprcss(nw),0.0009132420091324201,0
Maximum CIDA contribution (project-level),knwldgfrdvlpmnt(mrkr),0.0036529680365296802,0
Maximum CIDA contribution (project-level),dvsnnm,0.011872146118721462,0
Maximum CIDA contribution (project-level),mxmmcdcntrbtn(prjct-lvl),0.4694063926940639,1
Maximum CIDA contribution (project-level),cntrrgnprcnt,0.36712328767123287,0
Maximum CIDA contribution (project-level),stts,0.0027397260273972603,0
Maximum CIDA contribution (project-level),brnchd,0.0045662100456621,0
Maximum CIDA contribution (project-level),trddvlpmnt(mrkr),0.0036529680365296802,0
Maximum CIDA contribution (project-level),cntnntnm,0.0045662100456621,0
Maximum CIDA contribution (project-level),rgnstnclss,0.005479452054794521,0
Maximum CIDA contribution (project-level),cntrrgnd,0.12968036529680366,0
Maximum CIDA contribution (project-level),pbtp,0.0009132420091324201,0
Maximum CIDA contribution (project-level),rgnlprgrm(mrkr),0.0018264840182648401,0
Maximum CIDA contribution (project-level),bdvrst(mrkr),0.0036529680365296802,0
Maximum CIDA contribution (project-level),cntnntd,0.0045662100456621,0
Maximum CIDA contribution (project-level),cntrrgnnm,0.1324200913242009,0
Maximum CIDA contribution (project-level),prtcptrdvlpmntndgdgvrnnc,0.0036529680365296802,0
Maximum CIDA contribution (project-level),rbnsss(mrkr),0.0036529680365296802,0
Maximum CIDA contribution (project-level),thsss(mrkr),0.0036529680365296802,0
Maximum CIDA contribution (project-level),dsbltsss(mrkr),0.0036529680365296802,0
Maximum CIDA contribution (project-level),gndrqlt(mrkr),0.0036529680365296802,0
Maximum CIDA contribution (project-level),rgnstnd,0.3095890410958904,0
Maximum CIDA contribution (project-level),rgnstnnm,0.3095890410958904,0
Maximum CIDA contribution (project-level),rgnstntp,0.0036529680365296802,0
Maximum CIDA contribution (project-level),rgnstnsb-clss,0.021917808219178082,0
Maximum CIDA contribution (project-level),prjctbrwsrcntrd,0.13972602739726028,0
Maximum CIDA contribution (project-level),sctrnm,0.11232876712328767,0
Maximum CIDA contribution (project-level),sctrprcnt,0.1689497716894977,0
Maximum CIDA contribution (project-level),mntspnt,0.21812749003984064,0
CountryRegion percent,fsclr,0.0034129692832764505,0
CountryRegion percent,dsrtfctn(mrkr),0.013651877133105802,0
CountryRegion percent,prjctnmbr,0.4556765163297045,0
CountryRegion percent,ntdmnt(prjct-lvlbdgt),0.6751152073732719,0
CountryRegion percent,ndgnssss(mrkr),0.013651877133105802,0
CountryRegion percent,sctrd,0.4197952218430034,0
CountryRegion percent,ctstlfrdvlpmnt(mrkr),0.010238907849829351,0
CountryRegion percent,fndcntrd,0.17747440273037543,0
CountryRegion percent,chldrnsss(mrkr),0.013651877133105802,0
CountryRegion percent,prgrmmngprcss(nw),0.0034129692832764505,0
CountryRegion percent,knwldgfrdvlpmnt(mrkr),0.013651877133105802,0
CountryRegion percent,dvsnnm,0.04436860068259386,0
CountryRegion percent,mxmmcdcntrbtn(prjct-lvl),0.5700389105058365,0
CountryRegion percent,cntrrgnprcnt,0.7288557213930348,1
CountryRegion percent,stts,0.010238907849829351,0
CountryRegion percent,brnchd,0.017064846416382253,0
CountryRegion percent,trddvlpmnt(mrkr),0.013651877133105802,0
CountryRegion percent,cntnntnm,0.017064846416382253,0
CountryRegion percent,rgnstnclss,0.020477815699658702,0
CountryRegion percent,cntrrgnd,0.48464163822525597,0
CountryRegion percent,pbtp,0.0034129692832764505,0
CountryRegion percent,rgnlprgrm(mrkr),0.006825938566552901,0
CountryRegion percent,bdvrst(mrkr),0.013651877133105802,0
CountryRegion percent,cntnntd,0.017064846416382253,0
CountryRegion percent,cntrrgnnm,0.4948805460750853,0
CountryRegion percent,prtcptrdvlpmntndgdgvrnnc,0.013651877133105802,0
CountryRegion percent,rbnsss(mrkr),0.013651877133105802,0
CountryRegion percent,thsss(mrkr),0.013651877133105802,0
CountryRegion percent,dsbltsss(mrkr),0.013651877133105802,0
CountryRegion percent,gndrqlt(mrkr),0.013651877133105802,0
CountryRegion percent,rgnstnd,0.8643067846607669,0
CountryRegion percent,rgnstnnm,0.8643067846607669,0
CountryRegion percent,rgnstntp,0.013651877133105802,0
CountryRegion percent,rgnstnsb-clss,0.08191126279863481,0
CountryRegion percent,prjctbrwsrcntrd,0.5221843003412969,0
CountryRegion percent,sctrnm,0.4197952218430034,0
CountryRegion percent,sctrprcnt,0.6313993174061433,0
CountryRegion percent,mntspnt,0.05836653386454183,0
Status,fsclr,0.3333333333333333,0
Status,dsrtfctn(mrkr),0.75,0
Status,prjctnmbr,0.004665629860031105,0
Status,ntdmnt(prjct-lvlbdgt),0.0069124423963133645,0
Status,ndgnssss(mrkr),0.75,0
Status,sctrd,0.024390243902439025,0
Status,ctstlfrdvlpmnt(mrkr),1.0,0
Status,fndcntrd,0.057692307692307696,0
Status,chldrnsss(mrkr),0.75,0
Status,prgrmmngprcss(nw),0.3333333333333333,0
Status,knwldgfrdvlpmnt(mrkr),0.75,0
Status,dvsnnm,0.23076923076923078,0
Status,mxmmcdcntrbtn(prjct-lvl),0.005836575875486381,0
Status,cntrrgnprcnt,0.007462686567164179,0
Status,stts,1.0,1
Status,brnchd,0.6,0
Status,trddvlpmnt(mrkr),0.75,0
Status,cntnntnm,0.6,0
Status,rgnstnclss,0.5,0
Status,cntrrgnd,0.02112676056338028,0
Status,pbtp,0.3333333333333333,0
Status,rgnlprgrm(mrkr),0.6666666666666666,0
Status,bdvrst(mrkr),0.75,0
Status,cntnntd,0.6,0
Status,cntrrgnnm,0.020689655172413793,0
Status,prtcptrdvlpmntndgdgvrnnc,0.75,0
Status,rbnsss(mrkr),0.75,0
Status,thsss(mrkr),0.75,0
Status,dsbltsss(mrkr),0.75,0
Status,gndrqlt(mrkr),0.75,0
Status,rgnstnd,0.008849557522123894,0
Status,rgnstnnm,0.008849557522123894,0
Status,rgnstntp,0.75,0
Status,rgnstnsb-clss,0.125,0
Status,prjctbrwsrcntrd,0.0196078431372549,0
Status,sctrnm,0.024390243902439025,0
Status,sctrprcnt,0.016216216216216217,0
Status,mntspnt,0.000597609561752988,0
Branch ID,fsclr,0.14285714285714285,0
Branch ID,dsrtfctn(mrkr),0.5714285714285714,0
Branch ID,prjctnmbr,0.01088646967340591,0
Branch ID,ntdmnt(prjct-lvlbdgt),0.016129032258064516,0
Branch ID,ndgnssss(mrkr),0.5714285714285714,0
Branch ID,sctrd,0.056910569105691054,0
Branch ID,ctstlfrdvlpmnt(mrkr),0.42857142857142855,0
Branch ID,fndcntrd,0.1346153846153846,0
Branch ID,chldrnsss(mrkr),0.5714285714285714,0
Branch ID,prgrmmngprcss(nw),0.14285714285714285,0
Branch ID,knwldgfrdvlpmnt(mrkr),0.5714285714285714,0
Branch ID,dvsnnm,0.5384615384615384,0
Branch ID,mxmmcdcntrbtn(prjct-lvl),0.013618677042801557,0
Branch ID,cntrrgnprcnt,0.017412935323383085,0
Branch ID,stts,0.42857142857142855,0
Branch ID,brnchd,0.7142857142857143,1
Branch ID,trddvlpmnt(mrkr),0.5714285714285714,0
Branch ID,cntnntnm,0.7142857142857143,0
Branch ID,rgnstnclss,0.8571428571428571,0
Branch ID,cntrrgnd,0.04929577464788732,0
Branch ID,pbtp,0.14285714285714285,0
Branch ID,rgnlprgrm(mrkr),0.2857142857142857,0
Branch ID,bdvrst(mrkr),0.5714285714285714,0
Branch ID,cntnntd,0.7142857142857143,0
Branch ID,cntrrgnnm,0.04827586206896552,0
Branch ID,prtcptrdvlpmntndgdgvrnnc,0.5714285714285714,0
Branch ID,rbnsss(mrkr),0.5714285714285714,0
Branch ID,thsss(mrkr),0.5714285714285714,0
Branch ID,dsbltsss(mrkr),0.5714285714285714,0
Branch ID,gndrqlt(mrkr),0.5714285714285714,0
Branch ID,rgnstnd,0.02064896755162242,0
Branch ID,rgnstnnm,0.02064896755162242,0
Branch ID,rgnstntp,0.5714285714285714,0
Branch ID,rgnstnsb-clss,0.2916666666666667,0
Branch ID,prjctbrwsrcntrd,0.0457516339869281,0
Branch ID,sctrnm,0.056910569105691054,0
Branch ID,sctrprcnt,0.03783783783783784,0
Branch ID,mntspnt,0.0013944223107569722,0
Trade development (marker),fsclr,0.25,0
Trade development (marker),dsrtfctn(mrkr),1.0,0
Trade development (marker),prjctnmbr,0.006220839813374806,0
Trade development (marker),ntdmnt(prjct-lvlbdgt),0.009216589861751152,0
Trade development (marker),ndgnssss(mrkr),1.0,0
Trade development (marker),sctrd,0.032520325203252036,0
Trade development (marker),ctstlfrdvlpmnt(mrkr),0.75,0
Trade development (marker),fndcntrd,0.07692307692307693,0
Trade development (marker),chldrnsss(mrkr),1.0,0
Trade development (marker),prgrmmngprcss(nw),0.25,0
Trade development (marker),knwldgfrdvlpmnt(mrkr),1.0,0
Trade development (marker),dvsnnm,0.3076923076923077,0
Trade development (marker),mxmmcdcntrbtn(prjct-lvl),0.007782101167315175,0
Trade development (marker),cntrrgnprcnt,0.009950248756218905,0
Trade development (marker),stts,0.75,0
Trade development (marker),brnchd,0.8,0
Trade development (marker),trddvlpmnt(mrkr),1.0,1
Trade development (marker),cntnntnm,0.8,0
Trade development (marker),rgnstnclss,0.6666666666666666,0
Trade development (marker),cntrrgnd,0.028169014084507043,0
Trade development (marker),pbtp,0.25,0
Trade development (marker),rgnlprgrm(mrkr),0.5,0
Trade development (marker),bdvrst(mrkr),1.0,0
Trade development (marker),cntnntd,0.8,0
Trade development (marker),cntrrgnnm,0.027586206896551724,0
Trade development (marker),prtcptrdvlpmntndgdgvrnnc,1.0,0
Trade development (marker),rbnsss(mrkr),1.0,0
Trade development (marker),thsss(mrkr),1.0,0
Trade development (marker),dsbltsss(mrkr),1.0,0
Trade development (marker),gndrqlt(mrkr),1.0,0
Trade development (marker),rgnstnd,0.011799410029498525,0
Trade development (marker),rgnstnnm,0.011799410029498525,0
Trade development (marker),rgnstntp,1.0,0
Trade development (marker),rgnstnsb-clss,0.16666666666666666,0
Trade development (marker),prjctbrwsrcntrd,0.026143790849673203,0
Trade development (marker),sctrnm,0.032520325203252036,0
Trade development (marker),sctrprcnt,0.021621621621621623,0
Trade development (marker),mntspnt,0.0007968127490039841,0
Continent name,fsclr,0.2,0
Continent name,dsrtfctn(mrkr),0.8,0
Continent name,prjctnmbr,0.007776049766718507,0
Continent name,ntdmnt(prjct-lvlbdgt),0.01152073732718894,0
Continent name,ndgnssss(mrkr),0.8,0
Continent name,sctrd,0.04065040650406504,0
Continent name,ctstlfrdvlpmnt(mrkr),0.6,0
Continent name,fndcntrd,0.09615384615384616,0
Continent name,chldrnsss(mrkr),0.8,0
Continent name,prgrmmngprcss(nw),0.2,0
Continent name,knwldgfrdvlpmnt(mrkr),0.8,0
Continent name,dvsnnm,0.38461538461538464,0
Continent name,mxmmcdcntrbtn(prjct-lvl),0.009727626459143969,0
Continent name,cntrrgnprcnt,0.012437810945273632,0
Continent name,stts,0.6,0
Continent name,brnchd,1.0,0
Continent name,trddvlpmnt(mrkr),0.8,0
Continent name,cntnntnm,1.0,1
Continent name,rgnstnclss,0.8333333333333334,0
Continent name,cntrrgnd,0.035211267605633804,0
Continent name,pbtp,0.2,0
Continent name,rgnlprgrm(mrkr),0.4,0
Continent name,bdvrst(mrkr),0.8,0
Continent name,cntnntd,1.0,0
Continent name,cntrrgnnm,0.034482758620689655,0
Continent name,prtcptrdvlpmntndgdgvrnnc,0.8,0
Continent name,rbnsss(mrkr),0.8,0
Continent name,thsss(mrkr),0.8,0
Continent name,dsbltsss(mrkr),0.8,0
Continent name,gndrqlt(mrkr),0.8,0
Continent name,rgnstnd,0.014749262536873156,0
Continent name,rgnstnnm,0.014749262536873156,0
Continent name,rgnstntp,0.8,0
Continent name,rgnstnsb-clss,0.20833333333333334,0
Continent name,prjctbrwsrcntrd,0.032679738562091505,0
Continent name,sctrnm,0.04065040650406504,0
Continent name,sctrprcnt,0.02702702702702703,0
Continent name,mntspnt,0.00099601593625498,0
Organisation class,fsclr,0.16666666666666666,0
Organisation class,dsrtfctn(mrkr),0.6666666666666666,0
Organisation class,prjctnmbr,0.00933125972006221,0
Organisation class,ntdmnt(prjct-lvlbdgt),0.013824884792626729,0
Organisation class,ndgnssss(mrkr),0.6666666666666666,0
Organisation class,sctrd,0.04878048780487805,0
Organisation class,ctstlfrdvlpmnt(mrkr),0.5,0
Organisation class,fndcntrd,0.11538461538461539,0
Organisation class,chldrnsss(mrkr),0.6666666666666666,0
Organisation class,prgrmmngprcss(nw),0.16666666666666666,0
Organisation class,knwldgfrdvlpmnt(mrkr),0.6666666666666666,0
Organisation class,dvsnnm,0.46153846153846156,0
Organisation class,mxmmcdcntrbtn(prjct-lvl),0.011673151750972763,0
Organisation class,cntrrgnprcnt,0.014925373134328358,0
Organisation class,stts,0.5,0
Organisation class,brnchd,0.8333333333333334,0
Organisation class,trddvlpmnt(mrkr),0.6666666666666666,0
Organisation class,cntnntnm,0.8333333333333334,0
Organisation class,rgnstnclss,1.0,1
Organisation class,cntrrgnd,0.04225352112676056,0
Organisation class,pbtp,0.16666666666666666,0
Organisation class,rgnlprgrm(mrkr),0.3333333333333333,0
Organisation class,bdvrst(mrkr),0.6666666666666666,0
Organisation class,cntnntd,0.8333333333333334,0
Organisation class,cntrrgnnm,0.041379310344827586,0
Organisation class,prtcptrdvlpmntndgdgvrnnc,0.6666666666666666,0
Organisation class,rbnsss(mrkr),0.6666666666666666,0
Organisation class,thsss(mrkr),0.6666666666666666,0
Organisation class,dsbltsss(mrkr),0.6666666666666666,0
Organisation class,gndrqlt(mrkr),0.6666666666666666,0
Organisation class,rgnstnd,0.017699115044247787,0
Organisation class,rgnstnnm,0.017699115044247787,0
Organisation class,rgnstntp,0.6666666666666666,0
Organisation class,rgnstnsb-clss,0.25,0
Organisation class,prjctbrwsrcntrd,0.0392156862745098,0
Organisation class,sctrnm,0.04878048780487805,0
Organisation class,sctrprcnt,0.032432432432432434,0
Organisation class,mntspnt,0.001195219123505976,0
CountryRegion ID,fsclr,0.005780346820809248,0
CountryRegion ID,dsrtfctn(mrkr),0.023121387283236993,0
CountryRegion ID,prjctnmbr,0.2690513219284603,0
CountryRegion ID,ntdmnt(prjct-lvlbdgt),0.3986175115207373,0
CountryRegion ID,ndgnssss(mrkr),0.023121387283236993,0
CountryRegion ID,sctrd,0.7109826589595376,0
CountryRegion ID,ctstlfrdvlpmnt(mrkr),0.017341040462427744,0
CountryRegion ID,fndcntrd,0.30057803468208094,0
CountryRegion ID,chldrnsss(mrkr),0.023121387283236993,0
CountryRegion ID,prgrmmngprcss(nw),0.005780346820809248,0
CountryRegion ID,knwldgfrdvlpmnt(mrkr),0.023121387283236993,0
CountryRegion ID,dvsnnm,0.07514450867052024,0
CountryRegion ID,mxmmcdcntrbtn(prjct-lvl),0.33657587548638135,0
CountryRegion ID,cntrrgnprcnt,0.43034825870646765,0
CountryRegion ID,stts,0.017341040462427744,0
CountryRegion ID,brnchd,0.028901734104046242,0
CountryRegion ID,trddvlpmnt(mrkr),0.023121387283236993,0
CountryRegion ID,cntnntnm,0.028901734104046242,0
CountryRegion ID,rgnstnclss,0.03468208092485549,0
CountryRegion ID,cntrrgnd,0.8208092485549133,1
CountryRegion ID,pbtp,0.005780346820809248,0
CountryRegion ID,rgnlprgrm(mrkr),0.011560693641618497,0
CountryRegion ID,bdvrst(mrkr),0.023121387283236993,0
CountryRegion ID,cntnntd,0.028901734104046242,0
CountryRegion ID,cntrrgnnm,0.838150289017341,0
CountryRegion ID,prtcptrdvlpmntndgdgvrnnc,0.023121387283236993,0
CountryRegion ID,rbnsss(mrkr),0.023121387283236993,0
CountryRegion ID,thsss(mrkr),0.023121387283236993,0
CountryRegion ID,dsbltsss(mrkr),0.023121387283236993,0
CountryRegion ID,gndrqlt(mrkr),0.023121387283236993,0
CountryRegion ID,rgnstnd,0.5103244837758112,0
CountryRegion ID,rgnstnnm,0.5103244837758112,0
CountryRegion ID,rgnstntp,0.023121387283236993,0
CountryRegion ID,rgnstnsb-clss,0.13872832369942195,0
CountryRegion ID,prjctbrwsrcntrd,0.884393063583815,0
CountryRegion ID,sctrnm,0.7109826589595376,0
CountryRegion ID,sctrprcnt,0.9351351351351351,0
CountryRegion ID,mntspnt,0.03446215139442231,0
PBA type,fsclr,0.2,0
PBA type,dsrtfctn(mrkr),0.8,0
PBA type,prjctnmbr,0.007776049766718507,0
PBA type,ntdmnt(prjct-lvlbdgt),0.01152073732718894,0
PBA type,ndgnssss(mrkr),0.8,0
PBA type,sctrd,0.04065040650406504,0
PBA type,ctstlfrdvlpmnt(mrkr),0.6,0
PBA type,fndcntrd,0.09615384615384616,0
PBA type,chldrnsss(mrkr),0.8,0
PBA type,prgrmmngprcss(nw),0.2,0
PBA type,knwldgfrdvlpmnt(mrkr),0.8,0
PBA type,dvsnnm,0.38461538461538464,0
PBA type,mxmmcdcntrbtn(prjct-lvl),0.009727626459143969,0
PBA type,cntrrgnprcnt,0.012437810945273632,0
PBA type,stts,0.6,0
PBA type,brnchd,1.0,0
PBA type,trddvlpmnt(mrkr),0.8,0
PBA type,cntnntnm,1.0,0
PBA type,rgnstnclss,0.8333333333333334,0
PBA type,cntrrgnd,0.035211267605633804,0
PBA type,pbtp,0.2,1
PBA type,rgnlprgrm(mrkr),0.4,0
PBA type,bdvrst(mrkr),0.8,0
PBA type,cntnntd,1.0,0
PBA type,cntrrgnnm,0.034482758620689655,0
PBA type,prtcptrdvlpmntndgdgvrnnc,0.8,0
PBA type,rbnsss(mrkr),0.8,0
PBA type,thsss(mrkr),0.8,0
PBA type,dsbltsss(mrkr),0.8,0
PBA type,gndrqlt(mrkr),0.8,0
PBA type,rgnstnd,0.014749262536873156,0
PBA type,rgnstnnm,0.014749262536873156,0
PBA type,rgnstntp,0.8,0
PBA type,rgnstnsb-clss,0.20833333333333334,0
PBA type,prjctbrwsrcntrd,0.032679738562091505,0
PBA type,sctrnm,0.04065040650406504,0
PBA type,sctrprcnt,0.02702702702702703,0
PBA type,mntspnt,0.00099601593625498,0
Regional program (marker),fsclr,0.5,0
Regional program (marker),dsrtfctn(mrkr),0.5,0
Regional program (marker),prjctnmbr,0.003110419906687403,0
Regional program (marker),ntdmnt(prjct-lvlbdgt),0.004608294930875576,0
Regional program (marker),ndgnssss(mrkr),0.5,0
Regional program (marker),sctrd,0.016260162601626018,0
Regional program (marker),ctstlfrdvlpmnt(mrkr),0.6666666666666666,0
Regional program (marker),fndcntrd,0.038461538461538464,0
Regional program (marker),chldrnsss(mrkr),0.5,0
Regional program (marker),prgrmmngprcss(nw),0.5,0
Regional program (marker),knwldgfrdvlpmnt(mrkr),0.5,0
Regional program (marker),dvsnnm,0.15384615384615385,0
Regional program (marker),mxmmcdcntrbtn(prjct-lvl),0.0038910505836575876,0
Regional program (marker),cntrrgnprcnt,0.004975124378109453,0
Regional program (marker),stts,0.6666666666666666,0
Regional program (marker),brnchd,0.4,0
Regional program (marker),trddvlpmnt(mrkr),0.5,0
Regional program (marker),cntnntnm,0.4,0
Regional program (marker),rgnstnclss,0.3333333333333333,0
Regional program (marker),cntrrgnd,0.014084507042253521,0
Regional program (marker),pbtp,0.5,0
Regional program (marker),rgnlprgrm(mrkr),1.0,1
Regional program (marker),bdvrst(mrkr),0.5,0
Regional program (marker),cntnntd,0.4,0
Regional program (marker),cntrrgnnm,0.013793103448275862,0
Regional program (marker),prtcptrdvlpmntndgdgvrnnc,0.5,0
Regional program (marker),rbnsss(mrkr),0.5,0
Regional program (marker),thsss(mrkr),0.5,0
Regional program (marker),dsbltsss(mrkr),0.5,0
Regional program (marker),gndrqlt(mrkr),0.5,0
Regional program (marker),rgnstnd,0.0058997050147492625,0
Regional program (marker),rgnstnnm,0.0058997050147492625,0
Regional program (marker),rgnstntp,0.5,0
Regional program (marker),rgnstnsb-clss,0.08333333333333333,0
Regional program (marker),prjctbrwsrcntrd,0.013071895424836602,0
Regional program (marker),sctrnm,0.016260162601626018,0
Regional program (marker),sctrprcnt,0.010810810810810811,0
Regional program (marker),mntspnt,0.00039840637450199205,0
Biodiversity (marker),fsclr,0.25,0
Biodiversity (marker),dsrtfctn(mrkr),1.0,0
Biodiversity (marker),prjctnmbr,0.006220839813374806,0
Biodiversity (marker),ntdmnt(prjct-lvlbdgt),0.009216589861751152,0
Biodiversity (marker),ndgnssss(mrkr),1.0,0
Biodiversity (marker),sctrd,0.032520325203252036,0
Biodiversity (marker),ctstlfrdvlpmnt(mrkr),0.75,0
Biodiversity (marker),fndcntrd,0.07692307692307693,0
Biodiversity (marker),chldrnsss(mrkr),1.0,0
Biodiversity (marker),prgrmmngprcss(nw),0.25,0
Biodiversity (marker),knwldgfrdvlpmnt(mrkr),1.0,0
Biodiversity (marker),dvsnnm,0.3076923076923077,0
Biodiversity (marker),mxmmcdcntrbtn(prjct-lvl),0.007782101167315175,0
Biodiversity (marker),cntrrgnprcnt,0.009950248756218905,0
Biodiversity (marker),stts,0.75,0
Biodiversity (marker),brnchd,0.8,0
Biodiversity (marker),trddvlpmnt(mrkr),1.0,0
Biodiversity (marker),cntnntnm,0.8,0
Biodiversity (marker),rgnstnclss,0.6666666666666666,0
Biodiversity (marker),cntrrgnd,0.028169014084507043,0
Biodiversity (marker),pbtp,0.25,0
Biodiversity (marker),rgnlprgrm(mrkr),0.5,0
Biodiversity (marker),bdvrst(mrkr),1.0,1
Biodiversity (marker),cntnntd,0.8,0
Biodiversity (marker),cntrrgnnm,0.027586206896551724,0
Biodiversity (marker),prtcptrdvlpmntndgdgvrnnc,1.0,0
Biodiversity (marker),rbnsss(mrkr),1.0,0
Biodiversity (marker),thsss(mrkr),1.0,0
Biodiversity (marker),dsbltsss(mrkr),1.0,0
Biodiversity (marker),gndrqlt(mrkr),1.0,0
Biodiversity (marker),rgnstnd,0.011799410029498525,0
Biodiversity (marker),rgnstnnm,0.011799410029498525,0
Biodiversity (marker),rgnstntp,1.0,0
Biodiversity (marker),rgnstnsb-clss,0.16666666666666666,0
Biodiversity (marker),prjctbrwsrcntrd,0.026143790849673203,0
Biodiversity (marker),sctrnm,0.032520325203252036,0
Biodiversity (marker),sctrprcnt,0.021621621621621623,0
Biodiversity (marker),mntspnt,0.0007968127490039841,0
Continent ID,fsclr,0.2,0
Continent ID,dsrtfctn(mrkr),0.8,0
Continent ID,prjctnmbr,0.007776049766718507,0
Continent ID,ntdmnt(prjct-lvlbdgt),0.01152073732718894,0
Continent ID,ndgnssss(mrkr),0.8,0
Continent ID,sctrd,0.04065040650406504,0
Continent ID,ctstlfrdvlpmnt(mrkr),0.6,0
Continent ID,fndcntrd,0.09615384615384616,0
Continent ID,chldrnsss(mrkr),0.8,0
Continent ID,prgrmmngprcss(nw),0.2,0
Continent ID,knwldgfrdvlpmnt(mrkr),0.8,0
Continent ID,dvsnnm,0.38461538461538464,0
Continent ID,mxmmcdcntrbtn(prjct-lvl),0.009727626459143969,0
Continent ID,cntrrgnprcnt,0.012437810945273632,0
Continent ID,stts,0.6,0
Continent ID,brnchd,1.0,0
Continent ID,trddvlpmnt(mrkr),0.8,0
Continent ID,cntnntnm,1.0,0
Continent ID,rgnstnclss,0.8333333333333334,0
Continent ID,cntrrgnd,0.035211267605633804,0
Continent ID,pbtp,0.2,0
Continent ID,rgnlprgrm(mrkr),0.4,0
Continent ID,bdvrst(mrkr),0.8,0
Continent ID,cntnntd,1.0,1
Continent ID,cntrrgnnm,0.034482758620689655,0
Continent ID,prtcptrdvlpmntndgdgvrnnc,0.8,0
Continent ID,rbnsss(mrkr),0.8,0
Continent ID,thsss(mrkr),0.8,0
Continent ID,dsbltsss(mrkr),0.8,0
Continent ID,gndrqlt(mrkr),0.8,0
Continent ID,rgnstnd,0.014749262536873156,0
Continent ID,rgnstnnm,0.014749262536873156,0
Continent ID,rgnstntp,0.8,0
Continent ID,rgnstnsb-clss,0.20833333333333334,0
Continent ID,prjctbrwsrcntrd,0.032679738562091505,0
Continent ID,sctrnm,0.04065040650406504,0
Continent ID,sctrprcnt,0.02702702702702703,0
Continent ID,mntspnt,0.00099601593625498,0
CountryRegion name,fsclr,0.005747126436781609,0
CountryRegion name,dsrtfctn(mrkr),0.022988505747126436,0
CountryRegion name,prjctnmbr,0.27060653188180406,0
CountryRegion name,ntdmnt(prjct-lvlbdgt),0.4009216589861751,0
CountryRegion name,ndgnssss(mrkr),0.022988505747126436,0
CountryRegion name,sctrd,0.7068965517241379,0
CountryRegion name,ctstlfrdvlpmnt(mrkr),0.017241379310344827,0
CountryRegion name,fndcntrd,0.2988505747126437,0
CountryRegion name,chldrnsss(mrkr),0.022988505747126436,0
CountryRegion name,prgrmmngprcss(nw),0.005747126436781609,0
CountryRegion name,knwldgfrdvlpmnt(mrkr),0.022988505747126436,0
CountryRegion name,dvsnnm,0.07471264367816093,0
CountryRegion name,mxmmcdcntrbtn(prjct-lvl),0.33852140077821014,0
CountryRegion name,cntrrgnprcnt,0.43283582089552236,0
CountryRegion name,stts,0.017241379310344827,0
CountryRegion name,brnchd,0.028735632183908046,0
CountryRegion name,trddvlpmnt(mrkr),0.022988505747126436,0
CountryRegion name,cntnntnm,0.028735632183908046,0
CountryRegion name,rgnstnclss,0.034482758620689655,0
CountryRegion name,cntrrgnd,0.8160919540229885,0
CountryRegion name,pbtp,0.005747126436781609,0
CountryRegion name,rgnlprgrm(mrkr),0.011494252873563218,0
CountryRegion name,bdvrst(mrkr),0.022988505747126436,0
CountryRegion name,cntnntd,0.028735632183908046,0
CountryRegion name,cntrrgnnm,0.8333333333333334,1
CountryRegion name,prtcptrdvlpmntndgdgvrnnc,0.022988505747126436,0
CountryRegion name,rbnsss(mrkr),0.022988505747126436,0
CountryRegion name,thsss(mrkr),0.022988505747126436,0
CountryRegion name,dsbltsss(mrkr),0.022988505747126436,0
CountryRegion name,gndrqlt(mrkr),0.022988505747126436,0
CountryRegion name,rgnstnd,0.5132743362831859,0
CountryRegion name,rgnstnnm,0.5132743362831859,0
CountryRegion name,rgnstntp,0.022988505747126436,0
CountryRegion name,rgnstnsb-clss,0.13793103448275862,0
CountryRegion name,prjctbrwsrcntrd,0.8793103448275862,0
CountryRegion name,sctrnm,0.7068965517241379,0
CountryRegion name,sctrprcnt,0.9405405405405406,0
CountryRegion name,mntspnt,0.034661354581673305,0
Branch name,fsclr,0.14285714285714285,0
Branch name,dsrtfctn(mrkr),0.5714285714285714,0
Branch name,prjctnmbr,0.01088646967340591,0
Branch name,ntdmnt(prjct-lvlbdgt),0.016129032258064516,0
Branch name,ndgnssss(mrkr),0.5714285714285714,0
Branch name,sctrd,0.056910569105691054,0
Branch name,ctstlfrdvlpmnt(mrkr),0.42857142857142855,0
Branch name,fndcntrd,0.1346153846153846,0
Branch name,chldrnsss(mrkr),0.5714285714285714,0
Branch name,prgrmmngprcss(nw),0.14285714285714285,0
Branch name,knwldgfrdvlpmnt(mrkr),0.5714285714285714,0
Branch name,dvsnnm,0.5384615384615384,0
Branch name,mxmmcdcntrbtn(prjct-lvl),0.013618677042801557,0
Branch name,cntrrgnprcnt,0.017412935323383085,0
Branch name,stts,0.42857142857142855,0
Branch name,brnchd,0.7142857142857143,0
Branch name,trddvlpmnt(mrkr),0.5714285714285714,0
Branch name,cntnntnm,0.7142857142857143,0
Branch name,rgnstnclss,0.8571428571428571,0
Branch name,cntrrgnd,0.04929577464788732,0
Branch name,pbtp,0.14285714285714285,0
Branch name,rgnlprgrm(mrkr),0.2857142857142857,0
Branch name,bdvrst(mrkr),0.5714285714285714,0
Branch name,cntnntd,0.7142857142857143,0
Branch name,cntrrgnnm,0.04827586206896552,0
Branch name,prtcptrdvlpmntndgdgvrnnc,0.5714285714285714,0
Branch name,rbnsss(mrkr),0.5714285714285714,0
Branch name,thsss(mrkr),0.5714285714285714,0
Branch name,dsbltsss(mrkr),0.5714285714285714,0
Branch name,gndrqlt(mrkr),0.5714285714285714,0
Branch name,rgnstnd,0.02064896755162242,0
Branch name,rgnstnnm,0.02064896755162242,0
Branch name,rgnstntp,0.5714285714285714,0
Branch name,rgnstnsb-clss,0.2916666666666667,0
Branch name,prjctbrwsrcntrd,0.0457516339869281,0
Branch name,sctrnm,0.056910569105691054,0
Branch name,sctrprcnt,0.03783783783783784,0
Branch name,mntspnt,0.0013944223107569722,0
Division ID,fsclr,0.058823529411764705,0
Division ID,dsrtfctn(mrkr),0.23529411764705882,0
Division ID,prjctnmbr,0.026438569206842923,0
Division ID,ntdmnt(prjct-lvlbdgt),0.03917050691244239,0
Division ID,ndgnssss(mrkr),0.23529411764705882,0
Division ID,sctrd,0.13821138211382114,0
Division ID,ctstlfrdvlpmnt(mrkr),0.17647058823529413,0
Division ID,fndcntrd,0.3269230769230769,0
Division ID,chldrnsss(mrkr),0.23529411764705882,0
Division ID,prgrmmngprcss(nw),0.058823529411764705,0
Division ID,knwldgfrdvlpmnt(mrkr),0.23529411764705882,0
Division ID,dvsnnm,0.7647058823529411,0
Division ID,mxmmcdcntrbtn(prjct-lvl),0.033073929961089495,0
Division ID,cntrrgnprcnt,0.04228855721393035,0
Division ID,stts,0.17647058823529413,0
Division ID,brnchd,0.29411764705882354,0
Division ID,trddvlpmnt(mrkr),0.23529411764705882,0
Division ID,cntnntnm,0.29411764705882354,0
Division ID,rgnstnclss,0.35294117647058826,0
Division ID,cntrrgnd,0.11971830985915492,0
Division ID,pbtp,0.058823529411764705,0
Division ID,rgnlprgrm(mrkr),0.11764705882352941,0
Division ID,bdvrst(mrkr),0.23529411764705882,0
Division ID,cntnntd,0.29411764705882354,0
Division ID,cntrrgnnm,0.11724137931034483,0
Division ID,prtcptrdvlpmntndgdgvrnnc,0.23529411764705882,0
Division ID,rbnsss(mrkr),0.23529411764705882,0
Division ID,thsss(mrkr),0.23529411764705882,0
Division ID,dsbltsss(mrkr),0.23529411764705882,0
Division ID,gndrqlt(mrkr),0.23529411764705882,0
Division ID,rgnstnd,0.05014749262536873,0
Division ID,rgnstnnm,0.05014749262536873,0
Division ID,rgnstntp,0.23529411764705882,0
Division ID,rgnstnsb-clss,0.7083333333333334,0
Division ID,prjctbrwsrcntrd,0.1111111111111111,0
Division ID,sctrnm,0.13821138211382114,0
Division ID,sctrprcnt,0.0918918918918919,0
Division ID,mntspnt,0.003386454183266932,0
Section ID,fsclr,0.0196078431372549,0
Section ID,dsrtfctn(mrkr),0.0784313725490196,0
Section ID,prjctnmbr,0.07931570762052877,0
Section ID,ntdmnt(prjct-lvlbdgt),0.1175115207373272,0
Section ID,ndgnssss(mrkr),0.0784313725490196,0
Section ID,sctrd,0.4146341463414634,0
Section ID,ctstlfrdvlpmnt(mrkr),0.058823529411764705,0
Section ID,fndcntrd,0.9807692307692307,0
Section ID,chldrnsss(mrkr),0.0784313725490196,0
Section ID,prgrmmngprcss(nw),0.0196078431372549,0
Section ID,knwldgfrdvlpmnt(mrkr),0.0784313725490196,0
Section ID,dvsnnm,0.2549019607843137,0
Section ID,mxmmcdcntrbtn(prjct-lvl),0.09922178988326848,0
Section ID,cntrrgnprcnt,0.12686567164179105,0
Section ID,stts,0.058823529411764705,0
Section ID,brnchd,0.09803921568627451,0
Section ID,trddvlpmnt(mrkr),0.0784313725490196,0
Section ID,cntnntnm,0.09803921568627451,0
Section ID,rgnstnclss,0.11764705882352941,0
Section ID,cntrrgnd,0.3591549295774648,0
Section ID,pbtp,0.0196078431372549,0
Section ID,rgnlprgrm(mrkr),0.0392156862745098,0
Section ID,bdvrst(mrkr),0.0784313725490196,0
Section ID,cntnntd,0.09803921568627451,0
Section ID,cntrrgnnm,0.35172413793103446,0
Section ID,prtcptrdvlpmntndgdgvrnnc,0.0784313725490196,0
Section ID,rbnsss(mrkr),0.0784313725490196,0
Section ID,thsss(mrkr),0.0784313725490196,0
Section ID,dsbltsss(mrkr),0.0784313725490196,0
Section ID,gndrqlt(mrkr),0.0784313725490196,0
Section ID,rgnstnd,0.1504424778761062,0
Section ID,rgnstnnm,0.1504424778761062,0
Section ID,rgnstntp,0.0784313725490196,0
Section ID,rgnstnsb-clss,0.47058823529411764,0
Section ID,prjctbrwsrcntrd,0.3333333333333333,0
Section ID,sctrnm,0.4146341463414634,0
Section ID,sctrprcnt,0.2756756756756757,0
Section ID,mntspnt,0.010159362549800797,0
Section name,fsclr,0.0196078431372549,0
Section name,dsrtfctn(mrkr),0.0784313725490196,0
Section name,prjctnmbr,0.07931570762052877,0
Section name,ntdmnt(prjct-lvlbdgt),0.1175115207373272,0
Section name,ndgnssss(mrkr),0.0784313725490196,0
Section name,sctrd,0.4146341463414634,0
Section name,ctstlfrdvlpmnt(mrkr),0.058823529411764705,0
Section name,fndcntrd,0.9807692307692307,0
Section name,chldrnsss(mrkr),0.0784313725490196,0
Section name,prgrmmngprcss(nw),0.0196078431372549,0
Section name,knwldgfrdvlpmnt(mrkr),0.0784313725490196,0
Section name,dvsnnm,0.2549019607843137,0
Section name,mxmmcdcntrbtn(prjct-lvl),0.09922178988326848,0
Section name,cntrrgnprcnt,0.12686567164179105,0
Section name,stts,0.058823529411764705,0
Section name,brnchd,0.09803921568627451,0
Section name,trddvlpmnt(mrkr),0.0784313725490196,0
Section name,cntnntnm,0.09803921568627451,0
Section name,rgnstnclss,0.11764705882352941,0
Section name,cntrrgnd,0.3591549295774648,0
Section name,pbtp,0.0196078431372549,0
Section name,rgnlprgrm(mrkr),0.0392156862745098,0
Section name,bdvrst(mrkr),0.0784313725490196,0
Section name,cntnntd,0.09803921568627451,0
Section name,cntrrgnnm,0.35172413793103446,0
Section name,prtcptrdvlpmntndgdgvrnnc,0.0784313725490196,0
Section name,rbnsss(mrkr),0.0784313725490196,0
Section name,thsss(mrkr),0.0784313725490196,0
Section name,dsbltsss(mrkr),0.0784313725490196,0
Section name,gndrqlt(mrkr),0.0784313725490196,0
Section name,rgnstnd,0.1504424778761062,0
Section name,rgnstnnm,0.1504424778761062,0
Section name,rgnstntp,0.0784313725490196,0
Section name,rgnstnsb-clss,0.47058823529411764,0
Section name,prjctbrwsrcntrd,0.3333333333333333,0
Section name,sctrnm,0.4146341463414634,0
Section name,sctrprcnt,0.2756756756756757,0
Section name,mntspnt,0.010159362549800797,0
Fund centre name,fsclr,0.006172839506172839,0
Fund centre name,dsrtfctn(mrkr),0.024691358024691357,0
Fund centre name,prjctnmbr,0.25194401244167963,0
Fund centre name,ntdmnt(prjct-lvlbdgt),0.37327188940092165,0
Fund centre name,ndgnssss(mrkr),0.024691358024691357,0
Fund centre name,sctrd,0.7592592592592593,0
Fund centre name,ctstlfrdvlpmnt(mrkr),0.018518518518518517,0
Fund centre name,fndcntrd,0.32098765432098764,0
Fund centre name,chldrnsss(mrkr),0.024691358024691357,0
Fund centre name,prgrmmngprcss(nw),0.006172839506172839,0
Fund centre name,knwldgfrdvlpmnt(mrkr),0.024691358024691357,0
Fund centre name,dvsnnm,0.08024691358024691,0
Fund centre name,mxmmcdcntrbtn(prjct-lvl),0.3151750972762646,0
Fund centre name,cntrrgnprcnt,0.40298507462686567,0
Fund centre name,stts,0.018518518518518517,0
Fund centre name,brnchd,0.030864197530864196,0
Fund centre name,trddvlpmnt(mrkr),0.024691358024691357,0
Fund centre name,cntnntnm,0.030864197530864196,0
Fund centre name,rgnstnclss,0.037037037037037035,0
Fund centre name,cntrrgnd,0.8765432098765432,0
Fund centre name,pbtp,0.006172839506172839,0
Fund centre name,rgnlprgrm(mrkr),0.012345679012345678,0
Fund centre name,bdvrst(mrkr),0.024691358024691357,0
Fund centre name,cntnntd,0.030864197530864196,0
Fund centre name,cntrrgnnm,0.8950617283950617,0
Fund centre name,prtcptrdvlpmntndgdgvrnnc,0.024691358024691357,0
Fund centre name,rbnsss(mrkr),0.024691358024691357,0
Fund centre name,thsss(mrkr),0.024691358024691357,0
Fund centre name,dsbltsss(mrkr),0.024691358024691357,0
Fund centre name,gndrqlt(mrkr),0.024691358024691357,0
Fund centre name,rgnstnd,0.4778761061946903,0
Fund centre name,rgnstnnm,0.4778761061946903,0
Fund centre name,rgnstntp,0.024691358024691357,0
Fund centre name,rgnstnsb-clss,0.14814814814814814,0
Fund centre name,prjctbrwsrcntrd,0.9444444444444444,0
Fund centre name,sctrnm,0.7592592592592593,0
Fund centre name,sctrprcnt,0.8756756756756757,0
Fund centre name,mntspnt,0.03227091633466136,0
FSTC percent,fsclr,0.02040816326530612,0
FSTC percent,dsrtfctn(mrkr),0.08163265306122448,0
FSTC percent,prjctnmbr,0.07620528771384137,0
FSTC percent,ntdmnt(prjct-lvlbdgt),0.11290322580645161,0
FSTC percent,ndgnssss(mrkr),0.08163265306122448,0
FSTC percent,sctrd,0.3983739837398374,0
FSTC percent,ctstlfrdvlpmnt(mrkr),0.061224489795918366,0
FSTC percent,fndcntrd,0.9423076923076923,0
FSTC percent,chldrnsss(mrkr),0.08163265306122448,0
FSTC percent,prgrmmngprcss(nw),0.02040816326530612,0
FSTC percent,knwldgfrdvlpmnt(mrkr),0.08163265306122448,0
FSTC percent,dvsnnm,0.2653061224489796,0
FSTC percent,mxmmcdcntrbtn(prjct-lvl),0.09533073929961089,0
FSTC percent,cntrrgnprcnt,0.12189054726368159,0
FSTC percent,stts,0.061224489795918366,0
FSTC percent,brnchd,0.10204081632653061,0
FSTC percent,trddvlpmnt(mrkr),0.08163265306122448,0
FSTC percent,cntnntnm,0.10204081632653061,0
FSTC percent,rgnstnclss,0.12244897959183673,0
FSTC percent,cntrrgnd,0.34507042253521125,0
FSTC percent,pbtp,0.02040816326530612,0
FSTC percent,rgnlprgrm(mrkr),0.04081632653061224,0
FSTC percent,bdvrst(mrkr),0.08163265306122448,0
FSTC percent,cntnntd,0.10204081632653061,0
FSTC percent,cntrrgnnm,0.33793103448275863,0
FSTC percent,prtcptrdvlpmntndgdgvrnnc,0.08163265306122448,0
FSTC percent,rbnsss(mrkr),0.08163265306122448,0
FSTC percent,thsss(mrkr),0.08163265306122448,0
FSTC percent,dsbltsss(mrkr),0.08163265306122448,0
FSTC percent,gndrqlt(mrkr),0.08163265306122448,0
FSTC percent,rgnstnd,0.14454277286135694,0
FSTC percent,rgnstnnm,0.14454277286135694,0
FSTC percent,rgnstntp,0.08163265306122448,0
FSTC percent,rgnstnsb-clss,0.4897959183673469,0
FSTC percent,prjctbrwsrcntrd,0.3202614379084967,0
FSTC percent,sctrnm,0.3983739837398374,0
FSTC percent,sctrprcnt,0.2648648648648649,0
FSTC percent,mntspnt,0.009760956175298804,0
IRTC percent,fsclr,0.25,0
IRTC percent,dsrtfctn(mrkr),1.0,0
IRTC percent,prjctnmbr,0.006220839813374806,0
IRTC percent,ntdmnt(prjct-lvlbdgt),0.009216589861751152,0
IRTC percent,ndgnssss(mrkr),1.0,0
IRTC percent,sctrd,0.032520325203252036,0
IRTC percent,ctstlfrdvlpmnt(mrkr),0.75,0
IRTC percent,fndcntrd,0.07692307692307693,0
IRTC percent,chldrnsss(mrkr),1.0,0
IRTC percent,prgrmmngprcss(nw),0.25,0
IRTC percent,knwldgfrdvlpmnt(mrkr),1.0,0
IRTC percent,dvsnnm,0.3076923076923077,0
IRTC percent,mxmmcdcntrbtn(prjct-lvl),0.007782101167315175,0
IRTC percent,cntrrgnprcnt,0.009950248756218905,0
IRTC percent,stts,0.75,0
IRTC percent,brnchd,0.8,0
IRTC percent,trddvlpmnt(mrkr),1.0,0
