source,target,conf,realConf
Fiscal year,Fiscal year,0.03333333333333333,1
Fiscal year,Biodiversity (marker),0.13333333333333333,0
Fiscal year,CIDA business delivery model (old),0.1,0
Fiscal year,Bilateral aid (international marker),0.06666666666666667,0
Fiscal year,Branch name,0.16666666666666666,0
Fiscal year,Urban issues (marker),0.13333333333333333,0
Fiscal year,Sector ID,0.24390243902439024,0
Fiscal year,Regional program (marker),0.06666666666666667,0
Fiscal year,Fund centre name,0.5769230769230769,0
Fiscal year,Enviromental sustainability (marker),0.1,0
Fiscal year,Organisation ID,0.08849557522123894,0
Fiscal year,Status,0.1,0
Fiscal year,Maximum CIDA contribution (project-level),0.058365758754863814,0
Fiscal year,CountryRegion name,0.20689655172413793,0
Fiscal year,Division name,0.43333333333333335,0
Fiscal year,Climate change mitigation (marker),0.13333333333333333,0
Fiscal year,Desertification (marker),0.13333333333333333,0
Fiscal year,Organisation sub-class,0.8,0
Fiscal year,Youth issues (marker),0.13333333333333333,0
Fiscal year,Section ID,0.8333333333333334,0
Fiscal year,Branch ID,0.16666666666666666,0
Fiscal year,Trade development (marker),0.13333333333333333,0
Fiscal year,Continent name,0.16666666666666666,0
Fiscal year,CountryRegion ID,0.2112676056338028,0
Fiscal year,CFLI (marker),0.06666666666666667,0
Fiscal year,Climate change adaptation (marker),0.1,0
Fiscal year,Fund centre ID,0.5769230769230769,0
Fiscal year,Gender equality (marker),0.13333333333333333,0
Fiscal year,Organisation name,0.08849557522123894,0
Fiscal year,Continent ID,0.16666666666666666,0
Fiscal year,Division ID,0.43333333333333335,0
Fiscal year,Untied amount(Project-level budget),0.06912442396313365,0
Fiscal year,Organisation class,0.2,0
Fiscal year,Knowledge for development (marker),0.13333333333333333,0
Fiscal year,Organisation type,0.13333333333333333,0
Fiscal year,Indigenous issues (marker),0.13333333333333333,0
Fiscal year,Disability issues (marker),0.13333333333333333,0
Fiscal year,ICT as a tool for development (marker),0.1,0
Fiscal year,Project Browser country ID,0.19607843137254902,0
Fiscal year,CountryRegion percent,0.07462686567164178,0
Fiscal year,Sector name,0.24390243902439024,0
Fiscal year,Sector percent,0.16216216216216217,0
Fiscal year,Amount spent,0.00597609561752988,0
Biodiversity (marker),Fiscal year,0.25,0
Biodiversity (marker),Biodiversity (marker),1.0,1
Biodiversity (marker),CIDA business delivery model (old),0.75,0
Biodiversity (marker),Bilateral aid (international marker),0.5,0
Biodiversity (marker),Branch name,0.8,0
Biodiversity (marker),Urban issues (marker),1.0,0
Biodiversity (marker),Sector ID,0.032520325203252036,0
Biodiversity (marker),Regional program (marker),0.5,0
Biodiversity (marker),Fund centre name,0.07692307692307693,0
Biodiversity (marker),Enviromental sustainability (marker),0.75,0
Biodiversity (marker),Organisation ID,0.011799410029498525,0
Biodiversity (marker),Status,0.75,0
Biodiversity (marker),Maximum CIDA contribution (project-level),0.007782101167315175,0
Biodiversity (marker),CountryRegion name,0.027586206896551724,0
Biodiversity (marker),Division name,0.3076923076923077,0
Biodiversity (marker),Climate change mitigation (marker),1.0,0
Biodiversity (marker),Desertification (marker),1.0,0
Biodiversity (marker),Organisation sub-class,0.16666666666666666,0
Biodiversity (marker),Youth issues (marker),1.0,0
Biodiversity (marker),Section ID,0.16,0
Biodiversity (marker),Branch ID,0.8,0
Biodiversity (marker),Trade development (marker),1.0,0
Biodiversity (marker),Continent name,0.8,0
Biodiversity (marker),CountryRegion ID,0.028169014084507043,0
Biodiversity (marker),CFLI (marker),0.5,0
Biodiversity (marker),Climate change adaptation (marker),0.75,0
Biodiversity (marker),Fund centre ID,0.07692307692307693,0
Biodiversity (marker),Gender equality (marker),1.0,0
Biodiversity (marker),Organisation name,0.011799410029498525,0
Biodiversity (marker),Continent ID,0.8,0
Biodiversity (marker),Division ID,0.3076923076923077,0
Biodiversity (marker),Untied amount(Project-level budget),0.009216589861751152,0
Biodiversity (marker),Organisation class,0.6666666666666666,0
Biodiversity (marker),Knowledge for development (marker),1.0,0
Biodiversity (marker),Organisation type,1.0,0
Biodiversity (marker),Indigenous issues (marker),1.0,0
Biodiversity (marker),Disability issues (marker),1.0,0
Biodiversity (marker),ICT as a tool for development (marker),0.75,0
Biodiversity (marker),Project Browser country ID,0.026143790849673203,0
Biodiversity (marker),CountryRegion percent,0.009950248756218905,0
Biodiversity (marker),Sector name,0.032520325203252036,0
Biodiversity (marker),Sector percent,0.021621621621621623,0
Biodiversity (marker),Amount spent,0.0007968127490039841,0
CIDA business delivery model (old),Fiscal year,0.0003023888720895071,0
CIDA business delivery model (old),Biodiversity (marker),0.0012095554883580285,0
CIDA business delivery model (old),CIDA business delivery model (old),0.0009071666162685213,1
CIDA business delivery model (old),Bilateral aid (international marker),0.0006047777441790142,0
CIDA business delivery model (old),Branch name,0.0015119443604475356,0
CIDA business delivery model (old),Urban issues (marker),0.0012095554883580285,0
CIDA business delivery model (old),Sector ID,0.037193831267009377,0
CIDA business delivery model (old),Regional program (marker),0.0006047777441790142,0
CIDA business delivery model (old),Fund centre name,0.01572422134865437,0
CIDA business delivery model (old),Enviromental sustainability (marker),0.0009071666162685213,0
CIDA business delivery model (old),Organisation ID,0.1025098276383429,0
CIDA business delivery model (old),Status,0.0009071666162685213,0
CIDA business delivery model (old),Maximum CIDA contribution (project-level),0.15542788025400664,0
CIDA business delivery model (old),CountryRegion name,0.04384638645297853,0
CIDA business delivery model (old),Division name,0.003931055337163592,0
CIDA business delivery model (old),Climate change mitigation (marker),0.0012095554883580285,0
CIDA business delivery model (old),Desertification (marker),0.0012095554883580285,0
CIDA business delivery model (old),Organisation sub-class,0.00725733293014817,0
CIDA business delivery model (old),Youth issues (marker),0.0012095554883580285,0
CIDA business delivery model (old),Section ID,0.0075597218022376775,0
CIDA business delivery model (old),Branch ID,0.0015119443604475356,0
CIDA business delivery model (old),Trade development (marker),0.0012095554883580285,0
CIDA business delivery model (old),Continent name,0.0015119443604475356,0
CIDA business delivery model (old),CountryRegion ID,0.04293921983671001,0
CIDA business delivery model (old),CFLI (marker),0.0006047777441790142,0
CIDA business delivery model (old),Climate change adaptation (marker),0.0009071666162685213,0
CIDA business delivery model (old),Fund centre ID,0.01572422134865437,0
CIDA business delivery model (old),Gender equality (marker),0.0012095554883580285,0
CIDA business delivery model (old),Organisation name,0.1025098276383429,0
CIDA business delivery model (old),Continent ID,0.0015119443604475356,0
CIDA business delivery model (old),Division ID,0.003931055337163592,0
CIDA business delivery model (old),Untied amount(Project-level budget),0.1312367704868461,0
CIDA business delivery model (old),Organisation class,0.0018143332325370426,0
CIDA business delivery model (old),Knowledge for development (marker),0.0012095554883580285,0
CIDA business delivery model (old),Organisation type,0.0012095554883580285,0
CIDA business delivery model (old),Indigenous issues (marker),0.0012095554883580285,0
CIDA business delivery model (old),Disability issues (marker),0.0012095554883580285,0
CIDA business delivery model (old),ICT as a tool for development (marker),0.0009071666162685213,0
CIDA business delivery model (old),Project Browser country ID,0.04626549742969459,0
CIDA business delivery model (old),CountryRegion percent,0.12156032657998185,0
CIDA business delivery model (old),Sector name,0.037193831267009377,0
CIDA business delivery model (old),Sector percent,0.05594194133655882,0
CIDA business delivery model (old),Amount spent,0.6587649402390439,0
Bilateral aid (international marker),Fiscal year,0.5,0
Bilateral aid (international marker),Biodiversity (marker),0.5,0
Bilateral aid (international marker),CIDA business delivery model (old),0.6666666666666666,0
Bilateral aid (international marker),Bilateral aid (international marker),1.0,1
Bilateral aid (international marker),Branch name,0.4,0
Bilateral aid (international marker),Urban issues (marker),0.5,0
Bilateral aid (international marker),Sector ID,0.016260162601626018,0
Bilateral aid (international marker),Regional program (marker),1.0,0
Bilateral aid (international marker),Fund centre name,0.038461538461538464,0
Bilateral aid (international marker),Enviromental sustainability (marker),0.6666666666666666,0
Bilateral aid (international marker),Organisation ID,0.0058997050147492625,0
Bilateral aid (international marker),Status,0.6666666666666666,0
Bilateral aid (international marker),Maximum CIDA contribution (project-level),0.0038910505836575876,0
Bilateral aid (international marker),CountryRegion name,0.013793103448275862,0
Bilateral aid (international marker),Division name,0.15384615384615385,0
Bilateral aid (international marker),Climate change mitigation (marker),0.5,0
Bilateral aid (international marker),Desertification (marker),0.5,0
Bilateral aid (international marker),Organisation sub-class,0.08333333333333333,0
Bilateral aid (international marker),Youth issues (marker),0.5,0
Bilateral aid (international marker),Section ID,0.08,0
Bilateral aid (international marker),Branch ID,0.4,0
Bilateral aid (international marker),Trade development (marker),0.5,0
Bilateral aid (international marker),Continent name,0.4,0
Bilateral aid (international marker),CountryRegion ID,0.014084507042253521,0
Bilateral aid (international marker),CFLI (marker),1.0,0
Bilateral aid (international marker),Climate change adaptation (marker),0.6666666666666666,0
Bilateral aid (international marker),Fund centre ID,0.038461538461538464,0
Bilateral aid (international marker),Gender equality (marker),0.5,0
Bilateral aid (international marker),Organisation name,0.0058997050147492625,0
Bilateral aid (international marker),Continent ID,0.4,0
Bilateral aid (international marker),Division ID,0.15384615384615385,0
Bilateral aid (international marker),Untied amount(Project-level budget),0.004608294930875576,0
Bilateral aid (international marker),Organisation class,0.3333333333333333,0
Bilateral aid (international marker),Knowledge for development (marker),0.5,0
Bilateral aid (international marker),Organisation type,0.5,0
Bilateral aid (international marker),Indigenous issues (marker),0.5,0
Bilateral aid (international marker),Disability issues (marker),0.5,0
Bilateral aid (international marker),ICT as a tool for development (marker),0.6666666666666666,0
Bilateral aid (international marker),Project Browser country ID,0.013071895424836602,0
Bilateral aid (international marker),CountryRegion percent,0.004975124378109453,0
Bilateral aid (international marker),Sector name,0.016260162601626018,0
Bilateral aid (international marker),Sector percent,0.010810810810810811,0
Bilateral aid (international marker),Amount spent,0.00039840637450199205,0
Branch name,Fiscal year,9.676795045480937e-05,0
Branch name,Biodiversity (marker),0.0003870718018192375,0
Branch name,CIDA business delivery model (old),0.0002903038513644281,0
Branch name,Bilateral aid (international marker),0.00019353590090961874,0
Branch name,Branch name,0.00048383975227404683,1
Branch name,Urban issues (marker),0.0003870718018192375,0
Branch name,Sector ID,0.011902457905941553,0
Branch name,Regional program (marker),0.00019353590090961874,0
Branch name,Fund centre name,0.005031933423650087,0
Branch name,Enviromental sustainability (marker),0.0002903038513644281,0
Branch name,Organisation ID,0.03280433520418038,0
Branch name,Status,0.0002903038513644281,0
Branch name,Maximum CIDA contribution (project-level),0.04973872653377202,0
Branch name,CountryRegion name,0.014031352815947359,0
Branch name,Division name,0.0012579833559125217,0
Branch name,Climate change mitigation (marker),0.0003870718018192375,0
Branch name,Desertification (marker),0.0003870718018192375,0
Branch name,Organisation sub-class,0.002322430810915425,0
Branch name,Youth issues (marker),0.0003870718018192375,0
Branch name,Section ID,0.0024191987613702342,0
Branch name,Branch ID,0.00048383975227404683,0
Branch name,Trade development (marker),0.0003870718018192375,0
Branch name,Continent name,0.00048383975227404683,0
Branch name,CountryRegion ID,0.01374104896458293,0
Branch name,CFLI (marker),0.00019353590090961874,0
Branch name,Climate change adaptation (marker),0.0002903038513644281,0
Branch name,Fund centre ID,0.005031933423650087,0
Branch name,Gender equality (marker),0.0003870718018192375,0
Branch name,Organisation name,0.03280433520418038,0
Branch name,Continent ID,0.00048383975227404683,0
Branch name,Division ID,0.0012579833559125217,0
Branch name,Untied amount(Project-level budget),0.04199729049738726,0
Branch name,Organisation class,0.0005806077027288562,0
Branch name,Knowledge for development (marker),0.0003870718018192375,0
Branch name,Organisation type,0.0003870718018192375,0
Branch name,Indigenous issues (marker),0.0003870718018192375,0
Branch name,Disability issues (marker),0.0003870718018192375,0
Branch name,ICT as a tool for development (marker),0.0002903038513644281,0
Branch name,Project Browser country ID,0.014805496419585833,0
Branch name,CountryRegion percent,0.03890071608283337,0
Branch name,Sector name,0.011902457905941553,0
Branch name,Sector percent,0.017902070834139732,0
Branch name,Amount spent,0.48577511128314305,0
Urban issues (marker),Fiscal year,0.3333333333333333,0
Urban issues (marker),Biodiversity (marker),0.75,0
Urban issues (marker),CIDA business delivery model (old),1.0,0
Urban issues (marker),Bilateral aid (international marker),0.6666666666666666,0
Urban issues (marker),Branch name,0.6,0
Urban issues (marker),Urban issues (marker),0.75,1
Urban issues (marker),Sector ID,0.024390243902439025,0
Urban issues (marker),Regional program (marker),0.6666666666666666,0
Urban issues (marker),Fund centre name,0.057692307692307696,0
Urban issues (marker),Enviromental sustainability (marker),1.0,0
Urban issues (marker),Organisation ID,0.008849557522123894,0
Urban issues (marker),Status,1.0,0
Urban issues (marker),Maximum CIDA contribution (project-level),0.005836575875486381,0
Urban issues (marker),CountryRegion name,0.020689655172413793,0
Urban issues (marker),Division name,0.23076923076923078,0
Urban issues (marker),Climate change mitigation (marker),0.75,0
Urban issues (marker),Desertification (marker),0.75,0
Urban issues (marker),Organisation sub-class,0.125,0
Urban issues (marker),Youth issues (marker),0.75,0
Urban issues (marker),Section ID,0.12,0
Urban issues (marker),Branch ID,0.6,0
Urban issues (marker),Trade development (marker),0.75,0
Urban issues (marker),Continent name,0.6,0
Urban issues (marker),CountryRegion ID,0.02112676056338028,0
Urban issues (marker),CFLI (marker),0.6666666666666666,0
Urban issues (marker),Climate change adaptation (marker),1.0,0
Urban issues (marker),Fund centre ID,0.057692307692307696,0
Urban issues (marker),Gender equality (marker),0.75,0
Urban issues (marker),Organisation name,0.008849557522123894,0
Urban issues (marker),Continent ID,0.6,0
Urban issues (marker),Division ID,0.23076923076923078,0
Urban issues (marker),Untied amount(Project-level budget),0.0069124423963133645,0
Urban issues (marker),Organisation class,0.5,0
Urban issues (marker),Knowledge for development (marker),0.75,0
Urban issues (marker),Organisation type,0.75,0
Urban issues (marker),Indigenous issues (marker),0.75,0
Urban issues (marker),Disability issues (marker),0.75,0
Urban issues (marker),ICT as a tool for development (marker),1.0,0
Urban issues (marker),Project Browser country ID,0.0196078431372549,0
Urban issues (marker),CountryRegion percent,0.007462686567164179,0
Urban issues (marker),Sector name,0.024390243902439025,0
Urban issues (marker),Sector percent,0.016216216216216217,0
Urban issues (marker),Amount spent,0.000597609561752988,0
Sector ID,Fiscal year,0.00641025641025641,0
Sector ID,Biodiversity (marker),0.02564102564102564,0
Sector ID,CIDA business delivery model (old),0.019230769230769232,0
Sector ID,Bilateral aid (international marker),0.01282051282051282,0
Sector ID,Branch name,0.03205128205128205,0
Sector ID,Urban issues (marker),0.02564102564102564,0
Sector ID,Sector ID,0.7884615384615384,1
Sector ID,Regional program (marker),0.01282051282051282,0
Sector ID,Fund centre name,0.3333333333333333,0
Sector ID,Enviromental sustainability (marker),0.019230769230769232,0
Sector ID,Organisation ID,0.46017699115044247,0
Sector ID,Status,0.019230769230769232,0
Sector ID,Maximum CIDA contribution (project-level),0.3035019455252918,0
Sector ID,CountryRegion name,0.9294871794871795,0
Sector ID,Division name,0.08333333333333333,0
Sector ID,Climate change mitigation (marker),0.02564102564102564,0
Sector ID,Desertification (marker),0.02564102564102564,0
Sector ID,Organisation sub-class,0.15384615384615385,0
Sector ID,Youth issues (marker),0.02564102564102564,0
Sector ID,Section ID,0.16025641025641027,0
Sector ID,Branch ID,0.03205128205128205,0
Sector ID,Trade development (marker),0.02564102564102564,0
Sector ID,Continent name,0.03205128205128205,0
Sector ID,CountryRegion ID,0.9102564102564102,0
Sector ID,CFLI (marker),0.01282051282051282,0
Sector ID,Climate change adaptation (marker),0.019230769230769232,0
Sector ID,Fund centre ID,0.3333333333333333,0
Sector ID,Gender equality (marker),0.02564102564102564,0
Sector ID,Organisation name,0.46017699115044247,0
Sector ID,Continent ID,0.03205128205128205,0
Sector ID,Division ID,0.08333333333333333,0
Sector ID,Untied amount(Project-level budget),0.35944700460829493,0
Sector ID,Organisation class,0.038461538461538464,0
Sector ID,Knowledge for development (marker),0.02564102564102564,0
Sector ID,Organisation type,0.02564102564102564,0
Sector ID,Indigenous issues (marker),0.02564102564102564,0
Sector ID,Disability issues (marker),0.02564102564102564,0
Sector ID,ICT as a tool for development (marker),0.019230769230769232,0
Sector ID,Project Browser country ID,0.9807692307692307,0
Sector ID,CountryRegion percent,0.3880597014925373,0
Sector ID,Sector name,0.7884615384615384,0
Sector ID,Sector percent,0.8432432432432433,0
Sector ID,Amount spent,0.031075697211155377,0
Regional program (marker),Fiscal year,0.5,0
Regional program (marker),Biodiversity (marker),0.5,0
Regional program (marker),CIDA business delivery model (old),0.6666666666666666,0
Regional program (marker),Bilateral aid (international marker),1.0,0
Regional program (marker),Branch name,0.4,0
Regional program (marker),Urban issues (marker),0.5,0
Regional program (marker),Sector ID,0.016260162601626018,0
Regional program (marker),Regional program (marker),1.0,1
Regional program (marker),Fund centre name,0.038461538461538464,0
Regional program (marker),Enviromental sustainability (marker),0.6666666666666666,0
Regional program (marker),Organisation ID,0.0058997050147492625,0
Regional program (marker),Status,0.6666666666666666,0
Regional program (marker),Maximum CIDA contribution (project-level),0.0038910505836575876,0
Regional program (marker),CountryRegion name,0.013793103448275862,0
Regional program (marker),Division name,0.15384615384615385,0
Regional program (marker),Climate change mitigation (marker),0.5,0
Regional program (marker),Desertification (marker),0.5,0
Regional program (marker),Organisation sub-class,0.08333333333333333,0
Regional program (marker),Youth issues (marker),0.5,0
Regional program (marker),Section ID,0.08,0
Regional program (marker),Branch ID,0.4,0
Regional program (marker),Trade development (marker),0.5,0
Regional program (marker),Continent name,0.4,0
Regional program (marker),CountryRegion ID,0.014084507042253521,0
Regional program (marker),CFLI (marker),1.0,0
Regional program (marker),Climate change adaptation (marker),0.6666666666666666,0
Regional program (marker),Fund centre ID,0.038461538461538464,0
Regional program (marker),Gender equality (marker),0.5,0
Regional program (marker),Organisation name,0.0058997050147492625,0
Regional program (marker),Continent ID,0.4,0
Regional program (marker),Division ID,0.15384615384615385,0
Regional program (marker),Untied amount(Project-level budget),0.004608294930875576,0
Regional program (marker),Organisation class,0.3333333333333333,0
Regional program (marker),Knowledge for development (marker),0.5,0
Regional program (marker),Organisation type,0.5,0
Regional program (marker),Indigenous issues (marker),0.5,0
Regional program (marker),Disability issues (marker),0.5,0
Regional program (marker),ICT as a tool for development (marker),0.6666666666666666,0
Regional program (marker),Project Browser country ID,0.013071895424836602,0
Regional program (marker),CountryRegion percent,0.004975124378109453,0
Regional program (marker),Sector name,0.016260162601626018,0
Regional program (marker),Sector percent,0.010810810810810811,0
Regional program (marker),Amount spent,0.00039840637450199205,0
Fund centre name,Fiscal year,0.00011314777098891151,0
Fund centre name,Biodiversity (marker),0.00045259108395564606,0
Fund centre name,CIDA business delivery model (old),0.00033944331296673454,0
Fund centre name,Bilateral aid (international marker),0.00022629554197782303,0
Fund centre name,Branch name,0.0005657388549445576,0
Fund centre name,Urban issues (marker),0.00045259108395564606,0
Fund centre name,Sector ID,0.013917175831636116,0
Fund centre name,Regional program (marker),0.00022629554197782303,0
Fund centre name,Fund centre name,0.005883684091423399,1
Fund centre name,Enviromental sustainability (marker),0.00033944331296673454,0
Fund centre name,Organisation ID,0.038357094365241005,0
Fund centre name,Status,0.00033944331296673454,0
Fund centre name,Maximum CIDA contribution (project-level),0.05815795428830052,0
Fund centre name,CountryRegion name,0.01640642679339217,0
Fund centre name,Division name,0.0014709210228558498,0
Fund centre name,Climate change mitigation (marker),0.00045259108395564606,0
Fund centre name,Desertification (marker),0.00045259108395564606,0
Fund centre name,Organisation sub-class,0.0027155465037338763,0
Fund centre name,Youth issues (marker),0.00045259108395564606,0
Fund centre name,Section ID,0.002828694274722788,0
Fund centre name,Branch ID,0.0005657388549445576,0
Fund centre name,Trade development (marker),0.00045259108395564606,0
Fund centre name,Continent name,0.0005657388549445576,0
Fund centre name,CountryRegion ID,0.016066983480425436,0
Fund centre name,CFLI (marker),0.00022629554197782303,0
Fund centre name,Climate change adaptation (marker),0.00033944331296673454,0
Fund centre name,Fund centre ID,0.005883684091423399,0
Fund centre name,Gender equality (marker),0.00045259108395564606,0
Fund centre name,Organisation name,0.038357094365241005,0
Fund centre name,Continent ID,0.0005657388549445576,0
Fund centre name,Division ID,0.0014709210228558498,0
Fund centre name,Untied amount(Project-level budget),0.0491061326091876,0
Fund centre name,Organisation class,0.0006788866259334691,0
Fund centre name,Knowledge for development (marker),0.00045259108395564606,0
Fund centre name,Organisation type,0.00045259108395564606,0
Fund centre name,Indigenous issues (marker),0.00045259108395564606,0
Fund centre name,Disability issues (marker),0.00045259108395564606,0
Fund centre name,ICT as a tool for development (marker),0.00033944331296673454,0
Fund centre name,Project Browser country ID,0.017311608961303463,0
Fund centre name,CountryRegion percent,0.04548540393754243,0
Fund centre name,Sector name,0.013917175831636116,0
Fund centre name,Sector percent,0.02093233763294863,0
Fund centre name,Amount spent,0.5680018103643358,0
Enviromental sustainability (marker),Fiscal year,0.3333333333333333,0
Enviromental sustainability (marker),Biodiversity (marker),0.75,0
Enviromental sustainability (marker),CIDA business delivery model (old),1.0,0
Enviromental sustainability (marker),Bilateral aid (international marker),0.6666666666666666,0
Enviromental sustainability (marker),Branch name,0.6,0
Enviromental sustainability (marker),Urban issues (marker),0.75,0
Enviromental sustainability (marker),Sector ID,0.024390243902439025,0
Enviromental sustainability (marker),Regional program (marker),0.6666666666666666,0
Enviromental sustainability (marker),Fund centre name,0.057692307692307696,0
Enviromental sustainability (marker),Enviromental sustainability (marker),1.0,1
Enviromental sustainability (marker),Organisation ID,0.008849557522123894,0
Enviromental sustainability (marker),Status,1.0,0
Enviromental sustainability (marker),Maximum CIDA contribution (project-level),0.005836575875486381,0
Enviromental sustainability (marker),CountryRegion name,0.020689655172413793,0
Enviromental sustainability (marker),Division name,0.23076923076923078,0
Enviromental sustainability (marker),Climate change mitigation (marker),0.75,0
Enviromental sustainability (marker),Desertification (marker),0.75,0
Enviromental sustainability (marker),Organisation sub-class,0.125,0
Enviromental sustainability (marker),Youth issues (marker),0.75,0
Enviromental sustainability (marker),Section ID,0.12,0
Enviromental sustainability (marker),Branch ID,0.6,0
Enviromental sustainability (marker),Trade development (marker),0.75,0
Enviromental sustainability (marker),Continent name,0.6,0
Enviromental sustainability (marker),CountryRegion ID,0.02112676056338028,0
Enviromental sustainability (marker),CFLI (marker),0.6666666666666666,0
Enviromental sustainability (marker),Climate change adaptation (marker),1.0,0
Enviromental sustainability (marker),Fund centre ID,0.057692307692307696,0
Enviromental sustainability (marker),Gender equality (marker),0.75,0
Enviromental sustainability (marker),Organisation name,0.008849557522123894,0
Enviromental sustainability (marker),Continent ID,0.6,0
Enviromental sustainability (marker),Division ID,0.23076923076923078,0
Enviromental sustainability (marker),Untied amount(Project-level budget),0.0069124423963133645,0
Enviromental sustainability (marker),Organisation class,0.5,0
Enviromental sustainability (marker),Knowledge for development (marker),0.75,0
Enviromental sustainability (marker),Organisation type,0.75,0
Enviromental sustainability (marker),Indigenous issues (marker),0.75,0
Enviromental sustainability (marker),Disability issues (marker),0.75,0
Enviromental sustainability (marker),ICT as a tool for development (marker),1.0,0
Enviromental sustainability (marker),Project Browser country ID,0.0196078431372549,0
Enviromental sustainability (marker),CountryRegion percent,0.007462686567164179,0
Enviromental sustainability (marker),Sector name,0.024390243902439025,0
Enviromental sustainability (marker),Sector percent,0.016216216216216217,0
Enviromental sustainability (marker),Amount spent,0.000597609561752988,0
Organisation ID,Fiscal year,0.00043649061545176777,0
Organisation ID,Biodiversity (marker),0.001745962461807071,0
Organisation ID,CIDA business delivery model (old),0.0013094718463553033,0
Organisation ID,Bilateral aid (international marker),0.0008729812309035355,0
Organisation ID,Branch name,0.002182453077258839,0
Organisation ID,Urban issues (marker),0.001745962461807071,0
Organisation ID,Sector ID,0.053688345700567436,0
Organisation ID,Regional program (marker),0.0008729812309035355,0
Organisation ID,Fund centre name,0.022697512003491925,0
Organisation ID,Enviromental sustainability (marker),0.0013094718463553033,0
Organisation ID,Organisation ID,0.14797031863814927,1
Organisation ID,Status,0.0013094718463553033,0
Organisation ID,Maximum CIDA contribution (project-level),0.22435617634220864,0
Organisation ID,CountryRegion name,0.06329113924050633,0
Organisation ID,Division name,0.005674378000872981,0
Organisation ID,Climate change mitigation (marker),0.001745962461807071,0
Organisation ID,Desertification (marker),0.001745962461807071,0
Organisation ID,Organisation sub-class,0.010475774770842427,0
Organisation ID,Youth issues (marker),0.001745962461807071,0
Organisation ID,Section ID,0.010912265386294195,0
Organisation ID,Branch ID,0.002182453077258839,0
Organisation ID,Trade development (marker),0.001745962461807071,0
Organisation ID,Continent name,0.002182453077258839,0
Organisation ID,CountryRegion ID,0.06198166739415103,0
Organisation ID,CFLI (marker),0.0008729812309035355,0
Organisation ID,Climate change adaptation (marker),0.0013094718463553033,0
Organisation ID,Fund centre ID,0.022697512003491925,0
Organisation ID,Gender equality (marker),0.001745962461807071,0
Organisation ID,Organisation name,0.14797031863814927,0
Organisation ID,Continent ID,0.002182453077258839,0
Organisation ID,Division ID,0.005674378000872981,0
Organisation ID,Untied amount(Project-level budget),0.18943692710606722,0
Organisation ID,Organisation class,0.0026189436927106066,0
Organisation ID,Knowledge for development (marker),0.001745962461807071,0
Organisation ID,Organisation type,0.001745962461807071,0
Organisation ID,Indigenous issues (marker),0.001745962461807071,0
Organisation ID,Disability issues (marker),0.001745962461807071,0
Organisation ID,ICT as a tool for development (marker),0.0013094718463553033,0
Organisation ID,Project Browser country ID,0.06678306416412047,0
Organisation ID,CountryRegion percent,0.17546922741161064,0
Organisation ID,Sector name,0.053688345700567436,0
Organisation ID,Sector percent,0.08075076385857705,0
Organisation ID,Amount spent,0.4563745019920319,0
Status,Fiscal year,0.0004091653027823241,0
Status,Biodiversity (marker),0.0016366612111292963,0
Status,CIDA business delivery model (old),0.0012274959083469722,0
Status,Bilateral aid (international marker),0.0008183306055646482,0
Status,Branch name,0.0020458265139116204,0
Status,Urban issues (marker),0.0016366612111292963,0
Status,Sector ID,0.05032733224222586,0
Status,Regional program (marker),0.0008183306055646482,0
Status,Fund centre name,0.02127659574468085,0
Status,Enviromental sustainability (marker),0.0012274959083469722,0
Status,Organisation ID,0.13870703764320785,0
Status,Status,0.0012274959083469722,1
Status,Maximum CIDA contribution (project-level),0.21031096563011456,0
Status,CountryRegion name,0.05932896890343699,0
Status,Division name,0.005319148936170213,0
Status,Climate change mitigation (marker),0.0016366612111292963,0
Status,Desertification (marker),0.0016366612111292963,0
Status,Organisation sub-class,0.009819967266775777,0
Status,Youth issues (marker),0.0016366612111292963,0
Status,Section ID,0.010229132569558102,0
Status,Branch ID,0.0020458265139116204,0
Status,Trade development (marker),0.0016366612111292963,0
Status,Continent name,0.0020458265139116204,0
Status,CountryRegion ID,0.05810147299509002,0
Status,CFLI (marker),0.0008183306055646482,0
Status,Climate change adaptation (marker),0.0012274959083469722,0
Status,Fund centre ID,0.02127659574468085,0
Status,Gender equality (marker),0.0016366612111292963,0
Status,Organisation name,0.13870703764320785,0
Status,Continent ID,0.0020458265139116204,0
Status,Division ID,0.005319148936170213,0
Status,Untied amount(Project-level budget),0.17757774140752863,0
Status,Organisation class,0.0024549918166939444,0
Status,Knowledge for development (marker),0.0016366612111292963,0
Status,Organisation type,0.0016366612111292963,0
Status,Indigenous issues (marker),0.0016366612111292963,0
Status,Disability issues (marker),0.0016366612111292963,0
Status,ICT as a tool for development (marker),0.0012274959083469722,0
Status,Project Browser country ID,0.06260229132569559,0
Status,CountryRegion percent,0.16448445171849427,0
Status,Sector name,0.05032733224222586,0
Status,Sector percent,0.07569558101472995,0
Status,Amount spent,0.48685258964143424,0
Maximum CIDA contribution (project-level),Fiscal year,8.600670852326481e-05,0
Maximum CIDA contribution (project-level),Biodiversity (marker),0.00034402683409305926,0
Maximum CIDA contribution (project-level),CIDA business delivery model (old),0.00025802012556979444,0
Maximum CIDA contribution (project-level),Bilateral aid (international marker),0.00017201341704652963,0
Maximum CIDA contribution (project-level),Branch name,0.0004300335426163241,0
Maximum CIDA contribution (project-level),Urban issues (marker),0.00034402683409305926,0
Maximum CIDA contribution (project-level),Sector ID,0.010578825148361573,0
Maximum CIDA contribution (project-level),Regional program (marker),0.00017201341704652963,0
Maximum CIDA contribution (project-level),Fund centre name,0.00447234884320977,0
Maximum CIDA contribution (project-level),Enviromental sustainability (marker),0.00025802012556979444,0
Maximum CIDA contribution (project-level),Organisation ID,0.029156274189386773,0
Maximum CIDA contribution (project-level),Status,0.00025802012556979444,0
Maximum CIDA contribution (project-level),Maximum CIDA contribution (project-level),0.04420744818095811,1
Maximum CIDA contribution (project-level),CountryRegion name,0.012470972735873399,0
Maximum CIDA contribution (project-level),Division name,0.0011180872108024426,0
Maximum CIDA contribution (project-level),Climate change mitigation (marker),0.00034402683409305926,0
Maximum CIDA contribution (project-level),Desertification (marker),0.00034402683409305926,0
Maximum CIDA contribution (project-level),Organisation sub-class,0.0020641610045583555,0
Maximum CIDA contribution (project-level),Youth issues (marker),0.00034402683409305926,0
Maximum CIDA contribution (project-level),Section ID,0.0021501677130816204,0
Maximum CIDA contribution (project-level),Branch ID,0.0004300335426163241,0
Maximum CIDA contribution (project-level),Trade development (marker),0.00034402683409305926,0
Maximum CIDA contribution (project-level),Continent name,0.0004300335426163241,0
Maximum CIDA contribution (project-level),CountryRegion ID,0.012212952610303604,0
Maximum CIDA contribution (project-level),CFLI (marker),0.00017201341704652963,0
Maximum CIDA contribution (project-level),Climate change adaptation (marker),0.00025802012556979444,0
Maximum CIDA contribution (project-level),Fund centre ID,0.00447234884320977,0
Maximum CIDA contribution (project-level),Gender equality (marker),0.00034402683409305926,0
Maximum CIDA contribution (project-level),Organisation name,0.029156274189386773,0
Maximum CIDA contribution (project-level),Continent ID,0.0004300335426163241,0
Maximum CIDA contribution (project-level),Division ID,0.0011180872108024426,0
Maximum CIDA contribution (project-level),Untied amount(Project-level budget),0.03732691149909693,0
Maximum CIDA contribution (project-level),Organisation class,0.0005160402511395889,0
Maximum CIDA contribution (project-level),Knowledge for development (marker),0.00034402683409305926,0
Maximum CIDA contribution (project-level),Organisation type,0.00034402683409305926,0
Maximum CIDA contribution (project-level),Indigenous issues (marker),0.00034402683409305926,0
Maximum CIDA contribution (project-level),Disability issues (marker),0.00034402683409305926,0
Maximum CIDA contribution (project-level),ICT as a tool for development (marker),0.00025802012556979444,0
Maximum CIDA contribution (project-level),Project Browser country ID,0.013159026404059517,0
Maximum CIDA contribution (project-level),CountryRegion percent,0.034574696826352454,0
Maximum CIDA contribution (project-level),Sector name,0.010578825148361573,0
Maximum CIDA contribution (project-level),Sector percent,0.01591124107680399,0
Maximum CIDA contribution (project-level),Amount spent,0.4317536767867894,0
CountryRegion name,Fiscal year,0.00016417665407978985,0
CountryRegion name,Biodiversity (marker),0.0006567066163191594,0
CountryRegion name,CIDA business delivery model (old),0.0004925299622393696,0
CountryRegion name,Bilateral aid (international marker),0.0003283533081595797,0
CountryRegion name,Branch name,0.0008208832703989492,0
CountryRegion name,Urban issues (marker),0.0006567066163191594,0
CountryRegion name,Sector ID,0.020193728451814153,0
CountryRegion name,Regional program (marker),0.0003283533081595797,0
CountryRegion name,Fund centre name,0.008537186012149072,0
CountryRegion name,Enviromental sustainability (marker),0.0004925299622393696,0
CountryRegion name,Organisation ID,0.05565588573304876,0
CountryRegion name,Status,0.0004925299622393696,0
CountryRegion name,Maximum CIDA contribution (project-level),0.08438680019701199,0
CountryRegion name,CountryRegion name,0.02380561484156953,1
CountryRegion name,Division name,0.002134296503037268,0
CountryRegion name,Climate change mitigation (marker),0.0006567066163191594,0
CountryRegion name,Desertification (marker),0.0006567066163191594,0
CountryRegion name,Organisation sub-class,0.003940239697914957,0
CountryRegion name,Youth issues (marker),0.0006567066163191594,0
CountryRegion name,Section ID,0.004104416351994746,0
CountryRegion name,Branch ID,0.0008208832703989492,0
CountryRegion name,Trade development (marker),0.0006567066163191594,0
CountryRegion name,Continent name,0.0008208832703989492,0
CountryRegion name,CountryRegion ID,0.02331308487933016,0
CountryRegion name,CFLI (marker),0.0003283533081595797,0
CountryRegion name,Climate change adaptation (marker),0.0004925299622393696,0
CountryRegion name,Fund centre ID,0.008537186012149072,0
CountryRegion name,Gender equality (marker),0.0006567066163191594,0
CountryRegion name,Organisation name,0.05565588573304876,0
CountryRegion name,Continent ID,0.0008208832703989492,0
CountryRegion name,Division ID,0.002134296503037268,0
CountryRegion name,Untied amount(Project-level budget),0.0712526678706288,0
CountryRegion name,Organisation class,0.0009850599244787392,0
CountryRegion name,Knowledge for development (marker),0.0006567066163191594,0
CountryRegion name,Organisation type,0.0006567066163191594,0
CountryRegion name,Indigenous issues (marker),0.0006567066163191594,0
CountryRegion name,Disability issues (marker),0.0006567066163191594,0
CountryRegion name,ICT as a tool for development (marker),0.0004925299622393696,0
CountryRegion name,Project Browser country ID,0.025119028074207846,0
CountryRegion name,CountryRegion percent,0.06599901494007553,0
CountryRegion name,Sector name,0.020193728451814153,0
CountryRegion name,Sector percent,0.030372681004761124,0
CountryRegion name,Amount spent,0.824166803480545,0
Division name,Fiscal year,8.605851979345956e-05,0
Division name,Biodiversity (marker),0.00034423407917383823,0
Division name,CIDA business delivery model (old),0.00025817555938037863,0
Division name,Bilateral aid (international marker),0.00017211703958691912,0
Division name,Branch name,0.0004302925989672978,0
Division name,Urban issues (marker),0.00034423407917383823,0
Division name,Sector ID,0.010585197934595525,0
Division name,Regional program (marker),0.00017211703958691912,0
Division name,Fund centre name,0.004475043029259896,0
Division name,Enviromental sustainability (marker),0.00025817555938037863,0
Division name,Organisation ID,0.02917383820998279,0
Division name,Status,0.00025817555938037863,0
Division name,Maximum CIDA contribution (project-level),0.04423407917383821,0
Division name,CountryRegion name,0.012478485370051634,0
Division name,Division name,0.001118760757314974,1
Division name,Climate change mitigation (marker),0.00034423407917383823,0
Division name,Desertification (marker),0.00034423407917383823,0
Division name,Organisation sub-class,0.002065404475043029,0
Division name,Youth issues (marker),0.00034423407917383823,0
Division name,Section ID,0.0021514629948364886,0
Division name,Branch ID,0.0004302925989672978,0
Division name,Trade development (marker),0.00034423407917383823,0
Division name,Continent name,0.0004302925989672978,0
Division name,CountryRegion ID,0.012220309810671256,0
Division name,CFLI (marker),0.00017211703958691912,0
Division name,Climate change adaptation (marker),0.00025817555938037863,0
Division name,Fund centre ID,0.004475043029259896,0
Division name,Gender equality (marker),0.00034423407917383823,0
Division name,Organisation name,0.02917383820998279,0
Division name,Continent ID,0.0004302925989672978,0
Division name,Division ID,0.001118760757314974,0
Division name,Untied amount(Project-level budget),0.03734939759036145,0
Division name,Organisation class,0.0005163511187607573,0
Division name,Knowledge for development (marker),0.00034423407917383823,0
Division name,Organisation type,0.00034423407917383823,0
Division name,Indigenous issues (marker),0.00034423407917383823,0
Division name,Disability issues (marker),0.00034423407917383823,0
Division name,ICT as a tool for development (marker),0.00025817555938037863,0
Division name,Project Browser country ID,0.01316695352839931,0
Division name,CountryRegion percent,0.03459552495697074,0
Division name,Sector name,0.010585197934595525,0
Division name,Sector percent,0.015920826161790018,0
Division name,Amount spent,0.43201376936316693,0
Climate change mitigation (marker),Fiscal year,0.25,0
Climate change mitigation (marker),Biodiversity (marker),1.0,0
Climate change mitigation (marker),CIDA business delivery model (old),0.75,0
Climate change mitigation (marker),Bilateral aid (international marker),0.5,0
Climate change mitigation (marker),Branch name,0.8,0
Climate change mitigation (marker),Urban issues (marker),1.0,0
Climate change mitigation (marker),Sector ID,0.032520325203252036,0
Climate change mitigation (marker),Regional program (marker),0.5,0
Climate change mitigation (marker),Fund centre name,0.07692307692307693,0
Climate change mitigation (marker),Enviromental sustainability (marker),0.75,0
Climate change mitigation (marker),Organisation ID,0.011799410029498525,0
Climate change mitigation (marker),Status,0.75,0
Climate change mitigation (marker),Maximum CIDA contribution (project-level),0.007782101167315175,0
Climate change mitigation (marker),CountryRegion name,0.027586206896551724,0
Climate change mitigation (marker),Division name,0.3076923076923077,0
Climate change mitigation (marker),Climate change mitigation (marker),1.0,1
Climate change mitigation (marker),Desertification (marker),1.0,0
Climate change mitigation (marker),Organisation sub-class,0.16666666666666666,0
Climate change mitigation (marker),Youth issues (marker),1.0,0
Climate change mitigation (marker),Section ID,0.16,0
Climate change mitigation (marker),Branch ID,0.8,0
Climate change mitigation (marker),Trade development (marker),1.0,0
Climate change mitigation (marker),Continent name,0.8,0
Climate change mitigation (marker),CountryRegion ID,0.028169014084507043,0
Climate change mitigation (marker),CFLI (marker),0.5,0
Climate change mitigation (marker),Climate change adaptation (marker),0.75,0
Climate change mitigation (marker),Fund centre ID,0.07692307692307693,0
Climate change mitigation (marker),Gender equality (marker),1.0,0
Climate change mitigation (marker),Organisation name,0.011799410029498525,0
Climate change mitigation (marker),Continent ID,0.8,0
Climate change mitigation (marker),Division ID,0.3076923076923077,0
Climate change mitigation (marker),Untied amount(Project-level budget),0.009216589861751152,0
Climate change mitigation (marker),Organisation class,0.6666666666666666,0
Climate change mitigation (marker),Knowledge for development (marker),1.0,0
Climate change mitigation (marker),Organisation type,1.0,0
Climate change mitigation (marker),Indigenous issues (marker),1.0,0
Climate change mitigation (marker),Disability issues (marker),1.0,0
Climate change mitigation (marker),ICT as a tool for development (marker),0.75,0
Climate change mitigation (marker),Project Browser country ID,0.026143790849673203,0
Climate change mitigation (marker),CountryRegion percent,0.009950248756218905,0
Climate change mitigation (marker),Sector name,0.032520325203252036,0
Climate change mitigation (marker),Sector percent,0.021621621621621623,0
Climate change mitigation (marker),Amount spent,0.0007968127490039841,0
Desertification (marker),Fiscal year,0.25,0
Desertification (marker),Biodiversity (marker),1.0,0
Desertification (marker),CIDA business delivery model (old),0.75,0
Desertification (marker),Bilateral aid (international marker),0.5,0
Desertification (marker),Branch name,0.8,0
Desertification (marker),Urban issues (marker),1.0,0
Desertification (marker),Sector ID,0.032520325203252036,0
Desertification (marker),Regional program (marker),0.5,0
Desertification (marker),Fund centre name,0.07692307692307693,0
Desertification (marker),Enviromental sustainability (marker),0.75,0
Desertification (marker),Organisation ID,0.011799410029498525,0
Desertification (marker),Status,0.75,0
Desertification (marker),Maximum CIDA contribution (project-level),0.007782101167315175,0
Desertification (marker),CountryRegion name,0.027586206896551724,0
Desertification (marker),Division name,0.3076923076923077,0
Desertification (marker),Climate change mitigation (marker),1.0,0
Desertification (marker),Desertification (marker),1.0,1
Desertification (marker),Organisation sub-class,0.16666666666666666,0
Desertification (marker),Youth issues (marker),1.0,0
Desertification (marker),Section ID,0.16,0
Desertification (marker),Branch ID,0.8,0
Desertification (marker),Trade development (marker),1.0,0
Desertification (marker),Continent name,0.8,0
Desertification (marker),CountryRegion ID,0.028169014084507043,0
Desertification (marker),CFLI (marker),0.5,0
Desertification (marker),Climate change adaptation (marker),0.75,0
Desertification (marker),Fund centre ID,0.07692307692307693,0
Desertification (marker),Gender equality (marker),1.0,0
Desertification (marker),Organisation name,0.011799410029498525,0
Desertification (marker),Continent ID,0.8,0
Desertification (marker),Division ID,0.3076923076923077,0
Desertification (marker),Untied amount(Project-level budget),0.009216589861751152,0
Desertification (marker),Organisation class,0.6666666666666666,0
Desertification (marker),Knowledge for development (marker),1.0,0
Desertification (marker),Organisation type,1.0,0
Desertification (marker),Indigenous issues (marker),1.0,0
Desertification (marker),Disability issues (marker),1.0,0
Desertification (marker),ICT as a tool for development (marker),0.75,0
Desertification (marker),Project Browser country ID,0.026143790849673203,0
Desertification (marker),CountryRegion percent,0.009950248756218905,0
Desertification (marker),Sector name,0.032520325203252036,0
Desertification (marker),Sector percent,0.021621621621621623,0
Desertification (marker),Amount spent,0.0007968127490039841,0
Organisation sub-class,Fiscal year,0.0001590077913817777,0
Organisation sub-class,Biodiversity (marker),0.0006360311655271108,0
Organisation sub-class,CIDA business delivery model (old),0.0004770233741453331,0
Organisation sub-class,Bilateral aid (international marker),0.0003180155827635554,0
Organisation sub-class,Branch name,0.0007950389569088886,0
Organisation sub-class,Urban issues (marker),0.0006360311655271108,0
Organisation sub-class,Sector ID,0.01955795833995866,0
Organisation sub-class,Regional program (marker),0.0003180155827635554,0
Organisation sub-class,Fund centre name,0.008268405151852442,0
Organisation sub-class,Enviromental sustainability (marker),0.0004770233741453331,0
Organisation sub-class,Organisation ID,0.05390364127842264,0
Organisation sub-class,Status,0.0004770233741453331,0
Organisation sub-class,Maximum CIDA contribution (project-level),0.08173000477023375,0
Organisation sub-class,CountryRegion name,0.023056129750357767,0
Organisation sub-class,Division name,0.0020671012879631104,0
Organisation sub-class,Climate change mitigation (marker),0.0006360311655271108,0
Organisation sub-class,Desertification (marker),0.0006360311655271108,0
Organisation sub-class,Organisation sub-class,0.003816186993162665,1
Organisation sub-class,Youth issues (marker),0.0006360311655271108,0
Organisation sub-class,Section ID,0.003975194784544443,0
Organisation sub-class,Branch ID,0.0007950389569088886,0
Organisation sub-class,Trade development (marker),0.0006360311655271108,0
Organisation sub-class,Continent name,0.0007950389569088886,0
Organisation sub-class,CountryRegion ID,0.022579106376212434,0
Organisation sub-class,CFLI (marker),0.0003180155827635554,0
Organisation sub-class,Climate change adaptation (marker),0.0004770233741453331,0
Organisation sub-class,Fund centre ID,0.008268405151852442,0
Organisation sub-class,Gender equality (marker),0.0006360311655271108,0
Organisation sub-class,Organisation name,0.05390364127842264,0
Organisation sub-class,Continent ID,0.0007950389569088886,0
Organisation sub-class,Division ID,0.0020671012879631104,0
Organisation sub-class,Untied amount(Project-level budget),0.06900938145969153,0
Organisation sub-class,Organisation class,0.0009540467482906663,0
Organisation sub-class,Knowledge for development (marker),0.0006360311655271108,0
Organisation sub-class,Organisation type,0.0006360311655271108,0
Organisation sub-class,Indigenous issues (marker),0.0006360311655271108,0
Organisation sub-class,Disability issues (marker),0.0006360311655271108,0
Organisation sub-class,ICT as a tool for development (marker),0.0004770233741453331,0
Organisation sub-class,Project Browser country ID,0.02432819208141199,0
Organisation sub-class,CountryRegion percent,0.06392113213547464,0
Organisation sub-class,Sector name,0.01955795833995866,0
Organisation sub-class,Sector percent,0.029416441405628876,0
Organisation sub-class,Amount spent,0.7982191127365241,0
Youth issues (marker),Fiscal year,0.25,0
Youth issues (marker),Biodiversity (marker),1.0,0
Youth issues (marker),CIDA business delivery model (old),0.75,0
Youth issues (marker),Bilateral aid (international marker),0.5,0
Youth issues (marker),Branch name,0.8,0
Youth issues (marker),Urban issues (marker),1.0,0
Youth issues (marker),Sector ID,0.032520325203252036,0
Youth issues (marker),Regional program (marker),0.5,0
Youth issues (marker),Fund centre name,0.07692307692307693,0
Youth issues (marker),Enviromental sustainability (marker),0.75,0
Youth issues (marker),Organisation ID,0.011799410029498525,0
Youth issues (marker),Status,0.75,0
Youth issues (marker),Maximum CIDA contribution (project-level),0.007782101167315175,0
Youth issues (marker),CountryRegion name,0.027586206896551724,0
Youth issues (marker),Division name,0.3076923076923077,0
Youth issues (marker),Climate change mitigation (marker),1.0,0
Youth issues (marker),Desertification (marker),1.0,0
Youth issues (marker),Organisation sub-class,0.16666666666666666,0
Youth issues (marker),Youth issues (marker),1.0,1
Youth issues (marker),Section ID,0.16,0
Youth issues (marker),Branch ID,0.8,0
Youth issues (marker),Trade development (marker),1.0,0
Youth issues (marker),Continent name,0.8,0
Youth issues (marker),CountryRegion ID,0.028169014084507043,0
Youth issues (marker),CFLI (marker),0.5,0
Youth issues (marker),Climate change adaptation (marker),0.75,0
Youth issues (marker),Fund centre ID,0.07692307692307693,0
Youth issues (marker),Gender equality (marker),1.0,0
Youth issues (marker),Organisation name,0.011799410029498525,0
Youth issues (marker),Continent ID,0.8,0
Youth issues (marker),Division ID,0.3076923076923077,0
Youth issues (marker),Untied amount(Project-level budget),0.009216589861751152,0
Youth issues (marker),Organisation class,0.6666666666666666,0
Youth issues (marker),Knowledge for development (marker),1.0,0
Youth issues (marker),Organisation type,1.0,0
Youth issues (marker),Indigenous issues (marker),1.0,0
Youth issues (marker),Disability issues (marker),1.0,0
Youth issues (marker),ICT as a tool for development (marker),0.75,0
Youth issues (marker),Project Browser country ID,0.026143790849673203,0
Youth issues (marker),CountryRegion percent,0.009950248756218905,0
Youth issues (marker),Sector name,0.032520325203252036,0
Youth issues (marker),Sector percent,0.021621621621621623,0
Youth issues (marker),Amount spent,0.0007968127490039841,0
Section ID,Fiscal year,0.000945179584120983,0
Section ID,Biodiversity (marker),0.003780718336483932,0
Section ID,CIDA business delivery model (old),0.002835538752362949,0
Section ID,Bilateral aid (international marker),0.001890359168241966,0
Section ID,Branch name,0.004725897920604915,0
Section ID,Urban issues (marker),0.003780718336483932,0
Section ID,Sector ID,0.11625708884688091,0
Section ID,Regional program (marker),0.001890359168241966,0
Section ID,Fund centre name,0.04914933837429111,0
Section ID,Enviromental sustainability (marker),0.002835538752362949,0
Section ID,Organisation ID,0.32041587901701324,0
Section ID,Status,0.002835538752362949,0
Section ID,Maximum CIDA contribution (project-level),0.48582230623818523,0
Section ID,CountryRegion name,0.13705103969754254,0
Section ID,Division name,0.012287334593572778,0
Section ID,Climate change mitigation (marker),0.003780718336483932,0
Section ID,Desertification (marker),0.003780718336483932,0
Section ID,Organisation sub-class,0.022684310018903593,0
Section ID,Youth issues (marker),0.003780718336483932,0
Section ID,Section ID,0.023629489603024575,1
Section ID,Branch ID,0.004725897920604915,0
Section ID,Trade development (marker),0.003780718336483932,0
Section ID,Continent name,0.004725897920604915,0
Section ID,CountryRegion ID,0.1342155009451796,0
Section ID,CFLI (marker),0.001890359168241966,0
Section ID,Climate change adaptation (marker),0.002835538752362949,0
Section ID,Fund centre ID,0.04914933837429111,0
Section ID,Gender equality (marker),0.003780718336483932,0
Section ID,Organisation name,0.32041587901701324,0
Section ID,Continent ID,0.004725897920604915,0
Section ID,Division ID,0.012287334593572778,0
Section ID,Untied amount(Project-level budget),0.4102079395085066,0
Section ID,Organisation class,0.005671077504725898,0
Section ID,Knowledge for development (marker),0.003780718336483932,0
Section ID,Organisation type,0.003780718336483932,0
Section ID,Indigenous issues (marker),0.003780718336483932,0
Section ID,Disability issues (marker),0.003780718336483932,0
Section ID,ICT as a tool for development (marker),0.002835538752362949,0
Section ID,Project Browser country ID,0.1446124763705104,0
Section ID,CountryRegion percent,0.3799621928166352,0
Section ID,Sector name,0.11625708884688091,0
Section ID,Sector percent,0.17485822306238186,0
Section ID,Amount spent,0.21075697211155378,0
Branch ID,Fiscal year,0.008849557522123894,0
Branch ID,Biodiversity (marker),0.035398230088495575,0
Branch ID,CIDA business delivery model (old),0.02654867256637168,0
Branch ID,Bilateral aid (international marker),0.017699115044247787,0
Branch ID,Branch name,0.04424778761061947,0
Branch ID,Urban issues (marker),0.035398230088495575,0
Branch ID,Sector ID,0.9186991869918699,0
Branch ID,Regional program (marker),0.017699115044247787,0
Branch ID,Fund centre name,0.46017699115044247,0
Branch ID,Enviromental sustainability (marker),0.02654867256637168,0
Branch ID,Organisation ID,0.3333333333333333,0
Branch ID,Status,0.02654867256637168,0
Branch ID,Maximum CIDA contribution (project-level),0.2198443579766537,0
Branch ID,CountryRegion name,0.7793103448275862,0
Branch ID,Division name,0.11504424778761062,0
Branch ID,Climate change mitigation (marker),0.035398230088495575,0
Branch ID,Desertification (marker),0.035398230088495575,0
Branch ID,Organisation sub-class,0.21238938053097345,0
Branch ID,Youth issues (marker),0.035398230088495575,0
Branch ID,Section ID,0.22123893805309736,0
Branch ID,Branch ID,0.04424778761061947,1
Branch ID,Trade development (marker),0.035398230088495575,0
Branch ID,Continent name,0.04424778761061947,0
Branch ID,CountryRegion ID,0.795774647887324,0
Branch ID,CFLI (marker),0.017699115044247787,0
Branch ID,Climate change adaptation (marker),0.02654867256637168,0
Branch ID,Fund centre ID,0.46017699115044247,0
Branch ID,Gender equality (marker),0.035398230088495575,0
Branch ID,Organisation name,0.3333333333333333,0
Branch ID,Continent ID,0.04424778761061947,0
Branch ID,Division ID,0.11504424778761062,0
Branch ID,Untied amount(Project-level budget),0.26036866359447003,0
Branch ID,Organisation class,0.05309734513274336,0
Branch ID,Knowledge for development (marker),0.035398230088495575,0
Branch ID,Organisation type,0.035398230088495575,0
Branch ID,Indigenous issues (marker),0.035398230088495575,0
Branch ID,Disability issues (marker),0.035398230088495575,0
Branch ID,ICT as a tool for development (marker),0.02654867256637168,0
Branch ID,Project Browser country ID,0.738562091503268,0
Branch ID,CountryRegion percent,0.2810945273631841,0
Branch ID,Sector name,0.9186991869918699,0
Branch ID,Sector percent,0.6108108108108108,0
Branch ID,Amount spent,0.02250996015936255,0
Trade development (marker),Fiscal year,0.25,0
Trade development (marker),Biodiversity (marker),1.0,0
Trade development (marker),CIDA business delivery model (old),0.75,0
Trade development (marker),Bilateral aid (international marker),0.5,0
Trade development (marker),Branch name,0.8,0
Trade development (marker),Urban issues (marker),1.0,0
Trade development (marker),Sector ID,0.032520325203252036,0
Trade development (marker),Regional program (marker),0.5,0
Trade development (marker),Fund centre name,0.07692307692307693,0
Trade development (marker),Enviromental sustainability (marker),0.75,0
Trade development (marker),Organisation ID,0.011799410029498525,0
Trade development (marker),Status,0.75,0
Trade development (marker),Maximum CIDA contribution (project-level),0.007782101167315175,0
Trade development (marker),CountryRegion name,0.027586206896551724,0
Trade development (marker),Division name,0.3076923076923077,0
Trade development (marker),Climate change mitigation (marker),1.0,0
Trade development (marker),Desertification (marker),1.0,0
Trade development (marker),Organisation sub-class,0.16666666666666666,0
Trade development (marker),Youth issues (marker),1.0,0
Trade development (marker),Section ID,0.16,0
Trade development (marker),Branch ID,0.8,0
Trade development (marker),Trade development (marker),1.0,1
Trade development (marker),Continent name,0.8,0
Trade development (marker),CountryRegion ID,0.028169014084507043,0
Trade development (marker),CFLI (marker),0.5,0
Trade development (marker),Climate change adaptation (marker),0.75,0
Trade development (marker),Fund centre ID,0.07692307692307693,0
Trade development (marker),Gender equality (marker),1.0,0
Trade development (marker),Organisation name,0.011799410029498525,0
Trade development (marker),Continent ID,0.8,0
Trade development (marker),Division ID,0.3076923076923077,0
Trade development (marker),Untied amount(Project-level budget),0.009216589861751152,0
Trade development (marker),Organisation class,0.6666666666666666,0
Trade development (marker),Knowledge for development (marker),1.0,0
Trade development (marker),Organisation type,1.0,0
Trade development (marker),Indigenous issues (marker),1.0,0
Trade development (marker),Disability issues (marker),1.0,0
Trade development (marker),ICT as a tool for development (marker),0.75,0
Trade development (marker),Project Browser country ID,0.026143790849673203,0
Trade development (marker),CountryRegion percent,0.009950248756218905,0
Trade development (marker),Sector name,0.032520325203252036,0
Trade development (marker),Sector percent,0.021621621621621623,0
Trade development (marker),Amount spent,0.0007968127490039841,0
Continent name,Fiscal year,0.006060606060606061,0
Continent name,Biodiversity (marker),0.024242424242424242,0
Continent name,CIDA business delivery model (old),0.01818181818181818,0
Continent name,Bilateral aid (international marker),0.012121212121212121,0
Continent name,Branch name,0.030303030303030304,0
Continent name,Urban issues (marker),0.024242424242424242,0
Continent name,Sector ID,0.7454545454545455,0
Continent name,Regional program (marker),0.012121212121212121,0
Continent name,Fund centre name,0.3151515151515151,0
Continent name,Enviromental sustainability (marker),0.01818181818181818,0
