source,target,conf,realConf
Fiscal year,Fiscal year,0.03333333333333333,1
Fiscal year,Trade development (marker),0.13333333333333333,0
Fiscal year,Bilateral aid (international marker),0.06666666666666667,0
Fiscal year,Organisation sub-class,0.8,0
Fiscal year,Section ID,0.8333333333333334,0
Fiscal year,Regional program (marker),0.06666666666666667,0
Fiscal year,Children issues (marker),0.13333333333333333,0
Fiscal year,ICT as a tool for development (marker),0.1,0
Fiscal year,Biodiversity (marker),0.13333333333333333,0
Fiscal year,CountryRegion name,0.20689655172413793,0
Fiscal year,Amount spent,0.00597609561752988,0
Fiscal year,Indigenous issues (marker),0.13333333333333333,0
Fiscal year,CountryRegion percent,0.07462686567164178,0
Fiscal year,Organisation type,0.13333333333333333,0
Fiscal year,Status,0.1,0
Fiscal year,FSTC percent,0.6122448979591837,0
Fiscal year,Urban issues (marker),0.13333333333333333,0
Fiscal year,Continent ID,0.16666666666666666,0
Fiscal year,Enviromental sustainability (marker),0.1,0
Fiscal year,Branch ID,0.16666666666666666,0
Fiscal year,CIDA business delivery model (old),0.1,0
Fiscal year,Programming process (new),0.03333333333333333,0
Fiscal year,Youth issues (marker),0.13333333333333333,0
Fiscal year,Desertification (marker),0.13333333333333333,0
Fiscal year,IRTC percent,0.1,0
Fiscal year,Participatory development and good governance,0.13333333333333333,0
Fiscal year,Disability issues (marker),0.13333333333333333,0
Fiscal year,Knowledge for development (marker),0.13333333333333333,0
Fiscal year,Gender equality (marker),0.13333333333333333,0
Fiscal year,Organisation ID,0.08849557522123894,0
Fiscal year,Organisation name,0.08849557522123894,0
Fiscal year,Organisation class,0.2,0
Fiscal year,Continent name,0.16666666666666666,0
Fiscal year,Project Browser country ID,0.19607843137254902,0
Fiscal year,CountryRegion ID,0.2112676056338028,0
Fiscal year,Sector ID,0.24390243902439024,0
Fiscal year,Sector name,0.24390243902439024,0
Fiscal year,Sector percent,0.16216216216216217,0
Trade development (marker),Fiscal year,0.25,0
Trade development (marker),Trade development (marker),1.0,1
Trade development (marker),Bilateral aid (international marker),0.5,0
Trade development (marker),Organisation sub-class,0.16666666666666666,0
Trade development (marker),Section ID,0.16,0
Trade development (marker),Regional program (marker),0.5,0
Trade development (marker),Children issues (marker),1.0,0
Trade development (marker),ICT as a tool for development (marker),0.75,0
Trade development (marker),Biodiversity (marker),1.0,0
Trade development (marker),CountryRegion name,0.027586206896551724,0
Trade development (marker),Amount spent,0.0007968127490039841,0
Trade development (marker),Indigenous issues (marker),1.0,0
Trade development (marker),CountryRegion percent,0.009950248756218905,0
Trade development (marker),Organisation type,1.0,0
Trade development (marker),Status,0.75,0
Trade development (marker),FSTC percent,0.08163265306122448,0
Trade development (marker),Urban issues (marker),1.0,0
Trade development (marker),Continent ID,0.8,0
Trade development (marker),Enviromental sustainability (marker),0.75,0
Trade development (marker),Branch ID,0.8,0
Trade development (marker),CIDA business delivery model (old),0.75,0
Trade development (marker),Programming process (new),0.25,0
Trade development (marker),Youth issues (marker),1.0,0
Trade development (marker),Desertification (marker),1.0,0
Trade development (marker),IRTC percent,0.75,0
Trade development (marker),Participatory development and good governance,1.0,0
Trade development (marker),Disability issues (marker),1.0,0
Trade development (marker),Knowledge for development (marker),1.0,0
Trade development (marker),Gender equality (marker),1.0,0
Trade development (marker),Organisation ID,0.011799410029498525,0
Trade development (marker),Organisation name,0.011799410029498525,0
Trade development (marker),Organisation class,0.6666666666666666,0
Trade development (marker),Continent name,0.8,0
Trade development (marker),Project Browser country ID,0.026143790849673203,0
Trade development (marker),CountryRegion ID,0.028169014084507043,0
Trade development (marker),Sector ID,0.032520325203252036,0
Trade development (marker),Sector name,0.032520325203252036,0
Trade development (marker),Sector percent,0.021621621621621623,0
Bilateral aid (international marker),Fiscal year,0.5,0
Bilateral aid (international marker),Trade development (marker),0.5,0
Bilateral aid (international marker),Bilateral aid (international marker),1.0,1
Bilateral aid (international marker),Organisation sub-class,0.08333333333333333,0
Bilateral aid (international marker),Section ID,0.08,0
Bilateral aid (international marker),Regional program (marker),1.0,0
Bilateral aid (international marker),Children issues (marker),0.5,0
Bilateral aid (international marker),ICT as a tool for development (marker),0.6666666666666666,0
Bilateral aid (international marker),Biodiversity (marker),0.5,0
Bilateral aid (international marker),CountryRegion name,0.013793103448275862,0
Bilateral aid (international marker),Amount spent,0.00039840637450199205,0
Bilateral aid (international marker),Indigenous issues (marker),0.5,0
Bilateral aid (international marker),CountryRegion percent,0.004975124378109453,0
Bilateral aid (international marker),Organisation type,0.5,0
Bilateral aid (international marker),Status,0.6666666666666666,0
Bilateral aid (international marker),FSTC percent,0.04081632653061224,0
Bilateral aid (international marker),Urban issues (marker),0.5,0
Bilateral aid (international marker),Continent ID,0.4,0
Bilateral aid (international marker),Enviromental sustainability (marker),0.6666666666666666,0
Bilateral aid (international marker),Branch ID,0.4,0
Bilateral aid (international marker),CIDA business delivery model (old),0.6666666666666666,0
Bilateral aid (international marker),Programming process (new),0.5,0
Bilateral aid (international marker),Youth issues (marker),0.5,0
Bilateral aid (international marker),Desertification (marker),0.5,0
Bilateral aid (international marker),IRTC percent,0.6666666666666666,0
Bilateral aid (international marker),Participatory development and good governance,0.5,0
Bilateral aid (international marker),Disability issues (marker),0.5,0
Bilateral aid (international marker),Knowledge for development (marker),0.5,0
Bilateral aid (international marker),Gender equality (marker),0.5,0
Bilateral aid (international marker),Organisation ID,0.0058997050147492625,0
Bilateral aid (international marker),Organisation name,0.0058997050147492625,0
Bilateral aid (international marker),Organisation class,0.3333333333333333,0
Bilateral aid (international marker),Continent name,0.4,0
Bilateral aid (international marker),Project Browser country ID,0.013071895424836602,0
Bilateral aid (international marker),CountryRegion ID,0.014084507042253521,0
Bilateral aid (international marker),Sector ID,0.016260162601626018,0
Bilateral aid (international marker),Sector name,0.016260162601626018,0
Bilateral aid (international marker),Sector percent,0.010810810810810811,0
Organisation sub-class,Fiscal year,0.00015888147442008263,0
Organisation sub-class,Trade development (marker),0.0006355258976803305,0
Organisation sub-class,Bilateral aid (international marker),0.00031776294884016526,0
Organisation sub-class,Organisation sub-class,0.0038131553860819827,1
Organisation sub-class,Section ID,0.003972036860502065,0
Organisation sub-class,Regional program (marker),0.00031776294884016526,0
Organisation sub-class,Children issues (marker),0.0006355258976803305,0
Organisation sub-class,ICT as a tool for development (marker),0.00047664442326024784,0
Organisation sub-class,Biodiversity (marker),0.0006355258976803305,0
Organisation sub-class,CountryRegion name,0.02303781379091198,0
Organisation sub-class,Amount spent,0.7975850015888147,0
Organisation sub-class,Indigenous issues (marker),0.0006355258976803305,0
Organisation sub-class,CountryRegion percent,0.06387035271687322,0
Organisation sub-class,Organisation type,0.0006355258976803305,0
Organisation sub-class,Status,0.00047664442326024784,0
Organisation sub-class,FSTC percent,0.007785192246584048,0
Organisation sub-class,Urban issues (marker),0.0006355258976803305,0
Organisation sub-class,Continent ID,0.0007944073721004131,0
Organisation sub-class,Enviromental sustainability (marker),0.00047664442326024784,0
Organisation sub-class,Branch ID,0.0007944073721004131,0
Organisation sub-class,CIDA business delivery model (old),0.00047664442326024784,0
Organisation sub-class,Programming process (new),0.00015888147442008263,0
Organisation sub-class,Youth issues (marker),0.0006355258976803305,0
Organisation sub-class,Desertification (marker),0.0006355258976803305,0
Organisation sub-class,IRTC percent,0.00047664442326024784,0
Organisation sub-class,Participatory development and good governance,0.0006355258976803305,0
Organisation sub-class,Disability issues (marker),0.0006355258976803305,0
Organisation sub-class,Knowledge for development (marker),0.0006355258976803305,0
Organisation sub-class,Gender equality (marker),0.0006355258976803305,0
Organisation sub-class,Organisation ID,0.053860819828408006,0
Organisation sub-class,Organisation name,0.053860819828408006,0
Organisation sub-class,Organisation class,0.0009532888465204957,0
Organisation sub-class,Continent name,0.0007944073721004131,0
Organisation sub-class,Project Browser country ID,0.02430886558627264,0
Organisation sub-class,CountryRegion ID,0.02256116936765173,0
Organisation sub-class,Sector ID,0.019542421353670163,0
Organisation sub-class,Sector name,0.019542421353670163,0
Organisation sub-class,Sector percent,0.029393072767715283,0
Section ID,Fiscal year,0.0009337068160597573,0
Section ID,Trade development (marker),0.003734827264239029,0
Section ID,Bilateral aid (international marker),0.0018674136321195146,0
Section ID,Organisation sub-class,0.022408963585434174,0
Section ID,Section ID,0.02334267040149393,1
Section ID,Regional program (marker),0.0018674136321195146,0
Section ID,Children issues (marker),0.003734827264239029,0
Section ID,ICT as a tool for development (marker),0.0028011204481792717,0
Section ID,Biodiversity (marker),0.003734827264239029,0
Section ID,CountryRegion name,0.1353874883286648,0
Section ID,Amount spent,0.21334661354581674,0
Section ID,Indigenous issues (marker),0.003734827264239029,0
Section ID,CountryRegion percent,0.3753501400560224,0
Section ID,Organisation type,0.003734827264239029,0
Section ID,Status,0.0028011204481792717,0
Section ID,FSTC percent,0.0457516339869281,0
Section ID,Urban issues (marker),0.003734827264239029,0
Section ID,Continent ID,0.004668534080298786,0
Section ID,Enviromental sustainability (marker),0.0028011204481792717,0
Section ID,Branch ID,0.004668534080298786,0
Section ID,CIDA business delivery model (old),0.0028011204481792717,0
Section ID,Programming process (new),0.0009337068160597573,0
Section ID,Youth issues (marker),0.003734827264239029,0
Section ID,Desertification (marker),0.003734827264239029,0
Section ID,IRTC percent,0.0028011204481792717,0
Section ID,Participatory development and good governance,0.003734827264239029,0
Section ID,Disability issues (marker),0.003734827264239029,0
Section ID,Knowledge for development (marker),0.003734827264239029,0
Section ID,Gender equality (marker),0.003734827264239029,0
Section ID,Organisation ID,0.3165266106442577,0
Section ID,Organisation name,0.3165266106442577,0
Section ID,Organisation class,0.0056022408963585435,0
Section ID,Continent name,0.004668534080298786,0
Section ID,Project Browser country ID,0.14285714285714285,0
Section ID,CountryRegion ID,0.13258636788048553,0
Section ID,Sector ID,0.11484593837535013,0
Section ID,Sector name,0.11484593837535013,0
Section ID,Sector percent,0.17273576097105509,0
Regional program (marker),Fiscal year,0.5,0
Regional program (marker),Trade development (marker),0.5,0
Regional program (marker),Bilateral aid (international marker),1.0,0
Regional program (marker),Organisation sub-class,0.08333333333333333,0
Regional program (marker),Section ID,0.08,0
Regional program (marker),Regional program (marker),1.0,1
Regional program (marker),Children issues (marker),0.5,0
Regional program (marker),ICT as a tool for development (marker),0.6666666666666666,0
Regional program (marker),Biodiversity (marker),0.5,0
Regional program (marker),CountryRegion name,0.013793103448275862,0
Regional program (marker),Amount spent,0.00039840637450199205,0
Regional program (marker),Indigenous issues (marker),0.5,0
Regional program (marker),CountryRegion percent,0.004975124378109453,0
Regional program (marker),Organisation type,0.5,0
Regional program (marker),Status,0.6666666666666666,0
Regional program (marker),FSTC percent,0.04081632653061224,0
Regional program (marker),Urban issues (marker),0.5,0
Regional program (marker),Continent ID,0.4,0
Regional program (marker),Enviromental sustainability (marker),0.6666666666666666,0
Regional program (marker),Branch ID,0.4,0
Regional program (marker),CIDA business delivery model (old),0.6666666666666666,0
Regional program (marker),Programming process (new),0.5,0
Regional program (marker),Youth issues (marker),0.5,0
Regional program (marker),Desertification (marker),0.5,0
Regional program (marker),IRTC percent,0.6666666666666666,0
Regional program (marker),Participatory development and good governance,0.5,0
Regional program (marker),Disability issues (marker),0.5,0
Regional program (marker),Knowledge for development (marker),0.5,0
Regional program (marker),Gender equality (marker),0.5,0
Regional program (marker),Organisation ID,0.0058997050147492625,0
Regional program (marker),Organisation name,0.0058997050147492625,0
Regional program (marker),Organisation class,0.3333333333333333,0
Regional program (marker),Continent name,0.4,0
Regional program (marker),Project Browser country ID,0.013071895424836602,0
Regional program (marker),CountryRegion ID,0.014084507042253521,0
Regional program (marker),Sector ID,0.016260162601626018,0
Regional program (marker),Sector name,0.016260162601626018,0
Regional program (marker),Sector percent,0.010810810810810811,0
Children issues (marker),Fiscal year,0.25,0
Children issues (marker),Trade development (marker),1.0,0
Children issues (marker),Bilateral aid (international marker),0.5,0
Children issues (marker),Organisation sub-class,0.16666666666666666,0
Children issues (marker),Section ID,0.16,0
Children issues (marker),Regional program (marker),0.5,0
Children issues (marker),Children issues (marker),1.0,1
Children issues (marker),ICT as a tool for development (marker),0.75,0
Children issues (marker),Biodiversity (marker),1.0,0
Children issues (marker),CountryRegion name,0.027586206896551724,0
Children issues (marker),Amount spent,0.0007968127490039841,0
Children issues (marker),Indigenous issues (marker),1.0,0
Children issues (marker),CountryRegion percent,0.009950248756218905,0
Children issues (marker),Organisation type,1.0,0
Children issues (marker),Status,0.75,0
Children issues (marker),FSTC percent,0.08163265306122448,0
Children issues (marker),Urban issues (marker),1.0,0
Children issues (marker),Continent ID,0.8,0
Children issues (marker),Enviromental sustainability (marker),0.75,0
Children issues (marker),Branch ID,0.8,0
Children issues (marker),CIDA business delivery model (old),0.75,0
Children issues (marker),Programming process (new),0.25,0
Children issues (marker),Youth issues (marker),1.0,0
Children issues (marker),Desertification (marker),1.0,0
Children issues (marker),IRTC percent,0.75,0
Children issues (marker),Participatory development and good governance,1.0,0
Children issues (marker),Disability issues (marker),1.0,0
Children issues (marker),Knowledge for development (marker),1.0,0
Children issues (marker),Gender equality (marker),1.0,0
Children issues (marker),Organisation ID,0.011799410029498525,0
Children issues (marker),Organisation name,0.011799410029498525,0
Children issues (marker),Organisation class,0.6666666666666666,0
Children issues (marker),Continent name,0.8,0
Children issues (marker),Project Browser country ID,0.026143790849673203,0
Children issues (marker),CountryRegion ID,0.028169014084507043,0
Children issues (marker),Sector ID,0.032520325203252036,0
Children issues (marker),Sector name,0.032520325203252036,0
Children issues (marker),Sector percent,0.021621621621621623,0
ICT as a tool for development (marker),Fiscal year,0.25,0
ICT as a tool for development (marker),Trade development (marker),1.0,0
ICT as a tool for development (marker),Bilateral aid (international marker),0.5,0
ICT as a tool for development (marker),Organisation sub-class,0.16666666666666666,0
ICT as a tool for development (marker),Section ID,0.16,0
ICT as a tool for development (marker),Regional program (marker),0.5,0
ICT as a tool for development (marker),Children issues (marker),1.0,0
ICT as a tool for development (marker),ICT as a tool for development (marker),0.75,1
ICT as a tool for development (marker),Biodiversity (marker),1.0,0
ICT as a tool for development (marker),CountryRegion name,0.027586206896551724,0
ICT as a tool for development (marker),Amount spent,0.0007968127490039841,0
ICT as a tool for development (marker),Indigenous issues (marker),1.0,0
ICT as a tool for development (marker),CountryRegion percent,0.009950248756218905,0
ICT as a tool for development (marker),Organisation type,1.0,0
ICT as a tool for development (marker),Status,0.75,0
ICT as a tool for development (marker),FSTC percent,0.08163265306122448,0
ICT as a tool for development (marker),Urban issues (marker),1.0,0
ICT as a tool for development (marker),Continent ID,0.8,0
ICT as a tool for development (marker),Enviromental sustainability (marker),0.75,0
ICT as a tool for development (marker),Branch ID,0.8,0
ICT as a tool for development (marker),CIDA business delivery model (old),0.75,0
ICT as a tool for development (marker),Programming process (new),0.25,0
ICT as a tool for development (marker),Youth issues (marker),1.0,0
ICT as a tool for development (marker),Desertification (marker),1.0,0
ICT as a tool for development (marker),IRTC percent,0.75,0
ICT as a tool for development (marker),Participatory development and good governance,1.0,0
ICT as a tool for development (marker),Disability issues (marker),1.0,0
ICT as a tool for development (marker),Knowledge for development (marker),1.0,0
ICT as a tool for development (marker),Gender equality (marker),1.0,0
ICT as a tool for development (marker),Organisation ID,0.011799410029498525,0
ICT as a tool for development (marker),Organisation name,0.011799410029498525,0
ICT as a tool for development (marker),Organisation class,0.6666666666666666,0
ICT as a tool for development (marker),Continent name,0.8,0
ICT as a tool for development (marker),Project Browser country ID,0.026143790849673203,0
ICT as a tool for development (marker),CountryRegion ID,0.028169014084507043,0
ICT as a tool for development (marker),Sector ID,0.032520325203252036,0
ICT as a tool for development (marker),Sector name,0.032520325203252036,0
ICT as a tool for development (marker),Sector percent,0.021621621621621623,0
Biodiversity (marker),Fiscal year,0.25,0
Biodiversity (marker),Trade development (marker),1.0,0
Biodiversity (marker),Bilateral aid (international marker),0.5,0
Biodiversity (marker),Organisation sub-class,0.16666666666666666,0
Biodiversity (marker),Section ID,0.16,0
Biodiversity (marker),Regional program (marker),0.5,0
Biodiversity (marker),Children issues (marker),1.0,0
Biodiversity (marker),ICT as a tool for development (marker),0.75,0
Biodiversity (marker),Biodiversity (marker),1.0,1
Biodiversity (marker),CountryRegion name,0.027586206896551724,0
Biodiversity (marker),Amount spent,0.0007968127490039841,0
Biodiversity (marker),Indigenous issues (marker),1.0,0
Biodiversity (marker),CountryRegion percent,0.009950248756218905,0
Biodiversity (marker),Organisation type,1.0,0
Biodiversity (marker),Status,0.75,0
Biodiversity (marker),FSTC percent,0.08163265306122448,0
Biodiversity (marker),Urban issues (marker),1.0,0
Biodiversity (marker),Continent ID,0.8,0
Biodiversity (marker),Enviromental sustainability (marker),0.75,0
Biodiversity (marker),Branch ID,0.8,0
Biodiversity (marker),CIDA business delivery model (old),0.75,0
Biodiversity (marker),Programming process (new),0.25,0
Biodiversity (marker),Youth issues (marker),1.0,0
Biodiversity (marker),Desertification (marker),1.0,0
Biodiversity (marker),IRTC percent,0.75,0
Biodiversity (marker),Participatory development and good governance,1.0,0
Biodiversity (marker),Disability issues (marker),1.0,0
Biodiversity (marker),Knowledge for development (marker),1.0,0
Biodiversity (marker),Gender equality (marker),1.0,0
Biodiversity (marker),Organisation ID,0.011799410029498525,0
Biodiversity (marker),Organisation name,0.011799410029498525,0
Biodiversity (marker),Organisation class,0.6666666666666666,0
Biodiversity (marker),Continent name,0.8,0
Biodiversity (marker),Project Browser country ID,0.026143790849673203,0
Biodiversity (marker),CountryRegion ID,0.028169014084507043,0
Biodiversity (marker),Sector ID,0.032520325203252036,0
Biodiversity (marker),Sector name,0.032520325203252036,0
Biodiversity (marker),Sector percent,0.021621621621621623,0
CountryRegion name,Fiscal year,0.000164446637066272,0
CountryRegion name,Trade development (marker),0.000657786548265088,0
CountryRegion name,Bilateral aid (international marker),0.000328893274132544,0
CountryRegion name,Organisation sub-class,0.003946719289590528,0
CountryRegion name,Section ID,0.0041111659266568,0
CountryRegion name,Regional program (marker),0.000328893274132544,0
CountryRegion name,Children issues (marker),0.000657786548265088,0
CountryRegion name,ICT as a tool for development (marker),0.000493339911198816,0
CountryRegion name,Biodiversity (marker),0.000657786548265088,0
CountryRegion name,CountryRegion name,0.02384476237460944,1
CountryRegion name,Amount spent,0.8255221180726854,0
CountryRegion name,Indigenous issues (marker),0.000657786548265088,0
CountryRegion name,CountryRegion percent,0.06610754810064134,0
CountryRegion name,Organisation type,0.000657786548265088,0
CountryRegion name,Status,0.000493339911198816,0
CountryRegion name,FSTC percent,0.008057885216247328,0
CountryRegion name,Urban issues (marker),0.000657786548265088,0
CountryRegion name,Continent ID,0.00082223318533136,0
CountryRegion name,Enviromental sustainability (marker),0.000493339911198816,0
CountryRegion name,Branch ID,0.00082223318533136,0
CountryRegion name,CIDA business delivery model (old),0.000493339911198816,0
CountryRegion name,Programming process (new),0.000164446637066272,0
CountryRegion name,Youth issues (marker),0.000657786548265088,0
CountryRegion name,Desertification (marker),0.000657786548265088,0
CountryRegion name,IRTC percent,0.000493339911198816,0
CountryRegion name,Participatory development and good governance,0.000657786548265088,0
CountryRegion name,Disability issues (marker),0.000657786548265088,0
CountryRegion name,Knowledge for development (marker),0.000657786548265088,0
CountryRegion name,Gender equality (marker),0.000657786548265088,0
CountryRegion name,Organisation ID,0.055747409965466205,0
CountryRegion name,Organisation name,0.055747409965466205,0
CountryRegion name,Organisation class,0.000986679822397632,0
CountryRegion name,Continent name,0.00082223318533136,0
CountryRegion name,Project Browser country ID,0.025160335471139616,0
CountryRegion name,CountryRegion ID,0.023351422463410623,0
CountryRegion name,Sector ID,0.020226936359151456,0
CountryRegion name,Sector name,0.020226936359151456,0
CountryRegion name,Sector percent,0.03042262785726032,0
Amount spent,Fiscal year,8.600670852326481e-05,0
Amount spent,Trade development (marker),0.00034402683409305926,0
Amount spent,Bilateral aid (international marker),0.00017201341704652963,0
Amount spent,Organisation sub-class,0.0020641610045583555,0
Amount spent,Section ID,0.0021501677130816204,0
Amount spent,Regional program (marker),0.00017201341704652963,0
Amount spent,Children issues (marker),0.00034402683409305926,0
Amount spent,ICT as a tool for development (marker),0.00025802012556979444,0
Amount spent,Biodiversity (marker),0.00034402683409305926,0
Amount spent,CountryRegion name,0.012470972735873399,0
Amount spent,Amount spent,0.4317536767867894,1
Amount spent,Indigenous issues (marker),0.00034402683409305926,0
Amount spent,CountryRegion percent,0.034574696826352454,0
Amount spent,Organisation type,0.00034402683409305926,0
Amount spent,Status,0.00025802012556979444,0
Amount spent,FSTC percent,0.004214328717639976,0
Amount spent,Urban issues (marker),0.00034402683409305926,0
Amount spent,Continent ID,0.0004300335426163241,0
Amount spent,Enviromental sustainability (marker),0.00025802012556979444,0
Amount spent,Branch ID,0.0004300335426163241,0
Amount spent,CIDA business delivery model (old),0.00025802012556979444,0
Amount spent,Programming process (new),8.600670852326481e-05,0
Amount spent,Youth issues (marker),0.00034402683409305926,0
Amount spent,Desertification (marker),0.00034402683409305926,0
Amount spent,IRTC percent,0.00025802012556979444,0
Amount spent,Participatory development and good governance,0.00034402683409305926,0
Amount spent,Disability issues (marker),0.00034402683409305926,0
Amount spent,Knowledge for development (marker),0.00034402683409305926,0
Amount spent,Gender equality (marker),0.00034402683409305926,0
Amount spent,Organisation ID,0.029156274189386773,0
Amount spent,Organisation name,0.029156274189386773,0
Amount spent,Organisation class,0.0005160402511395889,0
Amount spent,Continent name,0.0004300335426163241,0
Amount spent,Project Browser country ID,0.013159026404059517,0
Amount spent,CountryRegion ID,0.012212952610303604,0
Amount spent,Sector ID,0.010578825148361573,0
Amount spent,Sector name,0.010578825148361573,0
Amount spent,Sector percent,0.01591124107680399,0
Indigenous issues (marker),Fiscal year,0.25,0
Indigenous issues (marker),Trade development (marker),1.0,0
Indigenous issues (marker),Bilateral aid (international marker),0.5,0
Indigenous issues (marker),Organisation sub-class,0.16666666666666666,0
Indigenous issues (marker),Section ID,0.16,0
Indigenous issues (marker),Regional program (marker),0.5,0
Indigenous issues (marker),Children issues (marker),1.0,0
Indigenous issues (marker),ICT as a tool for development (marker),0.75,0
Indigenous issues (marker),Biodiversity (marker),1.0,0
Indigenous issues (marker),CountryRegion name,0.027586206896551724,0
Indigenous issues (marker),Amount spent,0.0007968127490039841,0
Indigenous issues (marker),Indigenous issues (marker),1.0,1
Indigenous issues (marker),CountryRegion percent,0.009950248756218905,0
Indigenous issues (marker),Organisation type,1.0,0
Indigenous issues (marker),Status,0.75,0
Indigenous issues (marker),FSTC percent,0.08163265306122448,0
Indigenous issues (marker),Urban issues (marker),1.0,0
Indigenous issues (marker),Continent ID,0.8,0
Indigenous issues (marker),Enviromental sustainability (marker),0.75,0
Indigenous issues (marker),Branch ID,0.8,0
Indigenous issues (marker),CIDA business delivery model (old),0.75,0
Indigenous issues (marker),Programming process (new),0.25,0
Indigenous issues (marker),Youth issues (marker),1.0,0
Indigenous issues (marker),Desertification (marker),1.0,0
Indigenous issues (marker),IRTC percent,0.75,0
Indigenous issues (marker),Participatory development and good governance,1.0,0
Indigenous issues (marker),Disability issues (marker),1.0,0
Indigenous issues (marker),Knowledge for development (marker),1.0,0
Indigenous issues (marker),Gender equality (marker),1.0,0
Indigenous issues (marker),Organisation ID,0.011799410029498525,0
Indigenous issues (marker),Organisation name,0.011799410029498525,0
Indigenous issues (marker),Organisation class,0.6666666666666666,0
Indigenous issues (marker),Continent name,0.8,0
Indigenous issues (marker),Project Browser country ID,0.026143790849673203,0
Indigenous issues (marker),CountryRegion ID,0.028169014084507043,0
Indigenous issues (marker),Sector ID,0.032520325203252036,0
Indigenous issues (marker),Sector name,0.032520325203252036,0
Indigenous issues (marker),Sector percent,0.021621621621621623,0
CountryRegion percent,Fiscal year,8.600670852326481e-05,0
CountryRegion percent,Trade development (marker),0.00034402683409305926,0
CountryRegion percent,Bilateral aid (international marker),0.00017201341704652963,0
CountryRegion percent,Organisation sub-class,0.0020641610045583555,0
CountryRegion percent,Section ID,0.0021501677130816204,0
CountryRegion percent,Regional program (marker),0.00017201341704652963,0
CountryRegion percent,Children issues (marker),0.00034402683409305926,0
CountryRegion percent,ICT as a tool for development (marker),0.00025802012556979444,0
CountryRegion percent,Biodiversity (marker),0.00034402683409305926,0
CountryRegion percent,CountryRegion name,0.012470972735873399,0
CountryRegion percent,Amount spent,0.4317536767867894,0
CountryRegion percent,Indigenous issues (marker),0.00034402683409305926,0
CountryRegion percent,CountryRegion percent,0.034574696826352454,1
CountryRegion percent,Organisation type,0.00034402683409305926,0
CountryRegion percent,Status,0.00025802012556979444,0
CountryRegion percent,FSTC percent,0.004214328717639976,0
CountryRegion percent,Urban issues (marker),0.00034402683409305926,0
CountryRegion percent,Continent ID,0.0004300335426163241,0
CountryRegion percent,Enviromental sustainability (marker),0.00025802012556979444,0
CountryRegion percent,Branch ID,0.0004300335426163241,0
CountryRegion percent,CIDA business delivery model (old),0.00025802012556979444,0
CountryRegion percent,Programming process (new),8.600670852326481e-05,0
CountryRegion percent,Youth issues (marker),0.00034402683409305926,0
CountryRegion percent,Desertification (marker),0.00034402683409305926,0
CountryRegion percent,IRTC percent,0.00025802012556979444,0
CountryRegion percent,Participatory development and good governance,0.00034402683409305926,0
CountryRegion percent,Disability issues (marker),0.00034402683409305926,0
CountryRegion percent,Knowledge for development (marker),0.00034402683409305926,0
CountryRegion percent,Gender equality (marker),0.00034402683409305926,0
CountryRegion percent,Organisation ID,0.029156274189386773,0
CountryRegion percent,Organisation name,0.029156274189386773,0
CountryRegion percent,Organisation class,0.0005160402511395889,0
CountryRegion percent,Continent name,0.0004300335426163241,0
CountryRegion percent,Project Browser country ID,0.013159026404059517,0
CountryRegion percent,CountryRegion ID,0.012212952610303604,0
CountryRegion percent,Sector ID,0.010578825148361573,0
CountryRegion percent,Sector name,0.010578825148361573,0
CountryRegion percent,Sector percent,0.01591124107680399,0
Organisation type,Fiscal year,8.751969193068441e-05,0
Organisation type,Trade development (marker),0.00035007876772273763,0
Organisation type,Bilateral aid (international marker),0.00017503938386136881,0
Organisation type,Organisation sub-class,0.002100472606336426,0
Organisation type,Section ID,0.00218799229826711,0
Organisation type,Regional program (marker),0.00017503938386136881,0
Organisation type,Children issues (marker),0.00035007876772273763,0
Organisation type,ICT as a tool for development (marker),0.00026255907579205323,0
Organisation type,Biodiversity (marker),0.00035007876772273763,0
Organisation type,CountryRegion name,0.012690355329949238,0
Organisation type,Amount spent,0.43934885349203573,0
Organisation type,Indigenous issues (marker),0.00035007876772273763,0
Organisation type,CountryRegion percent,0.03518291615613513,0
Organisation type,Organisation type,0.00035007876772273763,1
Organisation type,Status,0.00026255907579205323,0
Organisation type,FSTC percent,0.004288464904603536,0
Organisation type,Urban issues (marker),0.00035007876772273763,0
Organisation type,Continent ID,0.000437598459653422,0
Organisation type,Enviromental sustainability (marker),0.00026255907579205323,0
Organisation type,Branch ID,0.000437598459653422,0
Organisation type,CIDA business delivery model (old),0.00026255907579205323,0
Organisation type,Programming process (new),8.751969193068441e-05,0
Organisation type,Youth issues (marker),0.00035007876772273763,0
Organisation type,Desertification (marker),0.00035007876772273763,0
Organisation type,IRTC percent,0.00026255907579205323,0
Organisation type,Participatory development and good governance,0.00035007876772273763,0
Organisation type,Disability issues (marker),0.00035007876772273763,0
Organisation type,Knowledge for development (marker),0.00035007876772273763,0
Organisation type,Gender equality (marker),0.00035007876772273763,0
Organisation type,Organisation ID,0.029669175564502014,0
Organisation type,Organisation name,0.029669175564502014,0
Organisation type,Organisation class,0.0005251181515841065,0
Organisation type,Continent name,0.000437598459653422,0
Organisation type,Project Browser country ID,0.013390512865394714,0
Organisation type,CountryRegion ID,0.012427796254157185,0
Organisation type,Sector ID,0.010764922107474182,0
Organisation type,Sector name,0.010764922107474182,0
Organisation type,Sector percent,0.016191143007176615,0
Status,Fiscal year,0.0004098360655737705,0
Status,Trade development (marker),0.001639344262295082,0
Status,Bilateral aid (international marker),0.000819672131147541,0
Status,Organisation sub-class,0.009836065573770493,0
Status,Section ID,0.010245901639344262,0
Status,Regional program (marker),0.000819672131147541,0
Status,Children issues (marker),0.001639344262295082,0
Status,ICT as a tool for development (marker),0.0012295081967213116,0
Status,Biodiversity (marker),0.001639344262295082,0
Status,CountryRegion name,0.05942622950819672,0
Status,Amount spent,0.4860557768924303,0
Status,Indigenous issues (marker),0.001639344262295082,0
Status,CountryRegion percent,0.16475409836065574,0
Status,Organisation type,0.001639344262295082,0
Status,Status,0.0012295081967213116,1
Status,FSTC percent,0.020081967213114754,0
Status,Urban issues (marker),0.001639344262295082,0
Status,Continent ID,0.0020491803278688526,0
Status,Enviromental sustainability (marker),0.0012295081967213116,0
Status,Branch ID,0.0020491803278688526,0
Status,CIDA business delivery model (old),0.0012295081967213116,0
Status,Programming process (new),0.0004098360655737705,0
Status,Youth issues (marker),0.001639344262295082,0
Status,Desertification (marker),0.001639344262295082,0
Status,IRTC percent,0.0012295081967213116,0
Status,Participatory development and good governance,0.001639344262295082,0
Status,Disability issues (marker),0.001639344262295082,0
Status,Knowledge for development (marker),0.001639344262295082,0
Status,Gender equality (marker),0.001639344262295082,0
Status,Organisation ID,0.1389344262295082,0
Status,Organisation name,0.1389344262295082,0
Status,Organisation class,0.002459016393442623,0
Status,Continent name,0.0020491803278688526,0
Status,Project Browser country ID,0.06270491803278688,0
Status,CountryRegion ID,0.05819672131147541,0
Status,Sector ID,0.05040983606557377,0
Status,Sector name,0.05040983606557377,0
Status,Sector percent,0.07581967213114754,0
FSTC percent,Fiscal year,8.600670852326481e-05,0
FSTC percent,Trade development (marker),0.00034402683409305926,0
FSTC percent,Bilateral aid (international marker),0.00017201341704652963,0
FSTC percent,Organisation sub-class,0.0020641610045583555,0
FSTC percent,Section ID,0.0021501677130816204,0
FSTC percent,Regional program (marker),0.00017201341704652963,0
FSTC percent,Children issues (marker),0.00034402683409305926,0
FSTC percent,ICT as a tool for development (marker),0.00025802012556979444,0
FSTC percent,Biodiversity (marker),0.00034402683409305926,0
FSTC percent,CountryRegion name,0.012470972735873399,0
FSTC percent,Amount spent,0.4317536767867894,0
FSTC percent,Indigenous issues (marker),0.00034402683409305926,0
FSTC percent,CountryRegion percent,0.034574696826352454,0
FSTC percent,Organisation type,0.00034402683409305926,0
FSTC percent,Status,0.00025802012556979444,0
FSTC percent,FSTC percent,0.004214328717639976,1
FSTC percent,Urban issues (marker),0.00034402683409305926,0
FSTC percent,Continent ID,0.0004300335426163241,0
FSTC percent,Enviromental sustainability (marker),0.00025802012556979444,0
FSTC percent,Branch ID,0.0004300335426163241,0
FSTC percent,CIDA business delivery model (old),0.00025802012556979444,0
FSTC percent,Programming process (new),8.600670852326481e-05,0
FSTC percent,Youth issues (marker),0.00034402683409305926,0
FSTC percent,Desertification (marker),0.00034402683409305926,0
FSTC percent,IRTC percent,0.00025802012556979444,0
FSTC percent,Participatory development and good governance,0.00034402683409305926,0
FSTC percent,Disability issues (marker),0.00034402683409305926,0
FSTC percent,Knowledge for development (marker),0.00034402683409305926,0
FSTC percent,Gender equality (marker),0.00034402683409305926,0
FSTC percent,Organisation ID,0.029156274189386773,0
FSTC percent,Organisation name,0.029156274189386773,0
FSTC percent,Organisation class,0.0005160402511395889,0
FSTC percent,Continent name,0.0004300335426163241,0
FSTC percent,Project Browser country ID,0.013159026404059517,0
FSTC percent,CountryRegion ID,0.012212952610303604,0
FSTC percent,Sector ID,0.010578825148361573,0
FSTC percent,Sector name,0.010578825148361573,0
FSTC percent,Sector percent,0.01591124107680399,0
Urban issues (marker),Fiscal year,0.3333333333333333,0
Urban issues (marker),Trade development (marker),0.75,0
Urban issues (marker),Bilateral aid (international marker),0.6666666666666666,0
Urban issues (marker),Organisation sub-class,0.125,0
Urban issues (marker),Section ID,0.12,0
Urban issues (marker),Regional program (marker),0.6666666666666666,0
Urban issues (marker),Children issues (marker),0.75,0
Urban issues (marker),ICT as a tool for development (marker),1.0,0
Urban issues (marker),Biodiversity (marker),0.75,0
Urban issues (marker),CountryRegion name,0.020689655172413793,0
Urban issues (marker),Amount spent,0.000597609561752988,0
Urban issues (marker),Indigenous issues (marker),0.75,0
Urban issues (marker),CountryRegion percent,0.007462686567164179,0
Urban issues (marker),Organisation type,0.75,0
Urban issues (marker),Status,1.0,0
Urban issues (marker),FSTC percent,0.061224489795918366,0
Urban issues (marker),Urban issues (marker),0.75,1
Urban issues (marker),Continent ID,0.6,0
Urban issues (marker),Enviromental sustainability (marker),1.0,0
Urban issues (marker),Branch ID,0.6,0
Urban issues (marker),CIDA business delivery model (old),1.0,0
Urban issues (marker),Programming process (new),0.3333333333333333,0
Urban issues (marker),Youth issues (marker),0.75,0
Urban issues (marker),Desertification (marker),0.75,0
Urban issues (marker),IRTC percent,1.0,0
Urban issues (marker),Participatory development and good governance,0.75,0
Urban issues (marker),Disability issues (marker),0.75,0
Urban issues (marker),Knowledge for development (marker),0.75,0
Urban issues (marker),Gender equality (marker),0.75,0
Urban issues (marker),Organisation ID,0.008849557522123894,0
Urban issues (marker),Organisation name,0.008849557522123894,0
Urban issues (marker),Organisation class,0.5,0
Urban issues (marker),Continent name,0.6,0
Urban issues (marker),Project Browser country ID,0.0196078431372549,0
Urban issues (marker),CountryRegion ID,0.02112676056338028,0
Urban issues (marker),Sector ID,0.024390243902439025,0
Urban issues (marker),Sector name,0.024390243902439025,0
Urban issues (marker),Sector percent,0.016216216216216217,0
Continent ID,Fiscal year,0.2,0
Continent ID,Trade development (marker),0.8,0
Continent ID,Bilateral aid (international marker),0.4,0
Continent ID,Organisation sub-class,0.20833333333333334,0
Continent ID,Section ID,0.2,0
Continent ID,Regional program (marker),0.4,0
Continent ID,Children issues (marker),0.8,0
Continent ID,ICT as a tool for development (marker),0.6,0
Continent ID,Biodiversity (marker),0.8,0
Continent ID,CountryRegion name,0.034482758620689655,0
Continent ID,Amount spent,0.00099601593625498,0
Continent ID,Indigenous issues (marker),0.8,0
Continent ID,CountryRegion percent,0.012437810945273632,0
Continent ID,Organisation type,0.8,0
Continent ID,Status,0.6,0
Continent ID,FSTC percent,0.10204081632653061,0
Continent ID,Urban issues (marker),0.8,0
Continent ID,Continent ID,1.0,1
Continent ID,Enviromental sustainability (marker),0.6,0
Continent ID,Branch ID,1.0,0
Continent ID,CIDA business delivery model (old),0.6,0
Continent ID,Programming process (new),0.2,0
Continent ID,Youth issues (marker),0.8,0
Continent ID,Desertification (marker),0.8,0
Continent ID,IRTC percent,0.6,0
Continent ID,Participatory development and good governance,0.8,0
Continent ID,Disability issues (marker),0.8,0
Continent ID,Knowledge for development (marker),0.8,0
Continent ID,Gender equality (marker),0.8,0
Continent ID,Organisation ID,0.014749262536873156,0
Continent ID,Organisation name,0.014749262536873156,0
Continent ID,Organisation class,0.8333333333333334,0
Continent ID,Continent name,1.0,0
Continent ID,Project Browser country ID,0.032679738562091505,0
Continent ID,CountryRegion ID,0.035211267605633804,0
Continent ID,Sector ID,0.04065040650406504,0
Continent ID,Sector name,0.04065040650406504,0
Continent ID,Sector percent,0.02702702702702703,0
Enviromental sustainability (marker),Fiscal year,0.3333333333333333,0
Enviromental sustainability (marker),Trade development (marker),0.75,0
Enviromental sustainability (marker),Bilateral aid (international marker),0.6666666666666666,0
Enviromental sustainability (marker),Organisation sub-class,0.125,0
Enviromental sustainability (marker),Section ID,0.12,0
Enviromental sustainability (marker),Regional program (marker),0.6666666666666666,0
Enviromental sustainability (marker),Children issues (marker),0.75,0
Enviromental sustainability (marker),ICT as a tool for development (marker),1.0,0
Enviromental sustainability (marker),Biodiversity (marker),0.75,0
Enviromental sustainability (marker),CountryRegion name,0.020689655172413793,0
Enviromental sustainability (marker),Amount spent,0.000597609561752988,0
Enviromental sustainability (marker),Indigenous issues (marker),0.75,0
Enviromental sustainability (marker),CountryRegion percent,0.007462686567164179,0
Enviromental sustainability (marker),Organisation type,0.75,0
Enviromental sustainability (marker),Status,1.0,0
Enviromental sustainability (marker),FSTC percent,0.061224489795918366,0
Enviromental sustainability (marker),Urban issues (marker),0.75,0
Enviromental sustainability (marker),Continent ID,0.6,0
Enviromental sustainability (marker),Enviromental sustainability (marker),1.0,1
Enviromental sustainability (marker),Branch ID,0.6,0
Enviromental sustainability (marker),CIDA business delivery model (old),1.0,0
Enviromental sustainability (marker),Programming process (new),0.3333333333333333,0
Enviromental sustainability (marker),Youth issues (marker),0.75,0
Enviromental sustainability (marker),Desertification (marker),0.75,0
Enviromental sustainability (marker),IRTC percent,1.0,0
Enviromental sustainability (marker),Participatory development and good governance,0.75,0
Enviromental sustainability (marker),Disability issues (marker),0.75,0
Enviromental sustainability (marker),Knowledge for development (marker),0.75,0
Enviromental sustainability (marker),Gender equality (marker),0.75,0
Enviromental sustainability (marker),Organisation ID,0.008849557522123894,0
Enviromental sustainability (marker),Organisation name,0.008849557522123894,0
Enviromental sustainability (marker),Organisation class,0.5,0
Enviromental sustainability (marker),Continent name,0.6,0
Enviromental sustainability (marker),Project Browser country ID,0.0196078431372549,0
Enviromental sustainability (marker),CountryRegion ID,0.02112676056338028,0
Enviromental sustainability (marker),Sector ID,0.024390243902439025,0
Enviromental sustainability (marker),Sector name,0.024390243902439025,0
Enviromental sustainability (marker),Sector percent,0.016216216216216217,0
Branch ID,Fiscal year,0.008849557522123894,0
Branch ID,Trade development (marker),0.035398230088495575,0
Branch ID,Bilateral aid (international marker),0.017699115044247787,0
Branch ID,Organisation sub-class,0.21238938053097345,0
Branch ID,Section ID,0.22123893805309736,0
Branch ID,Regional program (marker),0.017699115044247787,0
Branch ID,Children issues (marker),0.035398230088495575,0
Branch ID,ICT as a tool for development (marker),0.02654867256637168,0
Branch ID,Biodiversity (marker),0.035398230088495575,0
Branch ID,CountryRegion name,0.7793103448275862,0
Branch ID,Amount spent,0.02250996015936255,0
Branch ID,Indigenous issues (marker),0.035398230088495575,0
Branch ID,CountryRegion percent,0.2810945273631841,0
Branch ID,Organisation type,0.035398230088495575,0
Branch ID,Status,0.02654867256637168,0
Branch ID,FSTC percent,0.4336283185840708,0
Branch ID,Urban issues (marker),0.035398230088495575,0
Branch ID,Continent ID,0.04424778761061947,0
Branch ID,Enviromental sustainability (marker),0.02654867256637168,0
Branch ID,Branch ID,0.04424778761061947,1
Branch ID,CIDA business delivery model (old),0.02654867256637168,0
Branch ID,Programming process (new),0.008849557522123894,0
Branch ID,Youth issues (marker),0.035398230088495575,0
Branch ID,Desertification (marker),0.035398230088495575,0
Branch ID,IRTC percent,0.02654867256637168,0
Branch ID,Participatory development and good governance,0.035398230088495575,0
Branch ID,Disability issues (marker),0.035398230088495575,0
Branch ID,Knowledge for development (marker),0.035398230088495575,0
Branch ID,Gender equality (marker),0.035398230088495575,0
Branch ID,Organisation ID,0.3333333333333333,0
Branch ID,Organisation name,0.3333333333333333,0
Branch ID,Organisation class,0.05309734513274336,0
Branch ID,Continent name,0.04424778761061947,0
Branch ID,Project Browser country ID,0.738562091503268,0
Branch ID,CountryRegion ID,0.795774647887324,0
Branch ID,Sector ID,0.9186991869918699,0
Branch ID,Sector name,0.9186991869918699,0
Branch ID,Sector percent,0.6108108108108108,0
CIDA business delivery model (old),Fiscal year,0.00030330603579011223,0
CIDA business delivery model (old),Trade development (marker),0.001213224143160449,0
CIDA business delivery model (old),Bilateral aid (international marker),0.0006066120715802245,0
CIDA business delivery model (old),Organisation sub-class,0.007279344858962694,0
CIDA business delivery model (old),Section ID,0.0075826508947528055,0
CIDA business delivery model (old),Regional program (marker),0.0006066120715802245,0
CIDA business delivery model (old),Children issues (marker),0.001213224143160449,0
CIDA business delivery model (old),ICT as a tool for development (marker),0.0009099181073703367,0
CIDA business delivery model (old),Biodiversity (marker),0.001213224143160449,0
CIDA business delivery model (old),CountryRegion name,0.043979375189566274,0
CIDA business delivery model (old),Amount spent,0.6567729083665339,0
CIDA business delivery model (old),Indigenous issues (marker),0.001213224143160449,0
CIDA business delivery model (old),CountryRegion percent,0.12192902638762511,0
CIDA business delivery model (old),Organisation type,0.001213224143160449,0
CIDA business delivery model (old),Status,0.0009099181073703367,0
CIDA business delivery model (old),FSTC percent,0.014861995753715499,0
CIDA business delivery model (old),Urban issues (marker),0.001213224143160449,0
CIDA business delivery model (old),Continent ID,0.001516530178950561,0
CIDA business delivery model (old),Enviromental sustainability (marker),0.0009099181073703367,0
CIDA business delivery model (old),Branch ID,0.001516530178950561,0
CIDA business delivery model (old),CIDA business delivery model (old),0.0009099181073703367,1
CIDA business delivery model (old),Programming process (new),0.00030330603579011223,0
CIDA business delivery model (old),Youth issues (marker),0.001213224143160449,0
CIDA business delivery model (old),Desertification (marker),0.001213224143160449,0
CIDA business delivery model (old),IRTC percent,0.0009099181073703367,0
CIDA business delivery model (old),Participatory development and good governance,0.001213224143160449,0
CIDA business delivery model (old),Disability issues (marker),0.001213224143160449,0
CIDA business delivery model (old),Knowledge for development (marker),0.001213224143160449,0
CIDA business delivery model (old),Gender equality (marker),0.001213224143160449,0
CIDA business delivery model (old),Organisation ID,0.10282074613284804,0
CIDA business delivery model (old),Organisation name,0.10282074613284804,0
CIDA business delivery model (old),Organisation class,0.0018198362147406734,0
CIDA business delivery model (old),Continent name,0.001516530178950561,0
CIDA business delivery model (old),Project Browser country ID,0.04640582347588717,0
CIDA business delivery model (old),CountryRegion ID,0.043069457082195936,0
CIDA business delivery model (old),Sector ID,0.0373066424021838,0
CIDA business delivery model (old),Sector name,0.0373066424021838,0
CIDA business delivery model (old),Sector percent,0.056111616621170764,0
Programming process (new),Fiscal year,0.0003380662609871535,0
Programming process (new),Trade development (marker),0.001352265043948614,0
Programming process (new),Bilateral aid (international marker),0.000676132521974307,0
Programming process (new),Organisation sub-class,0.008113590263691683,0
Programming process (new),Section ID,0.008451656524678837,0
Programming process (new),Regional program (marker),0.000676132521974307,0
Programming process (new),Children issues (marker),0.001352265043948614,0
Programming process (new),ICT as a tool for development (marker),0.0010141987829614604,0
Programming process (new),Biodiversity (marker),0.001352265043948614,0
Programming process (new),CountryRegion name,0.049019607843137254,0
Programming process (new),Amount spent,0.5892430278884462,0
Programming process (new),Indigenous issues (marker),0.001352265043948614,0
Programming process (new),CountryRegion percent,0.1359026369168357,0
Programming process (new),Organisation type,0.001352265043948614,0
Programming process (new),Status,0.0010141987829614604,0
Programming process (new),FSTC percent,0.01656524678837052,0
Programming process (new),Urban issues (marker),0.001352265043948614,0
Programming process (new),Continent ID,0.0016903313049357674,0
Programming process (new),Enviromental sustainability (marker),0.0010141987829614604,0
Programming process (new),Branch ID,0.0016903313049357674,0
Programming process (new),CIDA business delivery model (old),0.0010141987829614604,0
Programming process (new),Programming process (new),0.0003380662609871535,1
Programming process (new),Youth issues (marker),0.001352265043948614,0
Programming process (new),Desertification (marker),0.001352265043948614,0
Programming process (new),IRTC percent,0.0010141987829614604,0
Programming process (new),Participatory development and good governance,0.001352265043948614,0
Programming process (new),Disability issues (marker),0.001352265043948614,0
Programming process (new),Knowledge for development (marker),0.001352265043948614,0
Programming process (new),Gender equality (marker),0.001352265043948614,0
Programming process (new),Organisation ID,0.11460446247464504,0
Programming process (new),Organisation name,0.11460446247464504,0
Programming process (new),Organisation class,0.002028397565922921,0
Programming process (new),Continent name,0.0016903313049357674,0
Programming process (new),Project Browser country ID,0.05172413793103448,0
Programming process (new),CountryRegion ID,0.048005409060175794,0
Programming process (new),Sector ID,0.04158215010141988,0
Programming process (new),Sector name,0.04158215010141988,0
Programming process (new),Sector percent,0.0625422582826234,0
Youth issues (marker),Fiscal year,0.25,0
Youth issues (marker),Trade development (marker),1.0,0
Youth issues (marker),Bilateral aid (international marker),0.5,0
Youth issues (marker),Organisation sub-class,0.16666666666666666,0
Youth issues (marker),Section ID,0.16,0
Youth issues (marker),Regional program (marker),0.5,0
Youth issues (marker),Children issues (marker),1.0,0
Youth issues (marker),ICT as a tool for development (marker),0.75,0
Youth issues (marker),Biodiversity (marker),1.0,0
Youth issues (marker),CountryRegion name,0.027586206896551724,0
Youth issues (marker),Amount spent,0.0007968127490039841,0
Youth issues (marker),Indigenous issues (marker),1.0,0
Youth issues (marker),CountryRegion percent,0.009950248756218905,0
Youth issues (marker),Organisation type,1.0,0
Youth issues (marker),Status,0.75,0
Youth issues (marker),FSTC percent,0.08163265306122448,0
Youth issues (marker),Urban issues (marker),1.0,0
Youth issues (marker),Continent ID,0.8,0
Youth issues (marker),Enviromental sustainability (marker),0.75,0
Youth issues (marker),Branch ID,0.8,0
Youth issues (marker),CIDA business delivery model (old),0.75,0
Youth issues (marker),Programming process (new),0.25,0
Youth issues (marker),Youth issues (marker),1.0,1
Youth issues (marker),Desertification (marker),1.0,0
Youth issues (marker),IRTC percent,0.75,0
Youth issues (marker),Participatory development and good governance,1.0,0
Youth issues (marker),Disability issues (marker),1.0,0
Youth issues (marker),Knowledge for development (marker),1.0,0
Youth issues (marker),Gender equality (marker),1.0,0
Youth issues (marker),Organisation ID,0.011799410029498525,0
Youth issues (marker),Organisation name,0.011799410029498525,0
Youth issues (marker),Organisation class,0.6666666666666666,0
Youth issues (marker),Continent name,0.8,0
Youth issues (marker),Project Browser country ID,0.026143790849673203,0
Youth issues (marker),CountryRegion ID,0.028169014084507043,0
Youth issues (marker),Sector ID,0.032520325203252036,0
Youth issues (marker),Sector name,0.032520325203252036,0
Youth issues (marker),Sector percent,0.021621621621621623,0
Desertification (marker),Fiscal year,0.25,0
Desertification (marker),Trade development (marker),1.0,0
Desertification (marker),Bilateral aid (international marker),0.5,0
Desertification (marker),Organisation sub-class,0.16666666666666666,0
Desertification (marker),Section ID,0.16,0
Desertification (marker),Regional program (marker),0.5,0
Desertification (marker),Children issues (marker),1.0,0
Desertification (marker),ICT as a tool for development (marker),0.75,0
Desertification (marker),Biodiversity (marker),1.0,0
Desertification (marker),CountryRegion name,0.027586206896551724,0
Desertification (marker),Amount spent,0.0007968127490039841,0
Desertification (marker),Indigenous issues (marker),1.0,0
Desertification (marker),CountryRegion percent,0.009950248756218905,0
Desertification (marker),Organisation type,1.0,0
Desertification (marker),Status,0.75,0
Desertification (marker),FSTC percent,0.08163265306122448,0
Desertification (marker),Urban issues (marker),1.0,0
Desertification (marker),Continent ID,0.8,0
Desertification (marker),Enviromental sustainability (marker),0.75,0
Desertification (marker),Branch ID,0.8,0
Desertification (marker),CIDA business delivery model (old),0.75,0
Desertification (marker),Programming process (new),0.25,0
Desertification (marker),Youth issues (marker),1.0,0
Desertification (marker),Desertification (marker),1.0,1
Desertification (marker),IRTC percent,0.75,0
Desertification (marker),Participatory development and good governance,1.0,0
Desertification (marker),Disability issues (marker),1.0,0
Desertification (marker),Knowledge for development (marker),1.0,0
Desertification (marker),Gender equality (marker),1.0,0
Desertification (marker),Organisation ID,0.011799410029498525,0
Desertification (marker),Organisation name,0.011799410029498525,0
Desertification (marker),Organisation class,0.6666666666666666,0
Desertification (marker),Continent name,0.8,0
Desertification (marker),Project Browser country ID,0.026143790849673203,0
Desertification (marker),CountryRegion ID,0.028169014084507043,0
Desertification (marker),Sector ID,0.032520325203252036,0
Desertification (marker),Sector name,0.032520325203252036,0
Desertification (marker),Sector percent,0.021621621621621623,0
IRTC percent,Fiscal year,8.600670852326481e-05,0
IRTC percent,Trade development (marker),0.00034402683409305926,0
IRTC percent,Bilateral aid (international marker),0.00017201341704652963,0
IRTC percent,Organisation sub-class,0.0020641610045583555,0
IRTC percent,Section ID,0.0021501677130816204,0
IRTC percent,Regional program (marker),0.00017201341704652963,0
IRTC percent,Children issues (marker),0.00034402683409305926,0
IRTC percent,ICT as a tool for development (marker),0.00025802012556979444,0
IRTC percent,Biodiversity (marker),0.00034402683409305926,0
IRTC percent,CountryRegion name,0.012470972735873399,0
IRTC percent,Amount spent,0.4317536767867894,0
IRTC percent,Indigenous issues (marker),0.00034402683409305926,0
IRTC percent,CountryRegion percent,0.034574696826352454,0
IRTC percent,Organisation type,0.00034402683409305926,0
IRTC percent,Status,0.00025802012556979444,0
IRTC percent,FSTC percent,0.004214328717639976,0
IRTC percent,Urban issues (marker),0.00034402683409305926,0
IRTC percent,Continent ID,0.0004300335426163241,0
IRTC percent,Enviromental sustainability (marker),0.00025802012556979444,0
IRTC percent,Branch ID,0.0004300335426163241,0
IRTC percent,CIDA business delivery model (old),0.00025802012556979444,0
IRTC percent,Programming process (new),8.600670852326481e-05,0
IRTC percent,Youth issues (marker),0.00034402683409305926,0
IRTC percent,Desertification (marker),0.00034402683409305926,0
IRTC percent,IRTC percent,0.00025802012556979444,1
IRTC percent,Participatory development and good governance,0.00034402683409305926,0
IRTC percent,Disability issues (marker),0.00034402683409305926,0
IRTC percent,Knowledge for development (marker),0.00034402683409305926,0
IRTC percent,Gender equality (marker),0.00034402683409305926,0
IRTC percent,Organisation ID,0.029156274189386773,0
IRTC percent,Organisation name,0.029156274189386773,0
IRTC percent,Organisation class,0.0005160402511395889,0
IRTC percent,Continent name,0.0004300335426163241,0
IRTC percent,Project Browser country ID,0.013159026404059517,0
IRTC percent,CountryRegion ID,0.012212952610303604,0
IRTC percent,Sector ID,0.010578825148361573,0
IRTC percent,Sector name,0.010578825148361573,0
IRTC percent,Sector percent,0.01591124107680399,0
Project number,Fiscal year,0.0007331378299120235,0
Project number,Trade development (marker),0.002932551319648094,0
Project number,Bilateral aid (international marker),0.001466275659824047,0
Project number,Organisation sub-class,0.017595307917888565,0
Project number,Section ID,0.018328445747800588,0
Project number,Regional program (marker),0.001466275659824047,0
Project number,Children issues (marker),0.002932551319648094,0
Project number,ICT as a tool for development (marker),0.0021994134897360706,0
Project number,Biodiversity (marker),0.002932551319648094,0
Project number,CountryRegion name,0.1063049853372434,0
Project number,Amount spent,0.27171314741035857,0
Project number,Indigenous issues (marker),0.002932551319648094,0
Project number,CountryRegion percent,0.29472140762463345,0
Project number,Organisation type,0.002932551319648094,0
Project number,Status,0.0021994134897360706,0
Project number,FSTC percent,0.03592375366568915,0
Project number,Urban issues (marker),0.002932551319648094,0
Project number,Continent ID,0.0036656891495601175,0
Project number,Enviromental sustainability (marker),0.0021994134897360706,0
Project number,Branch ID,0.0036656891495601175,0
Project number,CIDA business delivery model (old),0.0021994134897360706,0
Project number,Programming process (new),0.0007331378299120235,0
Project number,Youth issues (marker),0.002932551319648094,0
Project number,Desertification (marker),0.002932551319648094,0
Project number,IRTC percent,0.0021994134897360706,0
Project number,Participatory development and good governance,0.002932551319648094,0
