source,target,conf,realConf
Fiscal year,Fiscal year,1.0,1
Fiscal year,Continent ID,0.2,0
Fiscal year,Division ID,0.07692307692307693,0
Fiscal year,Disability issues (marker),0.25,0
Fiscal year,Youth issues (marker),0.25,0
Fiscal year,Branch ID,0.2,0
Fiscal year,Gender equality (marker),0.25,0
Fiscal year,Project Browser country ID,0.006535947712418301,0
Fiscal year,Organisation class,0.16666666666666666,0
Fiscal year,Continent name,0.2,0
Fiscal year,CountryRegion percent,0.0024875621890547263,0
Fiscal year,Division name,0.07692307692307693,0
Fiscal year,Status,0.3333333333333333,0
Fiscal year,Participatory development and good governance,0.25,0
Fiscal year,CFLI (marker),0.5,0
Fiscal year,Organisation type,0.25,0
Fiscal year,CountryRegion name,0.006896551724137931,0
Fiscal year,Amount spent,0.00019920318725099602,0
Fiscal year,Bilateral aid (international marker),0.5,0
Fiscal year,Project number,0.0015552099533437014,0
Fiscal year,ICT as a tool for development (marker),0.3333333333333333,0
Fiscal year,Biodiversity (marker),0.25,0
Fiscal year,Indigenous issues (marker),0.25,0
Fiscal year,Section ID,0.04,0
Fiscal year,Regional program (marker),0.5,0
Fiscal year,Climate change mitigation (marker),0.25,0
Fiscal year,Desertification (marker),0.25,0
Fiscal year,Trade development (marker),0.25,0
Fiscal year,Urban issues (marker),0.25,0
Fiscal year,Children issues (marker),0.25,0
Fiscal year,Knowledge for development (marker),0.25,0
Fiscal year,Organisation ID,0.0029498525073746312,0
Fiscal year,Organisation name,0.0029498525073746312,0
Fiscal year,Organisation sub-class,0.041666666666666664,0
Fiscal year,CountryRegion ID,0.007042253521126761,0
Fiscal year,Sector ID,0.008130081300813009,0
Fiscal year,Sector name,0.008130081300813009,0
Fiscal year,Sector percent,0.005405405405405406,0
Continent ID,Fiscal year,0.2,0
Continent ID,Continent ID,1.0,1
Continent ID,Division ID,0.38461538461538464,0
Continent ID,Disability issues (marker),0.8,0
Continent ID,Youth issues (marker),0.8,0
Continent ID,Branch ID,1.0,0
Continent ID,Gender equality (marker),0.8,0
Continent ID,Project Browser country ID,0.032679738562091505,0
Continent ID,Organisation class,0.8333333333333334,0
Continent ID,Continent name,1.0,0
Continent ID,CountryRegion percent,0.012437810945273632,0
Continent ID,Division name,0.38461538461538464,0
Continent ID,Status,0.6,0
Continent ID,Participatory development and good governance,0.8,0
Continent ID,CFLI (marker),0.4,0
Continent ID,Organisation type,0.8,0
Continent ID,CountryRegion name,0.034482758620689655,0
Continent ID,Amount spent,0.00099601593625498,0
Continent ID,Bilateral aid (international marker),0.4,0
Continent ID,Project number,0.007776049766718507,0
Continent ID,ICT as a tool for development (marker),0.6,0
Continent ID,Biodiversity (marker),0.8,0
Continent ID,Indigenous issues (marker),0.8,0
Continent ID,Section ID,0.2,0
Continent ID,Regional program (marker),0.4,0
Continent ID,Climate change mitigation (marker),0.8,0
Continent ID,Desertification (marker),0.8,0
Continent ID,Trade development (marker),0.8,0
Continent ID,Urban issues (marker),0.8,0
Continent ID,Children issues (marker),0.8,0
Continent ID,Knowledge for development (marker),0.8,0
Continent ID,Organisation ID,0.014749262536873156,0
Continent ID,Organisation name,0.014749262536873156,0
Continent ID,Organisation sub-class,0.20833333333333334,0
Continent ID,CountryRegion ID,0.035211267605633804,0
Continent ID,Sector ID,0.04065040650406504,0
Continent ID,Sector name,0.04065040650406504,0
Continent ID,Sector percent,0.02702702702702703,0
Division ID,Fiscal year,0.058823529411764705,0
Division ID,Continent ID,0.29411764705882354,0
Division ID,Division ID,0.7647058823529411,1
Division ID,Disability issues (marker),0.23529411764705882,0
Division ID,Youth issues (marker),0.23529411764705882,0
Division ID,Branch ID,0.29411764705882354,0
Division ID,Gender equality (marker),0.23529411764705882,0
Division ID,Project Browser country ID,0.1111111111111111,0
Division ID,Organisation class,0.35294117647058826,0
Division ID,Continent name,0.29411764705882354,0
Division ID,CountryRegion percent,0.04228855721393035,0
Division ID,Division name,0.7647058823529411,0
Division ID,Status,0.17647058823529413,0
Division ID,Participatory development and good governance,0.23529411764705882,0
Division ID,CFLI (marker),0.11764705882352941,0
Division ID,Organisation type,0.23529411764705882,0
Division ID,CountryRegion name,0.11724137931034483,0
Division ID,Amount spent,0.003386454183266932,0
Division ID,Bilateral aid (international marker),0.11764705882352941,0
Division ID,Project number,0.026438569206842923,0
Division ID,ICT as a tool for development (marker),0.17647058823529413,0
Division ID,Biodiversity (marker),0.23529411764705882,0
Division ID,Indigenous issues (marker),0.23529411764705882,0
Division ID,Section ID,0.68,0
Division ID,Regional program (marker),0.11764705882352941,0
Division ID,Climate change mitigation (marker),0.23529411764705882,0
Division ID,Desertification (marker),0.23529411764705882,0
Division ID,Trade development (marker),0.23529411764705882,0
Division ID,Urban issues (marker),0.23529411764705882,0
Division ID,Children issues (marker),0.23529411764705882,0
Division ID,Knowledge for development (marker),0.23529411764705882,0
Division ID,Organisation ID,0.05014749262536873,0
Division ID,Organisation name,0.05014749262536873,0
Division ID,Organisation sub-class,0.7083333333333334,0
Division ID,CountryRegion ID,0.11971830985915492,0
Division ID,Sector ID,0.13821138211382114,0
Division ID,Sector name,0.13821138211382114,0
Division ID,Sector percent,0.0918918918918919,0
Disability issues (marker),Fiscal year,0.25,0
Disability issues (marker),Continent ID,0.8,0
Disability issues (marker),Division ID,0.3076923076923077,0
Disability issues (marker),Disability issues (marker),1.0,1
Disability issues (marker),Youth issues (marker),1.0,0
Disability issues (marker),Branch ID,0.8,0
Disability issues (marker),Gender equality (marker),1.0,0
Disability issues (marker),Project Browser country ID,0.026143790849673203,0
Disability issues (marker),Organisation class,0.6666666666666666,0
Disability issues (marker),Continent name,0.8,0
Disability issues (marker),CountryRegion percent,0.009950248756218905,0
Disability issues (marker),Division name,0.3076923076923077,0
Disability issues (marker),Status,0.75,0
Disability issues (marker),Participatory development and good governance,1.0,0
Disability issues (marker),CFLI (marker),0.5,0
Disability issues (marker),Organisation type,1.0,0
Disability issues (marker),CountryRegion name,0.027586206896551724,0
Disability issues (marker),Amount spent,0.0007968127490039841,0
Disability issues (marker),Bilateral aid (international marker),0.5,0
Disability issues (marker),Project number,0.006220839813374806,0
Disability issues (marker),ICT as a tool for development (marker),0.75,0
Disability issues (marker),Biodiversity (marker),1.0,0
Disability issues (marker),Indigenous issues (marker),1.0,0
Disability issues (marker),Section ID,0.16,0
Disability issues (marker),Regional program (marker),0.5,0
Disability issues (marker),Climate change mitigation (marker),1.0,0
Disability issues (marker),Desertification (marker),1.0,0
Disability issues (marker),Trade development (marker),1.0,0
Disability issues (marker),Urban issues (marker),1.0,0
Disability issues (marker),Children issues (marker),1.0,0
Disability issues (marker),Knowledge for development (marker),1.0,0
Disability issues (marker),Organisation ID,0.011799410029498525,0
Disability issues (marker),Organisation name,0.011799410029498525,0
Disability issues (marker),Organisation sub-class,0.16666666666666666,0
Disability issues (marker),CountryRegion ID,0.028169014084507043,0
Disability issues (marker),Sector ID,0.032520325203252036,0
Disability issues (marker),Sector name,0.032520325203252036,0
Disability issues (marker),Sector percent,0.021621621621621623,0
Youth issues (marker),Fiscal year,0.25,0
Youth issues (marker),Continent ID,0.8,0
Youth issues (marker),Division ID,0.3076923076923077,0
Youth issues (marker),Disability issues (marker),1.0,0
Youth issues (marker),Youth issues (marker),1.0,1
Youth issues (marker),Branch ID,0.8,0
Youth issues (marker),Gender equality (marker),1.0,0
Youth issues (marker),Project Browser country ID,0.026143790849673203,0
Youth issues (marker),Organisation class,0.6666666666666666,0
Youth issues (marker),Continent name,0.8,0
Youth issues (marker),CountryRegion percent,0.009950248756218905,0
Youth issues (marker),Division name,0.3076923076923077,0
Youth issues (marker),Status,0.75,0
Youth issues (marker),Participatory development and good governance,1.0,0
Youth issues (marker),CFLI (marker),0.5,0
Youth issues (marker),Organisation type,1.0,0
Youth issues (marker),CountryRegion name,0.027586206896551724,0
Youth issues (marker),Amount spent,0.0007968127490039841,0
Youth issues (marker),Bilateral aid (international marker),0.5,0
Youth issues (marker),Project number,0.006220839813374806,0
Youth issues (marker),ICT as a tool for development (marker),0.75,0
Youth issues (marker),Biodiversity (marker),1.0,0
Youth issues (marker),Indigenous issues (marker),1.0,0
Youth issues (marker),Section ID,0.16,0
Youth issues (marker),Regional program (marker),0.5,0
Youth issues (marker),Climate change mitigation (marker),1.0,0
Youth issues (marker),Desertification (marker),1.0,0
Youth issues (marker),Trade development (marker),1.0,0
Youth issues (marker),Urban issues (marker),1.0,0
Youth issues (marker),Children issues (marker),1.0,0
Youth issues (marker),Knowledge for development (marker),1.0,0
Youth issues (marker),Organisation ID,0.011799410029498525,0
Youth issues (marker),Organisation name,0.011799410029498525,0
Youth issues (marker),Organisation sub-class,0.16666666666666666,0
Youth issues (marker),CountryRegion ID,0.028169014084507043,0
Youth issues (marker),Sector ID,0.032520325203252036,0
Youth issues (marker),Sector name,0.032520325203252036,0
Youth issues (marker),Sector percent,0.021621621621621623,0
Branch ID,Fiscal year,0.14285714285714285,0
Branch ID,Continent ID,0.7142857142857143,0
Branch ID,Division ID,0.5384615384615384,0
Branch ID,Disability issues (marker),0.5714285714285714,0
Branch ID,Youth issues (marker),0.5714285714285714,0
Branch ID,Branch ID,0.7142857142857143,1
Branch ID,Gender equality (marker),0.5714285714285714,0
Branch ID,Project Browser country ID,0.0457516339869281,0
Branch ID,Organisation class,0.8571428571428571,0
Branch ID,Continent name,0.7142857142857143,0
Branch ID,CountryRegion percent,0.017412935323383085,0
Branch ID,Division name,0.5384615384615384,0
Branch ID,Status,0.42857142857142855,0
Branch ID,Participatory development and good governance,0.5714285714285714,0
Branch ID,CFLI (marker),0.2857142857142857,0
Branch ID,Organisation type,0.5714285714285714,0
Branch ID,CountryRegion name,0.04827586206896552,0
Branch ID,Amount spent,0.0013944223107569722,0
Branch ID,Bilateral aid (international marker),0.2857142857142857,0
Branch ID,Project number,0.01088646967340591,0
Branch ID,ICT as a tool for development (marker),0.42857142857142855,0
Branch ID,Biodiversity (marker),0.5714285714285714,0
Branch ID,Indigenous issues (marker),0.5714285714285714,0
Branch ID,Section ID,0.28,0
Branch ID,Regional program (marker),0.2857142857142857,0
Branch ID,Climate change mitigation (marker),0.5714285714285714,0
Branch ID,Desertification (marker),0.5714285714285714,0
Branch ID,Trade development (marker),0.5714285714285714,0
Branch ID,Urban issues (marker),0.5714285714285714,0
Branch ID,Children issues (marker),0.5714285714285714,0
Branch ID,Knowledge for development (marker),0.5714285714285714,0
Branch ID,Organisation ID,0.02064896755162242,0
Branch ID,Organisation name,0.02064896755162242,0
Branch ID,Organisation sub-class,0.2916666666666667,0
Branch ID,CountryRegion ID,0.04929577464788732,0
Branch ID,Sector ID,0.056910569105691054,0
Branch ID,Sector name,0.056910569105691054,0
Branch ID,Sector percent,0.03783783783783784,0
Gender equality (marker),Fiscal year,0.25,0
Gender equality (marker),Continent ID,0.8,0
Gender equality (marker),Division ID,0.3076923076923077,0
Gender equality (marker),Disability issues (marker),1.0,0
Gender equality (marker),Youth issues (marker),1.0,0
Gender equality (marker),Branch ID,0.8,0
Gender equality (marker),Gender equality (marker),1.0,1
Gender equality (marker),Project Browser country ID,0.026143790849673203,0
Gender equality (marker),Organisation class,0.6666666666666666,0
Gender equality (marker),Continent name,0.8,0
Gender equality (marker),CountryRegion percent,0.009950248756218905,0
Gender equality (marker),Division name,0.3076923076923077,0
Gender equality (marker),Status,0.75,0
Gender equality (marker),Participatory development and good governance,1.0,0
Gender equality (marker),CFLI (marker),0.5,0
Gender equality (marker),Organisation type,1.0,0
Gender equality (marker),CountryRegion name,0.027586206896551724,0
Gender equality (marker),Amount spent,0.0007968127490039841,0
Gender equality (marker),Bilateral aid (international marker),0.5,0
Gender equality (marker),Project number,0.006220839813374806,0
Gender equality (marker),ICT as a tool for development (marker),0.75,0
Gender equality (marker),Biodiversity (marker),1.0,0
Gender equality (marker),Indigenous issues (marker),1.0,0
Gender equality (marker),Section ID,0.16,0
Gender equality (marker),Regional program (marker),0.5,0
Gender equality (marker),Climate change mitigation (marker),1.0,0
Gender equality (marker),Desertification (marker),1.0,0
Gender equality (marker),Trade development (marker),1.0,0
Gender equality (marker),Urban issues (marker),1.0,0
Gender equality (marker),Children issues (marker),1.0,0
Gender equality (marker),Knowledge for development (marker),1.0,0
Gender equality (marker),Organisation ID,0.011799410029498525,0
Gender equality (marker),Organisation name,0.011799410029498525,0
Gender equality (marker),Organisation sub-class,0.16666666666666666,0
Gender equality (marker),CountryRegion ID,0.028169014084507043,0
Gender equality (marker),Sector ID,0.032520325203252036,0
Gender equality (marker),Sector name,0.032520325203252036,0
Gender equality (marker),Sector percent,0.021621621621621623,0
Project Browser country ID,Fiscal year,0.006097560975609756,0
Project Browser country ID,Continent ID,0.03048780487804878,0
Project Browser country ID,Division ID,0.07926829268292683,0
Project Browser country ID,Disability issues (marker),0.024390243902439025,0
Project Browser country ID,Youth issues (marker),0.024390243902439025,0
Project Browser country ID,Branch ID,0.03048780487804878,0
Project Browser country ID,Gender equality (marker),0.024390243902439025,0
Project Browser country ID,Project Browser country ID,0.9329268292682927,1
Project Browser country ID,Organisation class,0.036585365853658534,0
Project Browser country ID,Continent name,0.03048780487804878,0
Project Browser country ID,CountryRegion percent,0.4079601990049751,0
Project Browser country ID,Division name,0.07926829268292683,0
Project Browser country ID,Status,0.018292682926829267,0
Project Browser country ID,Participatory development and good governance,0.024390243902439025,0
Project Browser country ID,CFLI (marker),0.012195121951219513,0
Project Browser country ID,Organisation type,0.024390243902439025,0
Project Browser country ID,CountryRegion name,0.8841463414634146,0
Project Browser country ID,Amount spent,0.03266932270916335,0
Project Browser country ID,Bilateral aid (international marker),0.012195121951219513,0
Project Browser country ID,Project number,0.25505443234836706,0
Project Browser country ID,ICT as a tool for development (marker),0.018292682926829267,0
Project Browser country ID,Biodiversity (marker),0.024390243902439025,0
Project Browser country ID,Indigenous issues (marker),0.024390243902439025,0
Project Browser country ID,Section ID,0.1524390243902439,0
Project Browser country ID,Regional program (marker),0.012195121951219513,0
Project Browser country ID,Climate change mitigation (marker),0.024390243902439025,0
Project Browser country ID,Desertification (marker),0.024390243902439025,0
Project Browser country ID,Trade development (marker),0.024390243902439025,0
Project Browser country ID,Urban issues (marker),0.024390243902439025,0
Project Browser country ID,Children issues (marker),0.024390243902439025,0
Project Browser country ID,Knowledge for development (marker),0.024390243902439025,0
Project Browser country ID,Organisation ID,0.4837758112094395,0
Project Browser country ID,Organisation name,0.4837758112094395,0
Project Browser country ID,Organisation sub-class,0.14634146341463414,0
Project Browser country ID,CountryRegion ID,0.8658536585365854,0
Project Browser country ID,Sector ID,0.75,0
Project Browser country ID,Sector name,0.75,0
Project Browser country ID,Sector percent,0.8864864864864865,0
Organisation class,Fiscal year,0.16666666666666666,0
Organisation class,Continent ID,0.8333333333333334,0
Organisation class,Division ID,0.46153846153846156,0
Organisation class,Disability issues (marker),0.6666666666666666,0
Organisation class,Youth issues (marker),0.6666666666666666,0
Organisation class,Branch ID,0.8333333333333334,0
Organisation class,Gender equality (marker),0.6666666666666666,0
Organisation class,Project Browser country ID,0.0392156862745098,0
Organisation class,Organisation class,1.0,1
Organisation class,Continent name,0.8333333333333334,0
Organisation class,CountryRegion percent,0.014925373134328358,0
Organisation class,Division name,0.46153846153846156,0
Organisation class,Status,0.5,0
Organisation class,Participatory development and good governance,0.6666666666666666,0
Organisation class,CFLI (marker),0.3333333333333333,0
Organisation class,Organisation type,0.6666666666666666,0
Organisation class,CountryRegion name,0.041379310344827586,0
Organisation class,Amount spent,0.001195219123505976,0
Organisation class,Bilateral aid (international marker),0.3333333333333333,0
Organisation class,Project number,0.00933125972006221,0
Organisation class,ICT as a tool for development (marker),0.5,0
Organisation class,Biodiversity (marker),0.6666666666666666,0
Organisation class,Indigenous issues (marker),0.6666666666666666,0
Organisation class,Section ID,0.24,0
Organisation class,Regional program (marker),0.3333333333333333,0
Organisation class,Climate change mitigation (marker),0.6666666666666666,0
Organisation class,Desertification (marker),0.6666666666666666,0
Organisation class,Trade development (marker),0.6666666666666666,0
Organisation class,Urban issues (marker),0.6666666666666666,0
Organisation class,Children issues (marker),0.6666666666666666,0
Organisation class,Knowledge for development (marker),0.6666666666666666,0
Organisation class,Organisation ID,0.017699115044247787,0
Organisation class,Organisation name,0.017699115044247787,0
Organisation class,Organisation sub-class,0.25,0
Organisation class,CountryRegion ID,0.04225352112676056,0
Organisation class,Sector ID,0.04878048780487805,0
Organisation class,Sector name,0.04878048780487805,0
Organisation class,Sector percent,0.032432432432432434,0
Continent name,Fiscal year,0.2,0
Continent name,Continent ID,1.0,0
Continent name,Division ID,0.38461538461538464,0
Continent name,Disability issues (marker),0.8,0
Continent name,Youth issues (marker),0.8,0
Continent name,Branch ID,1.0,0
Continent name,Gender equality (marker),0.8,0
Continent name,Project Browser country ID,0.032679738562091505,0
Continent name,Organisation class,0.8333333333333334,0
Continent name,Continent name,1.0,1
Continent name,CountryRegion percent,0.012437810945273632,0
Continent name,Division name,0.38461538461538464,0
Continent name,Status,0.6,0
Continent name,Participatory development and good governance,0.8,0
Continent name,CFLI (marker),0.4,0
Continent name,Organisation type,0.8,0
Continent name,CountryRegion name,0.034482758620689655,0
Continent name,Amount spent,0.00099601593625498,0
Continent name,Bilateral aid (international marker),0.4,0
Continent name,Project number,0.007776049766718507,0
Continent name,ICT as a tool for development (marker),0.6,0
Continent name,Biodiversity (marker),0.8,0
Continent name,Indigenous issues (marker),0.8,0
Continent name,Section ID,0.2,0
Continent name,Regional program (marker),0.4,0
Continent name,Climate change mitigation (marker),0.8,0
Continent name,Desertification (marker),0.8,0
Continent name,Trade development (marker),0.8,0
Continent name,Urban issues (marker),0.8,0
Continent name,Children issues (marker),0.8,0
Continent name,Knowledge for development (marker),0.8,0
Continent name,Organisation ID,0.014749262536873156,0
Continent name,Organisation name,0.014749262536873156,0
Continent name,Organisation sub-class,0.20833333333333334,0
Continent name,CountryRegion ID,0.035211267605633804,0
Continent name,Sector ID,0.04065040650406504,0
Continent name,Sector name,0.04065040650406504,0
Continent name,Sector percent,0.02702702702702703,0
CountryRegion percent,Fiscal year,0.0034129692832764505,0
CountryRegion percent,Continent ID,0.017064846416382253,0
CountryRegion percent,Division ID,0.04436860068259386,0
CountryRegion percent,Disability issues (marker),0.013651877133105802,0
CountryRegion percent,Youth issues (marker),0.013651877133105802,0
CountryRegion percent,Branch ID,0.017064846416382253,0
CountryRegion percent,Gender equality (marker),0.013651877133105802,0
CountryRegion percent,Project Browser country ID,0.5221843003412969,0
CountryRegion percent,Organisation class,0.020477815699658702,0
CountryRegion percent,Continent name,0.017064846416382253,0
CountryRegion percent,CountryRegion percent,0.7288557213930348,1
CountryRegion percent,Division name,0.04436860068259386,0
CountryRegion percent,Status,0.010238907849829351,0
CountryRegion percent,Participatory development and good governance,0.013651877133105802,0
CountryRegion percent,CFLI (marker),0.006825938566552901,0
CountryRegion percent,Organisation type,0.013651877133105802,0
CountryRegion percent,CountryRegion name,0.4948805460750853,0
CountryRegion percent,Amount spent,0.05836653386454183,0
CountryRegion percent,Bilateral aid (international marker),0.006825938566552901,0
CountryRegion percent,Project number,0.4556765163297045,0
CountryRegion percent,ICT as a tool for development (marker),0.010238907849829351,0
CountryRegion percent,Biodiversity (marker),0.013651877133105802,0
CountryRegion percent,Indigenous issues (marker),0.013651877133105802,0
CountryRegion percent,Section ID,0.08532423208191127,0
CountryRegion percent,Regional program (marker),0.006825938566552901,0
CountryRegion percent,Climate change mitigation (marker),0.013651877133105802,0
CountryRegion percent,Desertification (marker),0.013651877133105802,0
CountryRegion percent,Trade development (marker),0.013651877133105802,0
CountryRegion percent,Urban issues (marker),0.013651877133105802,0
CountryRegion percent,Children issues (marker),0.013651877133105802,0
CountryRegion percent,Knowledge for development (marker),0.013651877133105802,0
CountryRegion percent,Organisation ID,0.8643067846607669,0
CountryRegion percent,Organisation name,0.8643067846607669,0
CountryRegion percent,Organisation sub-class,0.08191126279863481,0
CountryRegion percent,CountryRegion ID,0.48464163822525597,0
CountryRegion percent,Sector ID,0.4197952218430034,0
CountryRegion percent,Sector name,0.4197952218430034,0
CountryRegion percent,Sector percent,0.6313993174061433,0
Division name,Fiscal year,0.058823529411764705,0
Division name,Continent ID,0.29411764705882354,0
Division name,Division ID,0.7647058823529411,0
Division name,Disability issues (marker),0.23529411764705882,0
Division name,Youth issues (marker),0.23529411764705882,0
Division name,Branch ID,0.29411764705882354,0
Division name,Gender equality (marker),0.23529411764705882,0
Division name,Project Browser country ID,0.1111111111111111,0
Division name,Organisation class,0.35294117647058826,0
Division name,Continent name,0.29411764705882354,0
Division name,CountryRegion percent,0.04228855721393035,0
Division name,Division name,0.7647058823529411,1
Division name,Status,0.17647058823529413,0
Division name,Participatory development and good governance,0.23529411764705882,0
Division name,CFLI (marker),0.11764705882352941,0
Division name,Organisation type,0.23529411764705882,0
Division name,CountryRegion name,0.11724137931034483,0
Division name,Amount spent,0.003386454183266932,0
Division name,Bilateral aid (international marker),0.11764705882352941,0
Division name,Project number,0.026438569206842923,0
Division name,ICT as a tool for development (marker),0.17647058823529413,0
Division name,Biodiversity (marker),0.23529411764705882,0
Division name,Indigenous issues (marker),0.23529411764705882,0
Division name,Section ID,0.68,0
Division name,Regional program (marker),0.11764705882352941,0
Division name,Climate change mitigation (marker),0.23529411764705882,0
Division name,Desertification (marker),0.23529411764705882,0
Division name,Trade development (marker),0.23529411764705882,0
Division name,Urban issues (marker),0.23529411764705882,0
Division name,Children issues (marker),0.23529411764705882,0
Division name,Knowledge for development (marker),0.23529411764705882,0
Division name,Organisation ID,0.05014749262536873,0
Division name,Organisation name,0.05014749262536873,0
Division name,Organisation sub-class,0.7083333333333334,0
Division name,CountryRegion ID,0.11971830985915492,0
Division name,Sector ID,0.13821138211382114,0
Division name,Sector name,0.13821138211382114,0
Division name,Sector percent,0.0918918918918919,0
Status,Fiscal year,0.3333333333333333,0
Status,Continent ID,0.6,0
Status,Division ID,0.23076923076923078,0
Status,Disability issues (marker),0.75,0
Status,Youth issues (marker),0.75,0
Status,Branch ID,0.6,0
Status,Gender equality (marker),0.75,0
Status,Project Browser country ID,0.0196078431372549,0
Status,Organisation class,0.5,0
Status,Continent name,0.6,0
Status,CountryRegion percent,0.007462686567164179,0
Status,Division name,0.23076923076923078,0
Status,Status,1.0,1
Status,Participatory development and good governance,0.75,0
Status,CFLI (marker),0.6666666666666666,0
Status,Organisation type,0.75,0
Status,CountryRegion name,0.020689655172413793,0
Status,Amount spent,0.000597609561752988,0
Status,Bilateral aid (international marker),0.6666666666666666,0
Status,Project number,0.004665629860031105,0
Status,ICT as a tool for development (marker),1.0,0
Status,Biodiversity (marker),0.75,0
Status,Indigenous issues (marker),0.75,0
Status,Section ID,0.12,0
Status,Regional program (marker),0.6666666666666666,0
Status,Climate change mitigation (marker),0.75,0
Status,Desertification (marker),0.75,0
Status,Trade development (marker),0.75,0
Status,Urban issues (marker),0.75,0
Status,Children issues (marker),0.75,0
Status,Knowledge for development (marker),0.75,0
Status,Organisation ID,0.008849557522123894,0
Status,Organisation name,0.008849557522123894,0
Status,Organisation sub-class,0.125,0
Status,CountryRegion ID,0.02112676056338028,0
Status,Sector ID,0.024390243902439025,0
Status,Sector name,0.024390243902439025,0
Status,Sector percent,0.016216216216216217,0
Participatory development and good governance,Fiscal year,0.25,0
Participatory development and good governance,Continent ID,0.8,0
Participatory development and good governance,Division ID,0.3076923076923077,0
Participatory development and good governance,Disability issues (marker),1.0,0
Participatory development and good governance,Youth issues (marker),1.0,0
Participatory development and good governance,Branch ID,0.8,0
Participatory development and good governance,Gender equality (marker),1.0,0
Participatory development and good governance,Project Browser country ID,0.026143790849673203,0
Participatory development and good governance,Organisation class,0.6666666666666666,0
Participatory development and good governance,Continent name,0.8,0
Participatory development and good governance,CountryRegion percent,0.009950248756218905,0
Participatory development and good governance,Division name,0.3076923076923077,0
Participatory development and good governance,Status,0.75,0
Participatory development and good governance,Participatory development and good governance,1.0,1
Participatory development and good governance,CFLI (marker),0.5,0
Participatory development and good governance,Organisation type,1.0,0
Participatory development and good governance,CountryRegion name,0.027586206896551724,0
Participatory development and good governance,Amount spent,0.0007968127490039841,0
Participatory development and good governance,Bilateral aid (international marker),0.5,0
Participatory development and good governance,Project number,0.006220839813374806,0
Participatory development and good governance,ICT as a tool for development (marker),0.75,0
Participatory development and good governance,Biodiversity (marker),1.0,0
Participatory development and good governance,Indigenous issues (marker),1.0,0
Participatory development and good governance,Section ID,0.16,0
Participatory development and good governance,Regional program (marker),0.5,0
Participatory development and good governance,Climate change mitigation (marker),1.0,0
Participatory development and good governance,Desertification (marker),1.0,0
Participatory development and good governance,Trade development (marker),1.0,0
Participatory development and good governance,Urban issues (marker),1.0,0
Participatory development and good governance,Children issues (marker),1.0,0
Participatory development and good governance,Knowledge for development (marker),1.0,0
Participatory development and good governance,Organisation ID,0.011799410029498525,0
Participatory development and good governance,Organisation name,0.011799410029498525,0
Participatory development and good governance,Organisation sub-class,0.16666666666666666,0
Participatory development and good governance,CountryRegion ID,0.028169014084507043,0
Participatory development and good governance,Sector ID,0.032520325203252036,0
Participatory development and good governance,Sector name,0.032520325203252036,0
Participatory development and good governance,Sector percent,0.021621621621621623,0
CFLI (marker),Fiscal year,0.5,0
CFLI (marker),Continent ID,0.4,0
CFLI (marker),Division ID,0.15384615384615385,0
CFLI (marker),Disability issues (marker),0.5,0
CFLI (marker),Youth issues (marker),0.5,0
CFLI (marker),Branch ID,0.4,0
CFLI (marker),Gender equality (marker),0.5,0
CFLI (marker),Project Browser country ID,0.013071895424836602,0
CFLI (marker),Organisation class,0.3333333333333333,0
CFLI (marker),Continent name,0.4,0
CFLI (marker),CountryRegion percent,0.004975124378109453,0
CFLI (marker),Division name,0.15384615384615385,0
CFLI (marker),Status,0.6666666666666666,0
CFLI (marker),Participatory development and good governance,0.5,0
CFLI (marker),CFLI (marker),1.0,1
CFLI (marker),Organisation type,0.5,0
CFLI (marker),CountryRegion name,0.013793103448275862,0
CFLI (marker),Amount spent,0.00039840637450199205,0
CFLI (marker),Bilateral aid (international marker),1.0,0
CFLI (marker),Project number,0.003110419906687403,0
CFLI (marker),ICT as a tool for development (marker),0.6666666666666666,0
CFLI (marker),Biodiversity (marker),0.5,0
CFLI (marker),Indigenous issues (marker),0.5,0
CFLI (marker),Section ID,0.08,0
CFLI (marker),Regional program (marker),1.0,0
CFLI (marker),Climate change mitigation (marker),0.5,0
CFLI (marker),Desertification (marker),0.5,0
CFLI (marker),Trade development (marker),0.5,0
CFLI (marker),Urban issues (marker),0.5,0
CFLI (marker),Children issues (marker),0.5,0
CFLI (marker),Knowledge for development (marker),0.5,0
CFLI (marker),Organisation ID,0.0058997050147492625,0
CFLI (marker),Organisation name,0.0058997050147492625,0
CFLI (marker),Organisation sub-class,0.08333333333333333,0
CFLI (marker),CountryRegion ID,0.014084507042253521,0
CFLI (marker),Sector ID,0.016260162601626018,0
CFLI (marker),Sector name,0.016260162601626018,0
CFLI (marker),Sector percent,0.010810810810810811,0
Organisation type,Fiscal year,0.2,0
Organisation type,Continent ID,1.0,0
Organisation type,Division ID,0.38461538461538464,0
Organisation type,Disability issues (marker),0.8,0
Organisation type,Youth issues (marker),0.8,0
Organisation type,Branch ID,1.0,0
Organisation type,Gender equality (marker),0.8,0
Organisation type,Project Browser country ID,0.032679738562091505,0
Organisation type,Organisation class,0.8333333333333334,0
Organisation type,Continent name,1.0,0
Organisation type,CountryRegion percent,0.012437810945273632,0
Organisation type,Division name,0.38461538461538464,0
Organisation type,Status,0.6,0
Organisation type,Participatory development and good governance,0.8,0
Organisation type,CFLI (marker),0.4,0
Organisation type,Organisation type,0.8,1
Organisation type,CountryRegion name,0.034482758620689655,0
Organisation type,Amount spent,0.00099601593625498,0
Organisation type,Bilateral aid (international marker),0.4,0
Organisation type,Project number,0.007776049766718507,0
Organisation type,ICT as a tool for development (marker),0.6,0
Organisation type,Biodiversity (marker),0.8,0
Organisation type,Indigenous issues (marker),0.8,0
Organisation type,Section ID,0.2,0
Organisation type,Regional program (marker),0.4,0
Organisation type,Climate change mitigation (marker),0.8,0
Organisation type,Desertification (marker),0.8,0
Organisation type,Trade development (marker),0.8,0
Organisation type,Urban issues (marker),0.8,0
Organisation type,Children issues (marker),0.8,0
Organisation type,Knowledge for development (marker),0.8,0
Organisation type,Organisation ID,0.014749262536873156,0
Organisation type,Organisation name,0.014749262536873156,0
Organisation type,Organisation sub-class,0.20833333333333334,0
Organisation type,CountryRegion ID,0.035211267605633804,0
Organisation type,Sector ID,0.04065040650406504,0
Organisation type,Sector name,0.04065040650406504,0
Organisation type,Sector percent,0.02702702702702703,0
CountryRegion name,Fiscal year,0.005747126436781609,0
CountryRegion name,Continent ID,0.028735632183908046,0
CountryRegion name,Division ID,0.07471264367816093,0
CountryRegion name,Disability issues (marker),0.022988505747126436,0
CountryRegion name,Youth issues (marker),0.022988505747126436,0
CountryRegion name,Branch ID,0.028735632183908046,0
CountryRegion name,Gender equality (marker),0.022988505747126436,0
CountryRegion name,Project Browser country ID,0.8793103448275862,0
CountryRegion name,Organisation class,0.034482758620689655,0
CountryRegion name,Continent name,0.028735632183908046,0
CountryRegion name,CountryRegion percent,0.43283582089552236,0
CountryRegion name,Division name,0.07471264367816093,0
CountryRegion name,Status,0.017241379310344827,0
CountryRegion name,Participatory development and good governance,0.022988505747126436,0
CountryRegion name,CFLI (marker),0.011494252873563218,0
CountryRegion name,Organisation type,0.022988505747126436,0
CountryRegion name,CountryRegion name,0.8333333333333334,1
CountryRegion name,Amount spent,0.034661354581673305,0
CountryRegion name,Bilateral aid (international marker),0.011494252873563218,0
CountryRegion name,Project number,0.27060653188180406,0
CountryRegion name,ICT as a tool for development (marker),0.017241379310344827,0
CountryRegion name,Biodiversity (marker),0.022988505747126436,0
CountryRegion name,Indigenous issues (marker),0.022988505747126436,0
CountryRegion name,Section ID,0.14367816091954022,0
CountryRegion name,Regional program (marker),0.011494252873563218,0
CountryRegion name,Climate change mitigation (marker),0.022988505747126436,0
CountryRegion name,Desertification (marker),0.022988505747126436,0
CountryRegion name,Trade development (marker),0.022988505747126436,0
CountryRegion name,Urban issues (marker),0.022988505747126436,0
CountryRegion name,Children issues (marker),0.022988505747126436,0
CountryRegion name,Knowledge for development (marker),0.022988505747126436,0
CountryRegion name,Organisation ID,0.5132743362831859,0
CountryRegion name,Organisation name,0.5132743362831859,0
CountryRegion name,Organisation sub-class,0.13793103448275862,0
CountryRegion name,CountryRegion ID,0.8160919540229885,0
CountryRegion name,Sector ID,0.7068965517241379,0
CountryRegion name,Sector name,0.7068965517241379,0
CountryRegion name,Sector percent,0.9405405405405406,0
Amount spent,Fiscal year,0.00024009603841536616,0
Amount spent,Continent ID,0.0012004801920768306,0
Amount spent,Division ID,0.00312124849939976,0
Amount spent,Disability issues (marker),0.0009603841536614646,0
Amount spent,Youth issues (marker),0.0009603841536614646,0
Amount spent,Branch ID,0.0012004801920768306,0
Amount spent,Gender equality (marker),0.0009603841536614646,0
Amount spent,Project Browser country ID,0.036734693877551024,0
Amount spent,Organisation class,0.0014405762304921968,0
Amount spent,Continent name,0.0012004801920768306,0
Amount spent,CountryRegion percent,0.09651860744297719,0
Amount spent,Division name,0.00312124849939976,0
Amount spent,Status,0.0007202881152460984,0
Amount spent,Participatory development and good governance,0.0009603841536614646,0
Amount spent,CFLI (marker),0.0004801920768307323,0
Amount spent,Organisation type,0.0009603841536614646,0
Amount spent,CountryRegion name,0.03481392557022809,0
Amount spent,Amount spent,0.8296812749003984,1
Amount spent,Bilateral aid (international marker),0.0004801920768307323,0
Amount spent,Project number,0.15438175270108043,0
Amount spent,ICT as a tool for development (marker),0.0007202881152460984,0
Amount spent,Biodiversity (marker),0.0009603841536614646,0
Amount spent,Indigenous issues (marker),0.0009603841536614646,0
Amount spent,Section ID,0.006002400960384154,0
Amount spent,Regional program (marker),0.0004801920768307323,0
Amount spent,Climate change mitigation (marker),0.0009603841536614646,0
Amount spent,Desertification (marker),0.0009603841536614646,0
Amount spent,Trade development (marker),0.0009603841536614646,0
Amount spent,Urban issues (marker),0.0009603841536614646,0
Amount spent,Children issues (marker),0.0009603841536614646,0
Amount spent,Knowledge for development (marker),0.0009603841536614646,0
Amount spent,Organisation ID,0.08139255702280912,0
Amount spent,Organisation name,0.08139255702280912,0
Amount spent,Organisation sub-class,0.005762304921968787,0
Amount spent,CountryRegion ID,0.03409363745498199,0
Amount spent,Sector ID,0.029531812725090038,0
Amount spent,Sector name,0.029531812725090038,0
Amount spent,Sector percent,0.04441776710684274,0
Bilateral aid (international marker),Fiscal year,0.5,0
Bilateral aid (international marker),Continent ID,0.4,0
Bilateral aid (international marker),Division ID,0.15384615384615385,0
Bilateral aid (international marker),Disability issues (marker),0.5,0
Bilateral aid (international marker),Youth issues (marker),0.5,0
Bilateral aid (international marker),Branch ID,0.4,0
Bilateral aid (international marker),Gender equality (marker),0.5,0
Bilateral aid (international marker),Project Browser country ID,0.013071895424836602,0
Bilateral aid (international marker),Organisation class,0.3333333333333333,0
Bilateral aid (international marker),Continent name,0.4,0
Bilateral aid (international marker),CountryRegion percent,0.004975124378109453,0
Bilateral aid (international marker),Division name,0.15384615384615385,0
Bilateral aid (international marker),Status,0.6666666666666666,0
Bilateral aid (international marker),Participatory development and good governance,0.5,0
Bilateral aid (international marker),CFLI (marker),1.0,0
Bilateral aid (international marker),Organisation type,0.5,0
Bilateral aid (international marker),CountryRegion name,0.013793103448275862,0
Bilateral aid (international marker),Amount spent,0.00039840637450199205,0
Bilateral aid (international marker),Bilateral aid (international marker),1.0,1
Bilateral aid (international marker),Project number,0.003110419906687403,0
Bilateral aid (international marker),ICT as a tool for development (marker),0.6666666666666666,0
Bilateral aid (international marker),Biodiversity (marker),0.5,0
Bilateral aid (international marker),Indigenous issues (marker),0.5,0
Bilateral aid (international marker),Section ID,0.08,0
Bilateral aid (international marker),Regional program (marker),1.0,0
Bilateral aid (international marker),Climate change mitigation (marker),0.5,0
Bilateral aid (international marker),Desertification (marker),0.5,0
Bilateral aid (international marker),Trade development (marker),0.5,0
Bilateral aid (international marker),Urban issues (marker),0.5,0
Bilateral aid (international marker),Children issues (marker),0.5,0
Bilateral aid (international marker),Knowledge for development (marker),0.5,0
Bilateral aid (international marker),Organisation ID,0.0058997050147492625,0
Bilateral aid (international marker),Organisation name,0.0058997050147492625,0
Bilateral aid (international marker),Organisation sub-class,0.08333333333333333,0
Bilateral aid (international marker),CountryRegion ID,0.014084507042253521,0
Bilateral aid (international marker),Sector ID,0.016260162601626018,0
Bilateral aid (international marker),Sector name,0.016260162601626018,0
Bilateral aid (international marker),Sector percent,0.010810810810810811,0
Project number,Fiscal year,0.0007331378299120235,0
Project number,Continent ID,0.0036656891495601175,0
Project number,Division ID,0.009530791788856305,0
Project number,Disability issues (marker),0.002932551319648094,0
Project number,Youth issues (marker),0.002932551319648094,0
Project number,Branch ID,0.0036656891495601175,0
Project number,Gender equality (marker),0.002932551319648094,0
Project number,Project Browser country ID,0.11217008797653959,0
Project number,Organisation class,0.004398826979472141,0
Project number,Continent name,0.0036656891495601175,0
Project number,CountryRegion percent,0.29472140762463345,0
Project number,Division name,0.009530791788856305,0
Project number,Status,0.0021994134897360706,0
Project number,Participatory development and good governance,0.002932551319648094,0
Project number,CFLI (marker),0.001466275659824047,0
Project number,Organisation type,0.002932551319648094,0
Project number,CountryRegion name,0.1063049853372434,0
Project number,Amount spent,0.27171314741035857,0
Project number,Bilateral aid (international marker),0.001466275659824047,0
Project number,Project number,0.4714076246334311,1
Project number,ICT as a tool for development (marker),0.0021994134897360706,0
Project number,Biodiversity (marker),0.002932551319648094,0
Project number,Indigenous issues (marker),0.002932551319648094,0
Project number,Section ID,0.018328445747800588,0
Project number,Regional program (marker),0.001466275659824047,0
Project number,Climate change mitigation (marker),0.002932551319648094,0
Project number,Desertification (marker),0.002932551319648094,0
Project number,Trade development (marker),0.002932551319648094,0
Project number,Urban issues (marker),0.002932551319648094,0
Project number,Children issues (marker),0.002932551319648094,0
Project number,Knowledge for development (marker),0.002932551319648094,0
Project number,Organisation ID,0.24853372434017595,0
Project number,Organisation name,0.24853372434017595,0
Project number,Organisation sub-class,0.017595307917888565,0
Project number,CountryRegion ID,0.10410557184750734,0
Project number,Sector ID,0.09017595307917889,0
Project number,Sector name,0.09017595307917889,0
Project number,Sector percent,0.13563049853372433,0
ICT as a tool for development (marker),Fiscal year,0.25,0
ICT as a tool for development (marker),Continent ID,0.8,0
ICT as a tool for development (marker),Division ID,0.3076923076923077,0
ICT as a tool for development (marker),Disability issues (marker),1.0,0
ICT as a tool for development (marker),Youth issues (marker),1.0,0
ICT as a tool for development (marker),Branch ID,0.8,0
ICT as a tool for development (marker),Gender equality (marker),1.0,0
ICT as a tool for development (marker),Project Browser country ID,0.026143790849673203,0
ICT as a tool for development (marker),Organisation class,0.6666666666666666,0
ICT as a tool for development (marker),Continent name,0.8,0
ICT as a tool for development (marker),CountryRegion percent,0.009950248756218905,0
ICT as a tool for development (marker),Division name,0.3076923076923077,0
ICT as a tool for development (marker),Status,0.75,0
ICT as a tool for development (marker),Participatory development and good governance,1.0,0
ICT as a tool for development (marker),CFLI (marker),0.5,0
ICT as a tool for development (marker),Organisation type,1.0,0
ICT as a tool for development (marker),CountryRegion name,0.027586206896551724,0
ICT as a tool for development (marker),Amount spent,0.0007968127490039841,0
ICT as a tool for development (marker),Bilateral aid (international marker),0.5,0
ICT as a tool for development (marker),Project number,0.006220839813374806,0
ICT as a tool for development (marker),ICT as a tool for development (marker),0.75,1
ICT as a tool for development (marker),Biodiversity (marker),1.0,0
ICT as a tool for development (marker),Indigenous issues (marker),1.0,0
ICT as a tool for development (marker),Section ID,0.16,0
ICT as a tool for development (marker),Regional program (marker),0.5,0
ICT as a tool for development (marker),Climate change mitigation (marker),1.0,0
ICT as a tool for development (marker),Desertification (marker),1.0,0
ICT as a tool for development (marker),Trade development (marker),1.0,0
ICT as a tool for development (marker),Urban issues (marker),1.0,0
ICT as a tool for development (marker),Children issues (marker),1.0,0
ICT as a tool for development (marker),Knowledge for development (marker),1.0,0
ICT as a tool for development (marker),Organisation ID,0.011799410029498525,0
ICT as a tool for development (marker),Organisation name,0.011799410029498525,0
ICT as a tool for development (marker),Organisation sub-class,0.16666666666666666,0
ICT as a tool for development (marker),CountryRegion ID,0.028169014084507043,0
ICT as a tool for development (marker),Sector ID,0.032520325203252036,0
ICT as a tool for development (marker),Sector name,0.032520325203252036,0
ICT as a tool for development (marker),Sector percent,0.021621621621621623,0
Biodiversity (marker),Fiscal year,0.25,0
Biodiversity (marker),Continent ID,0.8,0
Biodiversity (marker),Division ID,0.3076923076923077,0
Biodiversity (marker),Disability issues (marker),1.0,0
Biodiversity (marker),Youth issues (marker),1.0,0
Biodiversity (marker),Branch ID,0.8,0
Biodiversity (marker),Gender equality (marker),1.0,0
Biodiversity (marker),Project Browser country ID,0.026143790849673203,0
Biodiversity (marker),Organisation class,0.6666666666666666,0
Biodiversity (marker),Continent name,0.8,0
Biodiversity (marker),CountryRegion percent,0.009950248756218905,0
Biodiversity (marker),Division name,0.3076923076923077,0
Biodiversity (marker),Status,0.75,0
Biodiversity (marker),Participatory development and good governance,1.0,0
Biodiversity (marker),CFLI (marker),0.5,0
Biodiversity (marker),Organisation type,1.0,0
Biodiversity (marker),CountryRegion name,0.027586206896551724,0
Biodiversity (marker),Amount spent,0.0007968127490039841,0
Biodiversity (marker),Bilateral aid (international marker),0.5,0
Biodiversity (marker),Project number,0.006220839813374806,0
Biodiversity (marker),ICT as a tool for development (marker),0.75,0
Biodiversity (marker),Biodiversity (marker),1.0,1
Biodiversity (marker),Indigenous issues (marker),1.0,0
Biodiversity (marker),Section ID,0.16,0
Biodiversity (marker),Regional program (marker),0.5,0
Biodiversity (marker),Climate change mitigation (marker),1.0,0
Biodiversity (marker),Desertification (marker),1.0,0
Biodiversity (marker),Trade development (marker),1.0,0
Biodiversity (marker),Urban issues (marker),1.0,0
Biodiversity (marker),Children issues (marker),1.0,0
Biodiversity (marker),Knowledge for development (marker),1.0,0
Biodiversity (marker),Organisation ID,0.011799410029498525,0
Biodiversity (marker),Organisation name,0.011799410029498525,0
Biodiversity (marker),Organisation sub-class,0.16666666666666666,0
Biodiversity (marker),CountryRegion ID,0.028169014084507043,0
Biodiversity (marker),Sector ID,0.032520325203252036,0
Biodiversity (marker),Sector name,0.032520325203252036,0
Biodiversity (marker),Sector percent,0.021621621621621623,0
Indigenous issues (marker),Fiscal year,0.25,0
Indigenous issues (marker),Continent ID,0.8,0
Indigenous issues (marker),Division ID,0.3076923076923077,0
Indigenous issues (marker),Disability issues (marker),1.0,0
Indigenous issues (marker),Youth issues (marker),1.0,0
Indigenous issues (marker),Branch ID,0.8,0
Indigenous issues (marker),Gender equality (marker),1.0,0
Indigenous issues (marker),Project Browser country ID,0.026143790849673203,0
Indigenous issues (marker),Organisation class,0.6666666666666666,0
Indigenous issues (marker),Continent name,0.8,0
Indigenous issues (marker),CountryRegion percent,0.009950248756218905,0
Indigenous issues (marker),Division name,0.3076923076923077,0
Indigenous issues (marker),Status,0.75,0
Indigenous issues (marker),Participatory development and good governance,1.0,0
Indigenous issues (marker),CFLI (marker),0.5,0
Indigenous issues (marker),Organisation type,1.0,0
Indigenous issues (marker),CountryRegion name,0.027586206896551724,0
Indigenous issues (marker),Amount spent,0.0007968127490039841,0
Indigenous issues (marker),Bilateral aid (international marker),0.5,0
Indigenous issues (marker),Project number,0.006220839813374806,0
Indigenous issues (marker),ICT as a tool for development (marker),0.75,0
Indigenous issues (marker),Biodiversity (marker),1.0,0
Indigenous issues (marker),Indigenous issues (marker),1.0,1
Indigenous issues (marker),Section ID,0.16,0
Indigenous issues (marker),Regional program (marker),0.5,0
Indigenous issues (marker),Climate change mitigation (marker),1.0,0
Indigenous issues (marker),Desertification (marker),1.0,0
Indigenous issues (marker),Trade development (marker),1.0,0
Indigenous issues (marker),Urban issues (marker),1.0,0
Indigenous issues (marker),Children issues (marker),1.0,0
Indigenous issues (marker),Knowledge for development (marker),1.0,0
Indigenous issues (marker),Organisation ID,0.011799410029498525,0
Indigenous issues (marker),Organisation name,0.011799410029498525,0
Indigenous issues (marker),Organisation sub-class,0.16666666666666666,0
Indigenous issues (marker),CountryRegion ID,0.028169014084507043,0
Indigenous issues (marker),Sector ID,0.032520325203252036,0
Indigenous issues (marker),Sector name,0.032520325203252036,0
Indigenous issues (marker),Sector percent,0.021621621621621623,0
Section ID,Fiscal year,0.0196078431372549,0
Section ID,Continent ID,0.09803921568627451,0
Section ID,Division ID,0.2549019607843137,0
Section ID,Disability issues (marker),0.0784313725490196,0
Section ID,Youth issues (marker),0.0784313725490196,0
Section ID,Branch ID,0.09803921568627451,0
Section ID,Gender equality (marker),0.0784313725490196,0
Section ID,Project Browser country ID,0.3333333333333333,0
Section ID,Organisation class,0.11764705882352941,0
Section ID,Continent name,0.09803921568627451,0
Section ID,CountryRegion percent,0.12686567164179105,0
Section ID,Division name,0.2549019607843137,0
Section ID,Status,0.058823529411764705,0
Section ID,Participatory development and good governance,0.0784313725490196,0
Section ID,CFLI (marker),0.0392156862745098,0
Section ID,Organisation type,0.0784313725490196,0
Section ID,CountryRegion name,0.35172413793103446,0
Section ID,Amount spent,0.010159362549800797,0
Section ID,Bilateral aid (international marker),0.0392156862745098,0
Section ID,Project number,0.07931570762052877,0
Section ID,ICT as a tool for development (marker),0.058823529411764705,0
Section ID,Biodiversity (marker),0.0784313725490196,0
Section ID,Indigenous issues (marker),0.0784313725490196,0
Section ID,Section ID,0.49019607843137253,1
Section ID,Regional program (marker),0.0392156862745098,0
Section ID,Climate change mitigation (marker),0.0784313725490196,0
Section ID,Desertification (marker),0.0784313725490196,0
Section ID,Trade development (marker),0.0784313725490196,0
Section ID,Urban issues (marker),0.0784313725490196,0
Section ID,Children issues (marker),0.0784313725490196,0
Section ID,Knowledge for development (marker),0.0784313725490196,0
Section ID,Organisation ID,0.1504424778761062,0
Section ID,Organisation name,0.1504424778761062,0
Section ID,Organisation sub-class,0.47058823529411764,0
Section ID,CountryRegion ID,0.3591549295774648,0
Section ID,Sector ID,0.4146341463414634,0
Section ID,Sector name,0.4146341463414634,0
Section ID,Sector percent,0.2756756756756757,0
Regional program (marker),Fiscal year,0.5,0
Regional program (marker),Continent ID,0.4,0
Regional program (marker),Division ID,0.15384615384615385,0
Regional program (marker),Disability issues (marker),0.5,0
Regional program (marker),Youth issues (marker),0.5,0
Regional program (marker),Branch ID,0.4,0
Regional program (marker),Gender equality (marker),0.5,0
Regional program (marker),Project Browser country ID,0.013071895424836602,0
Regional program (marker),Organisation class,0.3333333333333333,0
Regional program (marker),Continent name,0.4,0
Regional program (marker),CountryRegion percent,0.004975124378109453,0
Regional program (marker),Division name,0.15384615384615385,0
Regional program (marker),Status,0.6666666666666666,0
Regional program (marker),Participatory development and good governance,0.5,0
Regional program (marker),CFLI (marker),1.0,0
Regional program (marker),Organisation type,0.5,0
Regional program (marker),CountryRegion name,0.013793103448275862,0
Regional program (marker),Amount spent,0.00039840637450199205,0
Regional program (marker),Bilateral aid (international marker),1.0,0
Regional program (marker),Project number,0.003110419906687403,0
Regional program (marker),ICT as a tool for development (marker),0.6666666666666666,0
Regional program (marker),Biodiversity (marker),0.5,0
Regional program (marker),Indigenous issues (marker),0.5,0
Regional program (marker),Section ID,0.08,0
Regional program (marker),Regional program (marker),1.0,1
Regional program (marker),Climate change mitigation (marker),0.5,0
Regional program (marker),Desertification (marker),0.5,0
Regional program (marker),Trade development (marker),0.5,0
Regional program (marker),Urban issues (marker),0.5,0
Regional program (marker),Children issues (marker),0.5,0
Regional program (marker),Knowledge for development (marker),0.5,0
Regional program (marker),Organisation ID,0.0058997050147492625,0
Regional program (marker),Organisation name,0.0058997050147492625,0
Regional program (marker),Organisation sub-class,0.08333333333333333,0
Regional program (marker),CountryRegion ID,0.014084507042253521,0
Regional program (marker),Sector ID,0.016260162601626018,0
Regional program (marker),Sector name,0.016260162601626018,0
Regional program (marker),Sector percent,0.010810810810810811,0
Maximum CIDA contribution (project-level),Fiscal year,0.0009132420091324201,0
Maximum CIDA contribution (project-level),Continent ID,0.0045662100456621,0
Maximum CIDA contribution (project-level),Division ID,0.011872146118721462,0
Maximum CIDA contribution (project-level),Disability issues (marker),0.0036529680365296802,0
Maximum CIDA contribution (project-level),Youth issues (marker),0.0036529680365296802,0
Maximum CIDA contribution (project-level),Branch ID,0.0045662100456621,0
Maximum CIDA contribution (project-level),Gender equality (marker),0.0036529680365296802,0
Maximum CIDA contribution (project-level),Project Browser country ID,0.13972602739726028,0
Maximum CIDA contribution (project-level),Organisation class,0.005479452054794521,0
Maximum CIDA contribution (project-level),Continent name,0.0045662100456621,0
Maximum CIDA contribution (project-level),CountryRegion percent,0.36712328767123287,0
Maximum CIDA contribution (project-level),Division name,0.011872146118721462,0
Maximum CIDA contribution (project-level),Status,0.0027397260273972603,0
Maximum CIDA contribution (project-level),Participatory development and good governance,0.0036529680365296802,0
Maximum CIDA contribution (project-level),CFLI (marker),0.0018264840182648401,0
Maximum CIDA contribution (project-level),Organisation type,0.0036529680365296802,0
Maximum CIDA contribution (project-level),CountryRegion name,0.1324200913242009,0
Maximum CIDA contribution (project-level),Amount spent,0.21812749003984064,0
Maximum CIDA contribution (project-level),Bilateral aid (international marker),0.0018264840182648401,0
Maximum CIDA contribution (project-level),Project number,0.5872146118721461,0
Maximum CIDA contribution (project-level),ICT as a tool for development (marker),0.0027397260273972603,0
Maximum CIDA contribution (project-level),Biodiversity (marker),0.0036529680365296802,0
Maximum CIDA contribution (project-level),Indigenous issues (marker),0.0036529680365296802,0
Maximum CIDA contribution (project-level),Section ID,0.0228310502283105,0
Maximum CIDA contribution (project-level),Regional program (marker),0.0018264840182648401,0
Maximum CIDA contribution (project-level),Climate change mitigation (marker),0.0036529680365296802,0
Maximum CIDA contribution (project-level),Desertification (marker),0.0036529680365296802,0
Maximum CIDA contribution (project-level),Trade development (marker),0.0036529680365296802,0
Maximum CIDA contribution (project-level),Urban issues (marker),0.0036529680365296802,0
Maximum CIDA contribution (project-level),Children issues (marker),0.0036529680365296802,0
Maximum CIDA contribution (project-level),Knowledge for development (marker),0.0036529680365296802,0
Maximum CIDA contribution (project-level),Organisation ID,0.3095890410958904,0
Maximum CIDA contribution (project-level),Organisation name,0.3095890410958904,0
Maximum CIDA contribution (project-level),Organisation sub-class,0.021917808219178082,0
Maximum CIDA contribution (project-level),CountryRegion ID,0.12968036529680366,0
Maximum CIDA contribution (project-level),Sector ID,0.11232876712328767,0
Maximum CIDA contribution (project-level),Sector name,0.11232876712328767,0
Maximum CIDA contribution (project-level),Sector percent,0.1689497716894977,0
Branch name,Fiscal year,0.14285714285714285,0
Branch name,Continent ID,0.7142857142857143,0
Branch name,Division ID,0.5384615384615384,0
Branch name,Disability issues (marker),0.5714285714285714,0
Branch name,Youth issues (marker),0.5714285714285714,0
Branch name,Branch ID,0.7142857142857143,0
Branch name,Gender equality (marker),0.5714285714285714,0
Branch name,Project Browser country ID,0.0457516339869281,0
Branch name,Organisation class,0.8571428571428571,0
Branch name,Continent name,0.7142857142857143,0
Branch name,CountryRegion percent,0.017412935323383085,0
Branch name,Division name,0.5384615384615384,0
Branch name,Status,0.42857142857142855,0
Branch name,Participatory development and good governance,0.5714285714285714,0
Branch name,CFLI (marker),0.2857142857142857,0
Branch name,Organisation type,0.5714285714285714,0
Branch name,CountryRegion name,0.04827586206896552,0
Branch name,Amount spent,0.0013944223107569722,0
Branch name,Bilateral aid (international marker),0.2857142857142857,0
Branch name,Project number,0.01088646967340591,0
Branch name,ICT as a tool for development (marker),0.42857142857142855,0
Branch name,Biodiversity (marker),0.5714285714285714,0
Branch name,Indigenous issues (marker),0.5714285714285714,0
Branch name,Section ID,0.28,0
Branch name,Regional program (marker),0.2857142857142857,0
Branch name,Climate change mitigation (marker),0.5714285714285714,0
Branch name,Desertification (marker),0.5714285714285714,0
Branch name,Trade development (marker),0.5714285714285714,0
Branch name,Urban issues (marker),0.5714285714285714,0
Branch name,Children issues (marker),0.5714285714285714,0
Branch name,Knowledge for development (marker),0.5714285714285714,0
Branch name,Organisation ID,0.02064896755162242,0
Branch name,Organisation name,0.02064896755162242,0
