source,target,conf,realConf
Fiscal year,Fiscal year,0.03333333333333333,1
Fiscal year,FSTC percent,0.6122448979591837,0
Fiscal year,Section ID,0.8333333333333334,0
Fiscal year,Participatory development and good governance,0.13333333333333333,0
Fiscal year,CIDA business delivery model (old),0.1,0
Fiscal year,CountryRegion ID,0.2112676056338028,0
Fiscal year,Organisation class,0.2,0
Fiscal year,Sector ID,0.24390243902439024,0
Fiscal year,Enviromental sustainability (marker),0.1,0
Fiscal year,Organisation name,0.08849557522123894,0
Fiscal year,CountryRegion name,0.20689655172413793,0
Fiscal year,Continent ID,0.16666666666666666,0
Fiscal year,Climate change adaptation (marker),0.1,0
Fiscal year,Section name,0.8333333333333334,0
Fiscal year,Trade development (marker),0.13333333333333333,0
Fiscal year,Biodiversity (marker),0.13333333333333333,0
Fiscal year,Urban issues (marker),0.13333333333333333,0
Fiscal year,Children issues (marker),0.13333333333333333,0
Fiscal year,Youth issues (marker),0.13333333333333333,0
Fiscal year,Indigenous issues (marker),0.13333333333333333,0
Fiscal year,Disability issues (marker),0.13333333333333333,0
Fiscal year,ICT as a tool for development (marker),0.1,0
Fiscal year,Knowledge for development (marker),0.13333333333333333,0
Fiscal year,Gender equality (marker),0.13333333333333333,0
Fiscal year,Organisation ID,0.08849557522123894,0
Fiscal year,Organisation type,0.13333333333333333,0
Fiscal year,Organisation sub-class,0.8,0
Fiscal year,Continent name,0.16666666666666666,0
Fiscal year,Project Browser country ID,0.19607843137254902,0
Fiscal year,CountryRegion percent,0.07462686567164178,0
Fiscal year,Sector name,0.24390243902439024,0
Fiscal year,Sector percent,0.16216216216216217,0
Fiscal year,Amount spent,0.00597609561752988,0
FSTC percent,Fiscal year,8.600670852326481e-05,0
FSTC percent,FSTC percent,0.004214328717639976,1
FSTC percent,Section ID,0.0021501677130816204,0
FSTC percent,Participatory development and good governance,0.00034402683409305926,0
FSTC percent,CIDA business delivery model (old),0.00025802012556979444,0
FSTC percent,CountryRegion ID,0.012212952610303604,0
FSTC percent,Organisation class,0.0005160402511395889,0
FSTC percent,Sector ID,0.010578825148361573,0
FSTC percent,Enviromental sustainability (marker),0.00025802012556979444,0
FSTC percent,Organisation name,0.029156274189386773,0
FSTC percent,CountryRegion name,0.012470972735873399,0
FSTC percent,Continent ID,0.0004300335426163241,0
FSTC percent,Climate change adaptation (marker),0.00025802012556979444,0
FSTC percent,Section name,0.0021501677130816204,0
FSTC percent,Trade development (marker),0.00034402683409305926,0
FSTC percent,Biodiversity (marker),0.00034402683409305926,0
FSTC percent,Urban issues (marker),0.00034402683409305926,0
FSTC percent,Children issues (marker),0.00034402683409305926,0
FSTC percent,Youth issues (marker),0.00034402683409305926,0
FSTC percent,Indigenous issues (marker),0.00034402683409305926,0
FSTC percent,Disability issues (marker),0.00034402683409305926,0
FSTC percent,ICT as a tool for development (marker),0.00025802012556979444,0
FSTC percent,Knowledge for development (marker),0.00034402683409305926,0
FSTC percent,Gender equality (marker),0.00034402683409305926,0
FSTC percent,Organisation ID,0.029156274189386773,0
FSTC percent,Organisation type,0.00034402683409305926,0
FSTC percent,Organisation sub-class,0.0020641610045583555,0
FSTC percent,Continent name,0.0004300335426163241,0
FSTC percent,Project Browser country ID,0.013159026404059517,0
FSTC percent,CountryRegion percent,0.034574696826352454,0
FSTC percent,Sector name,0.010578825148361573,0
FSTC percent,Sector percent,0.01591124107680399,0
FSTC percent,Amount spent,0.4317536767867894,0
Section ID,Fiscal year,0.0009293680297397769,0
Section ID,FSTC percent,0.04553903345724907,0
Section ID,Section ID,0.023234200743494422,1
Section ID,Participatory development and good governance,0.0037174721189591076,0
Section ID,CIDA business delivery model (old),0.0027881040892193307,0
Section ID,CountryRegion ID,0.13197026022304834,0
Section ID,Organisation class,0.0055762081784386614,0
Section ID,Sector ID,0.11431226765799256,0
Section ID,Enviromental sustainability (marker),0.0027881040892193307,0
Section ID,Organisation name,0.3150557620817844,0
Section ID,CountryRegion name,0.13475836431226765,0
Section ID,Continent ID,0.004646840148698885,0
Section ID,Climate change adaptation (marker),0.0027881040892193307,0
Section ID,Section name,0.023234200743494422,0
Section ID,Trade development (marker),0.0037174721189591076,0
Section ID,Biodiversity (marker),0.0037174721189591076,0
Section ID,Urban issues (marker),0.0037174721189591076,0
Section ID,Children issues (marker),0.0037174721189591076,0
Section ID,Youth issues (marker),0.0037174721189591076,0
Section ID,Indigenous issues (marker),0.0037174721189591076,0
Section ID,Disability issues (marker),0.0037174721189591076,0
Section ID,ICT as a tool for development (marker),0.0027881040892193307,0
Section ID,Knowledge for development (marker),0.0037174721189591076,0
Section ID,Gender equality (marker),0.0037174721189591076,0
Section ID,Organisation ID,0.3150557620817844,0
Section ID,Organisation type,0.0037174721189591076,0
Section ID,Organisation sub-class,0.022304832713754646,0
Section ID,Continent name,0.004646840148698885,0
Section ID,Project Browser country ID,0.1421933085501859,0
Section ID,CountryRegion percent,0.3736059479553903,0
Section ID,Sector name,0.11431226765799256,0
Section ID,Sector percent,0.17193308550185873,0
Section ID,Amount spent,0.21434262948207172,0
Participatory development and good governance,Fiscal year,0.25,0
Participatory development and good governance,FSTC percent,0.08163265306122448,0
Participatory development and good governance,Section ID,0.16,0
Participatory development and good governance,Participatory development and good governance,1.0,1
Participatory development and good governance,CIDA business delivery model (old),0.75,0
Participatory development and good governance,CountryRegion ID,0.028169014084507043,0
Participatory development and good governance,Organisation class,0.6666666666666666,0
Participatory development and good governance,Sector ID,0.032520325203252036,0
Participatory development and good governance,Enviromental sustainability (marker),0.75,0
Participatory development and good governance,Organisation name,0.011799410029498525,0
Participatory development and good governance,CountryRegion name,0.027586206896551724,0
Participatory development and good governance,Continent ID,0.8,0
Participatory development and good governance,Climate change adaptation (marker),0.75,0
Participatory development and good governance,Section name,0.16,0
Participatory development and good governance,Trade development (marker),1.0,0
Participatory development and good governance,Biodiversity (marker),1.0,0
Participatory development and good governance,Urban issues (marker),1.0,0
Participatory development and good governance,Children issues (marker),1.0,0
Participatory development and good governance,Youth issues (marker),1.0,0
Participatory development and good governance,Indigenous issues (marker),1.0,0
Participatory development and good governance,Disability issues (marker),1.0,0
Participatory development and good governance,ICT as a tool for development (marker),0.75,0
Participatory development and good governance,Knowledge for development (marker),1.0,0
Participatory development and good governance,Gender equality (marker),1.0,0
Participatory development and good governance,Organisation ID,0.011799410029498525,0
Participatory development and good governance,Organisation type,1.0,0
Participatory development and good governance,Organisation sub-class,0.16666666666666666,0
Participatory development and good governance,Continent name,0.8,0
Participatory development and good governance,Project Browser country ID,0.026143790849673203,0
Participatory development and good governance,CountryRegion percent,0.009950248756218905,0
Participatory development and good governance,Sector name,0.032520325203252036,0
Participatory development and good governance,Sector percent,0.021621621621621623,0
Participatory development and good governance,Amount spent,0.0007968127490039841,0
CIDA business delivery model (old),Fiscal year,0.0003040437823046519,0
CIDA business delivery model (old),FSTC percent,0.014898145332927942,0
CIDA business delivery model (old),Section ID,0.007601094557616297,0
CIDA business delivery model (old),Participatory development and good governance,0.0012161751292186075,0
CIDA business delivery model (old),CIDA business delivery model (old),0.0009121313469139556,1
CIDA business delivery model (old),CountryRegion ID,0.04317421708726057,0
CIDA business delivery model (old),Organisation class,0.0018242626938279112,0
CIDA business delivery model (old),Sector ID,0.037397385223472177,0
CIDA business delivery model (old),Enviromental sustainability (marker),0.0009121313469139556,0
CIDA business delivery model (old),Organisation name,0.10307084220127698,0
CIDA business delivery model (old),CountryRegion name,0.04408634843417452,0
CIDA business delivery model (old),Continent ID,0.0015202189115232593,0
CIDA business delivery model (old),Climate change adaptation (marker),0.0009121313469139556,0
CIDA business delivery model (old),Section name,0.007601094557616297,0
CIDA business delivery model (old),Trade development (marker),0.0012161751292186075,0
CIDA business delivery model (old),Biodiversity (marker),0.0012161751292186075,0
CIDA business delivery model (old),Urban issues (marker),0.0012161751292186075,0
CIDA business delivery model (old),Children issues (marker),0.0012161751292186075,0
CIDA business delivery model (old),Youth issues (marker),0.0012161751292186075,0
CIDA business delivery model (old),Indigenous issues (marker),0.0012161751292186075,0
CIDA business delivery model (old),Disability issues (marker),0.0012161751292186075,0
CIDA business delivery model (old),ICT as a tool for development (marker),0.0009121313469139556,0
CIDA business delivery model (old),Knowledge for development (marker),0.0012161751292186075,0
CIDA business delivery model (old),Gender equality (marker),0.0012161751292186075,0
CIDA business delivery model (old),Organisation ID,0.10307084220127698,0
CIDA business delivery model (old),Organisation type,0.0012161751292186075,0
CIDA business delivery model (old),Organisation sub-class,0.007297050775311645,0
CIDA business delivery model (old),Continent name,0.0015202189115232593,0
CIDA business delivery model (old),Project Browser country ID,0.046518698692611736,0
CIDA business delivery model (old),CountryRegion percent,0.12222560048647005,0
CIDA business delivery model (old),Sector name,0.037397385223472177,0
CIDA business delivery model (old),Sector percent,0.05624809972636059,0
CIDA business delivery model (old),Amount spent,0.6551792828685259,0
CountryRegion ID,Fiscal year,0.005780346820809248,0
CountryRegion ID,FSTC percent,0.2832369942196532,0
CountryRegion ID,Section ID,0.14450867052023122,0
CountryRegion ID,Participatory development and good governance,0.023121387283236993,0
CountryRegion ID,CIDA business delivery model (old),0.017341040462427744,0
CountryRegion ID,CountryRegion ID,0.8208092485549133,1
CountryRegion ID,Organisation class,0.03468208092485549,0
CountryRegion ID,Sector ID,0.7109826589595376,0
CountryRegion ID,Enviromental sustainability (marker),0.017341040462427744,0
CountryRegion ID,Organisation name,0.5103244837758112,0
CountryRegion ID,CountryRegion name,0.838150289017341,0
CountryRegion ID,Continent ID,0.028901734104046242,0
CountryRegion ID,Climate change adaptation (marker),0.017341040462427744,0
CountryRegion ID,Section name,0.14450867052023122,0
CountryRegion ID,Trade development (marker),0.023121387283236993,0
CountryRegion ID,Biodiversity (marker),0.023121387283236993,0
CountryRegion ID,Urban issues (marker),0.023121387283236993,0
CountryRegion ID,Children issues (marker),0.023121387283236993,0
CountryRegion ID,Youth issues (marker),0.023121387283236993,0
CountryRegion ID,Indigenous issues (marker),0.023121387283236993,0
CountryRegion ID,Disability issues (marker),0.023121387283236993,0
CountryRegion ID,ICT as a tool for development (marker),0.017341040462427744,0
CountryRegion ID,Knowledge for development (marker),0.023121387283236993,0
CountryRegion ID,Gender equality (marker),0.023121387283236993,0
CountryRegion ID,Organisation ID,0.5103244837758112,0
CountryRegion ID,Organisation type,0.023121387283236993,0
CountryRegion ID,Organisation sub-class,0.13872832369942195,0
CountryRegion ID,Continent name,0.028901734104046242,0
CountryRegion ID,Project Browser country ID,0.884393063583815,0
CountryRegion ID,CountryRegion percent,0.43034825870646765,0
CountryRegion ID,Sector name,0.7109826589595376,0
CountryRegion ID,Sector percent,0.9351351351351351,0
CountryRegion ID,Amount spent,0.03446215139442231,0
Organisation class,Fiscal year,0.00015188335358444713,0
Organisation class,FSTC percent,0.00744228432563791,0
Organisation class,Section ID,0.0037970838396111785,0
Organisation class,Participatory development and good governance,0.0006075334143377885,0
Organisation class,CIDA business delivery model (old),0.0004556500607533414,0
Organisation class,CountryRegion ID,0.021567436208991493,0
Organisation class,Organisation class,0.0009113001215066828,1
Organisation class,Sector ID,0.018681652490886998,0
Organisation class,Enviromental sustainability (marker),0.0004556500607533414,0
Organisation class,Organisation name,0.05148845686512758,0
Organisation class,CountryRegion name,0.022023086269744835,0
Organisation class,Continent ID,0.0007594167679222357,0
Organisation class,Climate change adaptation (marker),0.0004556500607533414,0
Organisation class,Section name,0.0037970838396111785,0
Organisation class,Trade development (marker),0.0006075334143377885,0
Organisation class,Biodiversity (marker),0.0006075334143377885,0
Organisation class,Urban issues (marker),0.0006075334143377885,0
Organisation class,Children issues (marker),0.0006075334143377885,0
Organisation class,Youth issues (marker),0.0006075334143377885,0
Organisation class,Indigenous issues (marker),0.0006075334143377885,0
Organisation class,Disability issues (marker),0.0006075334143377885,0
Organisation class,ICT as a tool for development (marker),0.0004556500607533414,0
Organisation class,Knowledge for development (marker),0.0006075334143377885,0
Organisation class,Gender equality (marker),0.0006075334143377885,0
Organisation class,Organisation ID,0.05148845686512758,0
Organisation class,Organisation type,0.0006075334143377885,0
Organisation class,Organisation sub-class,0.0036452004860267314,0
Organisation class,Continent name,0.0007594167679222357,0
Organisation class,Project Browser country ID,0.02323815309842041,0
Organisation class,CountryRegion percent,0.06105710814094775,0
Organisation class,Sector name,0.018681652490886998,0
Organisation class,Sector percent,0.028098420413122722,0
Organisation class,Amount spent,0.7624544349939246,0
Sector ID,Fiscal year,0.00641025641025641,0
Sector ID,FSTC percent,0.3141025641025641,0
Sector ID,Section ID,0.16025641025641027,0
Sector ID,Participatory development and good governance,0.02564102564102564,0
Sector ID,CIDA business delivery model (old),0.019230769230769232,0
Sector ID,CountryRegion ID,0.9102564102564102,0
Sector ID,Organisation class,0.038461538461538464,0
Sector ID,Sector ID,0.7884615384615384,1
Sector ID,Enviromental sustainability (marker),0.019230769230769232,0
Sector ID,Organisation name,0.46017699115044247,0
Sector ID,CountryRegion name,0.9294871794871795,0
Sector ID,Continent ID,0.03205128205128205,0
Sector ID,Climate change adaptation (marker),0.019230769230769232,0
Sector ID,Section name,0.16025641025641027,0
Sector ID,Trade development (marker),0.02564102564102564,0
Sector ID,Biodiversity (marker),0.02564102564102564,0
Sector ID,Urban issues (marker),0.02564102564102564,0
Sector ID,Children issues (marker),0.02564102564102564,0
Sector ID,Youth issues (marker),0.02564102564102564,0
Sector ID,Indigenous issues (marker),0.02564102564102564,0
Sector ID,Disability issues (marker),0.02564102564102564,0
Sector ID,ICT as a tool for development (marker),0.019230769230769232,0
Sector ID,Knowledge for development (marker),0.02564102564102564,0
Sector ID,Gender equality (marker),0.02564102564102564,0
Sector ID,Organisation ID,0.46017699115044247,0
Sector ID,Organisation type,0.02564102564102564,0
Sector ID,Organisation sub-class,0.15384615384615385,0
Sector ID,Continent name,0.03205128205128205,0
Sector ID,Project Browser country ID,0.9807692307692307,0
Sector ID,CountryRegion percent,0.3880597014925373,0
Sector ID,Sector name,0.7884615384615384,0
Sector ID,Sector percent,0.8432432432432433,0
Sector ID,Amount spent,0.031075697211155377,0
Enviromental sustainability (marker),Fiscal year,0.3333333333333333,0
Enviromental sustainability (marker),FSTC percent,0.061224489795918366,0
Enviromental sustainability (marker),Section ID,0.12,0
Enviromental sustainability (marker),Participatory development and good governance,0.75,0
Enviromental sustainability (marker),CIDA business delivery model (old),1.0,0
Enviromental sustainability (marker),CountryRegion ID,0.02112676056338028,0
Enviromental sustainability (marker),Organisation class,0.5,0
Enviromental sustainability (marker),Sector ID,0.024390243902439025,0
Enviromental sustainability (marker),Enviromental sustainability (marker),1.0,1
Enviromental sustainability (marker),Organisation name,0.008849557522123894,0
Enviromental sustainability (marker),CountryRegion name,0.020689655172413793,0
Enviromental sustainability (marker),Continent ID,0.6,0
Enviromental sustainability (marker),Climate change adaptation (marker),1.0,0
Enviromental sustainability (marker),Section name,0.12,0
Enviromental sustainability (marker),Trade development (marker),0.75,0
Enviromental sustainability (marker),Biodiversity (marker),0.75,0
Enviromental sustainability (marker),Urban issues (marker),0.75,0
Enviromental sustainability (marker),Children issues (marker),0.75,0
Enviromental sustainability (marker),Youth issues (marker),0.75,0
Enviromental sustainability (marker),Indigenous issues (marker),0.75,0
Enviromental sustainability (marker),Disability issues (marker),0.75,0
Enviromental sustainability (marker),ICT as a tool for development (marker),1.0,0
Enviromental sustainability (marker),Knowledge for development (marker),0.75,0
Enviromental sustainability (marker),Gender equality (marker),0.75,0
Enviromental sustainability (marker),Organisation ID,0.008849557522123894,0
Enviromental sustainability (marker),Organisation type,0.75,0
Enviromental sustainability (marker),Organisation sub-class,0.125,0
Enviromental sustainability (marker),Continent name,0.6,0
Enviromental sustainability (marker),Project Browser country ID,0.0196078431372549,0
Enviromental sustainability (marker),CountryRegion percent,0.007462686567164179,0
Enviromental sustainability (marker),Sector name,0.024390243902439025,0
Enviromental sustainability (marker),Sector percent,0.016216216216216217,0
Enviromental sustainability (marker),Amount spent,0.000597609561752988,0
Organisation name,Fiscal year,9.219138932423711e-05,0
Organisation name,FSTC percent,0.0045173780768876185,0
Organisation name,Section ID,0.002304784733105928,0
Organisation name,Participatory development and good governance,0.00036876555729694845,0
Organisation name,CIDA business delivery model (old),0.00027657416797271134,0
Organisation name,CountryRegion ID,0.013091177284041671,0
Organisation name,Organisation class,0.0005531483359454227,0
Organisation name,Sector ID,0.011339540886881166,0
Organisation name,Enviromental sustainability (marker),0.00027657416797271134,0
Organisation name,Organisation name,0.03125288098091638,1
Organisation name,CountryRegion name,0.013367751452014381,0
Organisation name,Continent ID,0.00046095694662118557,0
Organisation name,Climate change adaptation (marker),0.00027657416797271134,0
Organisation name,Section name,0.002304784733105928,0
Organisation name,Trade development (marker),0.00036876555729694845,0
Organisation name,Biodiversity (marker),0.00036876555729694845,0
Organisation name,Urban issues (marker),0.00036876555729694845,0
Organisation name,Children issues (marker),0.00036876555729694845,0
Organisation name,Youth issues (marker),0.00036876555729694845,0
Organisation name,Indigenous issues (marker),0.00036876555729694845,0
Organisation name,Disability issues (marker),0.00036876555729694845,0
Organisation name,ICT as a tool for development (marker),0.00027657416797271134,0
Organisation name,Knowledge for development (marker),0.00036876555729694845,0
Organisation name,Gender equality (marker),0.00036876555729694845,0
Organisation name,Organisation ID,0.03125288098091638,0
Organisation name,Organisation type,0.00036876555729694845,0
Organisation name,Organisation sub-class,0.0022125933437816907,0
Organisation name,Continent name,0.00046095694662118557,0
Organisation name,Project Browser country ID,0.01410528256660828,0
Organisation name,CountryRegion percent,0.03706093850834332,0
Organisation name,Sector name,0.011339540886881166,0
Organisation name,Sector percent,0.017055407024983867,0
Organisation name,Amount spent,0.4628007744076703,0
CountryRegion name,Fiscal year,0.00016406890894175554,0
CountryRegion name,FSTC percent,0.008039376538146022,0
CountryRegion name,Section ID,0.004101722723543888,0
CountryRegion name,Participatory development and good governance,0.0006562756357670221,0
CountryRegion name,CIDA business delivery model (old),0.0004922067268252667,0
CountryRegion name,CountryRegion ID,0.023297785069729286,0
CountryRegion name,Organisation class,0.0009844134536505333,0
CountryRegion name,Sector ID,0.02018047579983593,0
CountryRegion name,Enviromental sustainability (marker),0.0004922067268252667,0
CountryRegion name,Organisation name,0.055619360131255124,0
CountryRegion name,CountryRegion name,0.02378999179655455,1
CountryRegion name,Continent ID,0.0008203445447087777,0
CountryRegion name,Climate change adaptation (marker),0.0004922067268252667,0
CountryRegion name,Section name,0.004101722723543888,0
CountryRegion name,Trade development (marker),0.0006562756357670221,0
CountryRegion name,Biodiversity (marker),0.0006562756357670221,0
CountryRegion name,Urban issues (marker),0.0006562756357670221,0
CountryRegion name,Children issues (marker),0.0006562756357670221,0
CountryRegion name,Youth issues (marker),0.0006562756357670221,0
CountryRegion name,Indigenous issues (marker),0.0006562756357670221,0
CountryRegion name,Disability issues (marker),0.0006562756357670221,0
CountryRegion name,ICT as a tool for development (marker),0.0004922067268252667,0
CountryRegion name,Knowledge for development (marker),0.0006562756357670221,0
CountryRegion name,Gender equality (marker),0.0006562756357670221,0
CountryRegion name,Organisation ID,0.055619360131255124,0
CountryRegion name,Organisation type,0.0006562756357670221,0
CountryRegion name,Organisation sub-class,0.003937653814602133,0
CountryRegion name,Continent name,0.0008203445447087777,0
CountryRegion name,Project Browser country ID,0.0251025430680886,0
CountryRegion name,CountryRegion percent,0.06595570139458573,0
CountryRegion name,Sector name,0.02018047579983593,0
CountryRegion name,Sector percent,0.030352748154224774,0
CountryRegion name,Amount spent,0.8236259228876128,0
Continent ID,Fiscal year,0.2,0
Continent ID,FSTC percent,0.10204081632653061,0
Continent ID,Section ID,0.2,0
Continent ID,Participatory development and good governance,0.8,0
Continent ID,CIDA business delivery model (old),0.6,0
Continent ID,CountryRegion ID,0.035211267605633804,0
Continent ID,Organisation class,0.8333333333333334,0
Continent ID,Sector ID,0.04065040650406504,0
Continent ID,Enviromental sustainability (marker),0.6,0
Continent ID,Organisation name,0.014749262536873156,0
Continent ID,CountryRegion name,0.034482758620689655,0
Continent ID,Continent ID,1.0,1
Continent ID,Climate change adaptation (marker),0.6,0
Continent ID,Section name,0.2,0
Continent ID,Trade development (marker),0.8,0
Continent ID,Biodiversity (marker),0.8,0
Continent ID,Urban issues (marker),0.8,0
Continent ID,Children issues (marker),0.8,0
Continent ID,Youth issues (marker),0.8,0
Continent ID,Indigenous issues (marker),0.8,0
Continent ID,Disability issues (marker),0.8,0
Continent ID,ICT as a tool for development (marker),0.6,0
Continent ID,Knowledge for development (marker),0.8,0
Continent ID,Gender equality (marker),0.8,0
Continent ID,Organisation ID,0.014749262536873156,0
Continent ID,Organisation type,0.8,0
Continent ID,Organisation sub-class,0.20833333333333334,0
Continent ID,Continent name,1.0,0
Continent ID,Project Browser country ID,0.032679738562091505,0
Continent ID,CountryRegion percent,0.012437810945273632,0
Continent ID,Sector name,0.04065040650406504,0
Continent ID,Sector percent,0.02702702702702703,0
Continent ID,Amount spent,0.00099601593625498,0
Climate change adaptation (marker),Fiscal year,0.3333333333333333,0
Climate change adaptation (marker),FSTC percent,0.061224489795918366,0
Climate change adaptation (marker),Section ID,0.12,0
Climate change adaptation (marker),Participatory development and good governance,0.75,0
Climate change adaptation (marker),CIDA business delivery model (old),1.0,0
Climate change adaptation (marker),CountryRegion ID,0.02112676056338028,0
Climate change adaptation (marker),Organisation class,0.5,0
Climate change adaptation (marker),Sector ID,0.024390243902439025,0
Climate change adaptation (marker),Enviromental sustainability (marker),1.0,0
Climate change adaptation (marker),Organisation name,0.008849557522123894,0
Climate change adaptation (marker),CountryRegion name,0.020689655172413793,0
Climate change adaptation (marker),Continent ID,0.6,0
Climate change adaptation (marker),Climate change adaptation (marker),1.0,1
Climate change adaptation (marker),Section name,0.12,0
Climate change adaptation (marker),Trade development (marker),0.75,0
Climate change adaptation (marker),Biodiversity (marker),0.75,0
Climate change adaptation (marker),Urban issues (marker),0.75,0
Climate change adaptation (marker),Children issues (marker),0.75,0
Climate change adaptation (marker),Youth issues (marker),0.75,0
Climate change adaptation (marker),Indigenous issues (marker),0.75,0
Climate change adaptation (marker),Disability issues (marker),0.75,0
Climate change adaptation (marker),ICT as a tool for development (marker),1.0,0
Climate change adaptation (marker),Knowledge for development (marker),0.75,0
Climate change adaptation (marker),Gender equality (marker),0.75,0
Climate change adaptation (marker),Organisation ID,0.008849557522123894,0
Climate change adaptation (marker),Organisation type,0.75,0
Climate change adaptation (marker),Organisation sub-class,0.125,0
Climate change adaptation (marker),Continent name,0.6,0
Climate change adaptation (marker),Project Browser country ID,0.0196078431372549,0
Climate change adaptation (marker),CountryRegion percent,0.007462686567164179,0
Climate change adaptation (marker),Sector name,0.024390243902439025,0
Climate change adaptation (marker),Sector percent,0.016216216216216217,0
Climate change adaptation (marker),Amount spent,0.000597609561752988,0
Section name,Fiscal year,8.97827258035554e-05,0
Section name,FSTC percent,0.004399353564374214,0
Section name,Section ID,0.002244568145088885,0
Section name,Participatory development and good governance,0.0003591309032142216,0
Section name,CIDA business delivery model (old),0.00026934817741066616,0
Section name,CountryRegion ID,0.012749147064104866,0
Section name,Organisation class,0.0005386963548213323,0
Section name,Sector ID,0.011043275273837314,0
Section name,Enviromental sustainability (marker),0.00026934817741066616,0
Section name,Organisation name,0.030436344047405278,0
Section name,CountryRegion name,0.013018495241515533,0
Section name,Continent ID,0.000448913629017777,0
Section name,Climate change adaptation (marker),0.00026934817741066616,0
Section name,Section name,0.002244568145088885,1
Section name,Trade development (marker),0.0003591309032142216,0
Section name,Biodiversity (marker),0.0003591309032142216,0
Section name,Urban issues (marker),0.0003591309032142216,0
Section name,Children issues (marker),0.0003591309032142216,0
Section name,Youth issues (marker),0.0003591309032142216,0
Section name,Indigenous issues (marker),0.0003591309032142216,0
Section name,Disability issues (marker),0.0003591309032142216,0
Section name,ICT as a tool for development (marker),0.00026934817741066616,0
Section name,Knowledge for development (marker),0.0003591309032142216,0
Section name,Gender equality (marker),0.0003591309032142216,0
Section name,Organisation ID,0.030436344047405278,0
Section name,Organisation type,0.0003591309032142216,0
Section name,Organisation sub-class,0.0021547854192853293,0
Section name,Continent name,0.000448913629017777,0
Section name,Project Browser country ID,0.013736757047943976,0
Section name,CountryRegion percent,0.03609265577302927,0
Section name,Sector name,0.011043275273837314,0
Section name,Sector percent,0.016609804273657748,0
Section name,Amount spent,0.4507092835338481,0
Trade development (marker),Fiscal year,0.25,0
Trade development (marker),FSTC percent,0.08163265306122448,0
Trade development (marker),Section ID,0.16,0
Trade development (marker),Participatory development and good governance,1.0,0
Trade development (marker),CIDA business delivery model (old),0.75,0
Trade development (marker),CountryRegion ID,0.028169014084507043,0
Trade development (marker),Organisation class,0.6666666666666666,0
Trade development (marker),Sector ID,0.032520325203252036,0
Trade development (marker),Enviromental sustainability (marker),0.75,0
Trade development (marker),Organisation name,0.011799410029498525,0
Trade development (marker),CountryRegion name,0.027586206896551724,0
Trade development (marker),Continent ID,0.8,0
Trade development (marker),Climate change adaptation (marker),0.75,0
Trade development (marker),Section name,0.16,0
Trade development (marker),Trade development (marker),1.0,1
Trade development (marker),Biodiversity (marker),1.0,0
Trade development (marker),Urban issues (marker),1.0,0
Trade development (marker),Children issues (marker),1.0,0
Trade development (marker),Youth issues (marker),1.0,0
Trade development (marker),Indigenous issues (marker),1.0,0
Trade development (marker),Disability issues (marker),1.0,0
Trade development (marker),ICT as a tool for development (marker),0.75,0
Trade development (marker),Knowledge for development (marker),1.0,0
Trade development (marker),Gender equality (marker),1.0,0
Trade development (marker),Organisation ID,0.011799410029498525,0
Trade development (marker),Organisation type,1.0,0
Trade development (marker),Organisation sub-class,0.16666666666666666,0
Trade development (marker),Continent name,0.8,0
Trade development (marker),Project Browser country ID,0.026143790849673203,0
Trade development (marker),CountryRegion percent,0.009950248756218905,0
Trade development (marker),Sector name,0.032520325203252036,0
Trade development (marker),Sector percent,0.021621621621621623,0
Trade development (marker),Amount spent,0.0007968127490039841,0
Project number,Fiscal year,0.0007331378299120235,0
Project number,FSTC percent,0.03592375366568915,0
Project number,Section ID,0.018328445747800588,0
Project number,Participatory development and good governance,0.002932551319648094,0
Project number,CIDA business delivery model (old),0.0021994134897360706,0
Project number,CountryRegion ID,0.10410557184750734,0
Project number,Organisation class,0.004398826979472141,0
Project number,Sector ID,0.09017595307917889,0
Project number,Enviromental sustainability (marker),0.0021994134897360706,0
Project number,Organisation name,0.24853372434017595,0
Project number,CountryRegion name,0.1063049853372434,0
Project number,Continent ID,0.0036656891495601175,0
Project number,Climate change adaptation (marker),0.0021994134897360706,0
Project number,Section name,0.018328445747800588,0
Project number,Trade development (marker),0.002932551319648094,0
Project number,Biodiversity (marker),0.002932551319648094,0
Project number,Urban issues (marker),0.002932551319648094,0
Project number,Children issues (marker),0.002932551319648094,0
Project number,Youth issues (marker),0.002932551319648094,0
Project number,Indigenous issues (marker),0.002932551319648094,0
Project number,Disability issues (marker),0.002932551319648094,0
Project number,ICT as a tool for development (marker),0.0021994134897360706,0
Project number,Knowledge for development (marker),0.002932551319648094,0
Project number,Gender equality (marker),0.002932551319648094,0
Project number,Organisation ID,0.24853372434017595,0
Project number,Organisation type,0.002932551319648094,0
Project number,Organisation sub-class,0.017595307917888565,0
Project number,Continent name,0.0036656891495601175,0
Project number,Project Browser country ID,0.11217008797653959,0
Project number,CountryRegion percent,0.29472140762463345,0
Project number,Sector name,0.09017595307917889,0
Project number,Sector percent,0.13563049853372433,0
Project number,Amount spent,0.27171314741035857,0
Status,Fiscal year,0.3333333333333333,0
Status,FSTC percent,0.061224489795918366,0
Status,Section ID,0.12,0
Status,Participatory development and good governance,0.75,0
Status,CIDA business delivery model (old),1.0,0
Status,CountryRegion ID,0.02112676056338028,0
Status,Organisation class,0.5,0
Status,Sector ID,0.024390243902439025,0
Status,Enviromental sustainability (marker),1.0,0
Status,Organisation name,0.008849557522123894,0
Status,CountryRegion name,0.020689655172413793,0
Status,Continent ID,0.6,0
Status,Climate change adaptation (marker),1.0,0
Status,Section name,0.12,0
Status,Trade development (marker),0.75,0
Status,Biodiversity (marker),0.75,0
Status,Urban issues (marker),0.75,0
Status,Children issues (marker),0.75,0
Status,Youth issues (marker),0.75,0
Status,Indigenous issues (marker),0.75,0
Status,Disability issues (marker),0.75,0
Status,ICT as a tool for development (marker),1.0,0
Status,Knowledge for development (marker),0.75,0
Status,Gender equality (marker),0.75,0
Status,Organisation ID,0.008849557522123894,0
Status,Organisation type,0.75,0
Status,Organisation sub-class,0.125,0
Status,Continent name,0.6,0
Status,Project Browser country ID,0.0196078431372549,0
Status,CountryRegion percent,0.007462686567164179,0
Status,Sector name,0.024390243902439025,0
Status,Sector percent,0.016216216216216217,0
Status,Amount spent,0.000597609561752988,0
Maximum CIDA contribution (project-level),Fiscal year,0.0009132420091324201,0
Maximum CIDA contribution (project-level),FSTC percent,0.04474885844748858,0
Maximum CIDA contribution (project-level),Section ID,0.0228310502283105,0
Maximum CIDA contribution (project-level),Participatory development and good governance,0.0036529680365296802,0
Maximum CIDA contribution (project-level),CIDA business delivery model (old),0.0027397260273972603,0
Maximum CIDA contribution (project-level),CountryRegion ID,0.12968036529680366,0
Maximum CIDA contribution (project-level),Organisation class,0.005479452054794521,0
Maximum CIDA contribution (project-level),Sector ID,0.11232876712328767,0
Maximum CIDA contribution (project-level),Enviromental sustainability (marker),0.0027397260273972603,0
Maximum CIDA contribution (project-level),Organisation name,0.3095890410958904,0
Maximum CIDA contribution (project-level),CountryRegion name,0.1324200913242009,0
Maximum CIDA contribution (project-level),Continent ID,0.0045662100456621,0
Maximum CIDA contribution (project-level),Climate change adaptation (marker),0.0027397260273972603,0
Maximum CIDA contribution (project-level),Section name,0.0228310502283105,0
Maximum CIDA contribution (project-level),Trade development (marker),0.0036529680365296802,0
Maximum CIDA contribution (project-level),Biodiversity (marker),0.0036529680365296802,0
Maximum CIDA contribution (project-level),Urban issues (marker),0.0036529680365296802,0
Maximum CIDA contribution (project-level),Children issues (marker),0.0036529680365296802,0
Maximum CIDA contribution (project-level),Youth issues (marker),0.0036529680365296802,0
Maximum CIDA contribution (project-level),Indigenous issues (marker),0.0036529680365296802,0
Maximum CIDA contribution (project-level),Disability issues (marker),0.0036529680365296802,0
Maximum CIDA contribution (project-level),ICT as a tool for development (marker),0.0027397260273972603,0
Maximum CIDA contribution (project-level),Knowledge for development (marker),0.0036529680365296802,0
Maximum CIDA contribution (project-level),Gender equality (marker),0.0036529680365296802,0
Maximum CIDA contribution (project-level),Organisation ID,0.3095890410958904,0
Maximum CIDA contribution (project-level),Organisation type,0.0036529680365296802,0
Maximum CIDA contribution (project-level),Organisation sub-class,0.021917808219178082,0
Maximum CIDA contribution (project-level),Continent name,0.0045662100456621,0
Maximum CIDA contribution (project-level),Project Browser country ID,0.13972602739726028,0
Maximum CIDA contribution (project-level),CountryRegion percent,0.36712328767123287,0
Maximum CIDA contribution (project-level),Sector name,0.11232876712328767,0
Maximum CIDA contribution (project-level),Sector percent,0.1689497716894977,0
Maximum CIDA contribution (project-level),Amount spent,0.21812749003984064,0
Branch ID,Fiscal year,0.14285714285714285,0
Branch ID,FSTC percent,0.14285714285714285,0
Branch ID,Section ID,0.28,0
Branch ID,Participatory development and good governance,0.5714285714285714,0
Branch ID,CIDA business delivery model (old),0.42857142857142855,0
Branch ID,CountryRegion ID,0.04929577464788732,0
Branch ID,Organisation class,0.8571428571428571,0
Branch ID,Sector ID,0.056910569105691054,0
Branch ID,Enviromental sustainability (marker),0.42857142857142855,0
Branch ID,Organisation name,0.02064896755162242,0
Branch ID,CountryRegion name,0.04827586206896552,0
Branch ID,Continent ID,0.7142857142857143,0
Branch ID,Climate change adaptation (marker),0.42857142857142855,0
Branch ID,Section name,0.28,0
Branch ID,Trade development (marker),0.5714285714285714,0
Branch ID,Biodiversity (marker),0.5714285714285714,0
Branch ID,Urban issues (marker),0.5714285714285714,0
Branch ID,Children issues (marker),0.5714285714285714,0
Branch ID,Youth issues (marker),0.5714285714285714,0
Branch ID,Indigenous issues (marker),0.5714285714285714,0
Branch ID,Disability issues (marker),0.5714285714285714,0
Branch ID,ICT as a tool for development (marker),0.42857142857142855,0
Branch ID,Knowledge for development (marker),0.5714285714285714,0
Branch ID,Gender equality (marker),0.5714285714285714,0
Branch ID,Organisation ID,0.02064896755162242,0
Branch ID,Organisation type,0.5714285714285714,0
Branch ID,Organisation sub-class,0.2916666666666667,0
Branch ID,Continent name,0.7142857142857143,0
Branch ID,Project Browser country ID,0.0457516339869281,0
Branch ID,CountryRegion percent,0.017412935323383085,0
Branch ID,Sector name,0.056910569105691054,0
Branch ID,Sector percent,0.03783783783783784,0
Branch ID,Amount spent,0.0013944223107569722,0
Branch name,Fiscal year,0.14285714285714285,0
Branch name,FSTC percent,0.14285714285714285,0
Branch name,Section ID,0.28,0
Branch name,Participatory development and good governance,0.5714285714285714,0
Branch name,CIDA business delivery model (old),0.42857142857142855,0
Branch name,CountryRegion ID,0.04929577464788732,0
Branch name,Organisation class,0.8571428571428571,0
Branch name,Sector ID,0.056910569105691054,0
Branch name,Enviromental sustainability (marker),0.42857142857142855,0
Branch name,Organisation name,0.02064896755162242,0
Branch name,CountryRegion name,0.04827586206896552,0
Branch name,Continent ID,0.7142857142857143,0
Branch name,Climate change adaptation (marker),0.42857142857142855,0
Branch name,Section name,0.28,0
Branch name,Trade development (marker),0.5714285714285714,0
Branch name,Biodiversity (marker),0.5714285714285714,0
Branch name,Urban issues (marker),0.5714285714285714,0
Branch name,Children issues (marker),0.5714285714285714,0
Branch name,Youth issues (marker),0.5714285714285714,0
Branch name,Indigenous issues (marker),0.5714285714285714,0
Branch name,Disability issues (marker),0.5714285714285714,0
Branch name,ICT as a tool for development (marker),0.42857142857142855,0
Branch name,Knowledge for development (marker),0.5714285714285714,0
Branch name,Gender equality (marker),0.5714285714285714,0
Branch name,Organisation ID,0.02064896755162242,0
Branch name,Organisation type,0.5714285714285714,0
Branch name,Organisation sub-class,0.2916666666666667,0
Branch name,Continent name,0.7142857142857143,0
Branch name,Project Browser country ID,0.0457516339869281,0
Branch name,CountryRegion percent,0.017412935323383085,0
Branch name,Sector name,0.056910569105691054,0
Branch name,Sector percent,0.03783783783783784,0
Branch name,Amount spent,0.0013944223107569722,0
Division ID,Fiscal year,0.058823529411764705,0
Division ID,FSTC percent,0.3469387755102041,0
Division ID,Section ID,0.68,0
Division ID,Participatory development and good governance,0.23529411764705882,0
Division ID,CIDA business delivery model (old),0.17647058823529413,0
Division ID,CountryRegion ID,0.11971830985915492,0
Division ID,Organisation class,0.35294117647058826,0
Division ID,Sector ID,0.13821138211382114,0
Division ID,Enviromental sustainability (marker),0.17647058823529413,0
Division ID,Organisation name,0.05014749262536873,0
Division ID,CountryRegion name,0.11724137931034483,0
Division ID,Continent ID,0.29411764705882354,0
Division ID,Climate change adaptation (marker),0.17647058823529413,0
Division ID,Section name,0.68,0
Division ID,Trade development (marker),0.23529411764705882,0
Division ID,Biodiversity (marker),0.23529411764705882,0
Division ID,Urban issues (marker),0.23529411764705882,0
Division ID,Children issues (marker),0.23529411764705882,0
Division ID,Youth issues (marker),0.23529411764705882,0
Division ID,Indigenous issues (marker),0.23529411764705882,0
Division ID,Disability issues (marker),0.23529411764705882,0
Division ID,ICT as a tool for development (marker),0.17647058823529413,0
Division ID,Knowledge for development (marker),0.23529411764705882,0
Division ID,Gender equality (marker),0.23529411764705882,0
Division ID,Organisation ID,0.05014749262536873,0
Division ID,Organisation type,0.23529411764705882,0
Division ID,Organisation sub-class,0.7083333333333334,0
Division ID,Continent name,0.29411764705882354,0
Division ID,Project Browser country ID,0.1111111111111111,0
Division ID,CountryRegion percent,0.04228855721393035,0
Division ID,Sector name,0.13821138211382114,0
Division ID,Sector percent,0.0918918918918919,0
Division ID,Amount spent,0.003386454183266932,0
Division name,Fiscal year,0.058823529411764705,0
Division name,FSTC percent,0.3469387755102041,0
Division name,Section ID,0.68,0
Division name,Participatory development and good governance,0.23529411764705882,0
Division name,CIDA business delivery model (old),0.17647058823529413,0
Division name,CountryRegion ID,0.11971830985915492,0
Division name,Organisation class,0.35294117647058826,0
Division name,Sector ID,0.13821138211382114,0
Division name,Enviromental sustainability (marker),0.17647058823529413,0
Division name,Organisation name,0.05014749262536873,0
Division name,CountryRegion name,0.11724137931034483,0
Division name,Continent ID,0.29411764705882354,0
Division name,Climate change adaptation (marker),0.17647058823529413,0
Division name,Section name,0.68,0
Division name,Trade development (marker),0.23529411764705882,0
Division name,Biodiversity (marker),0.23529411764705882,0
Division name,Urban issues (marker),0.23529411764705882,0
Division name,Children issues (marker),0.23529411764705882,0
Division name,Youth issues (marker),0.23529411764705882,0
Division name,Indigenous issues (marker),0.23529411764705882,0
Division name,Disability issues (marker),0.23529411764705882,0
Division name,ICT as a tool for development (marker),0.17647058823529413,0
Division name,Knowledge for development (marker),0.23529411764705882,0
Division name,Gender equality (marker),0.23529411764705882,0
Division name,Organisation ID,0.05014749262536873,0
Division name,Organisation type,0.23529411764705882,0
Division name,Organisation sub-class,0.7083333333333334,0
Division name,Continent name,0.29411764705882354,0
Division name,Project Browser country ID,0.1111111111111111,0
Division name,CountryRegion percent,0.04228855721393035,0
Division name,Sector name,0.13821138211382114,0
Division name,Sector percent,0.0918918918918919,0
Division name,Amount spent,0.003386454183266932,0
Regional program (marker),Fiscal year,0.5,0
Regional program (marker),FSTC percent,0.04081632653061224,0
Regional program (marker),Section ID,0.08,0
Regional program (marker),Participatory development and good governance,0.5,0
Regional program (marker),CIDA business delivery model (old),0.6666666666666666,0
Regional program (marker),CountryRegion ID,0.014084507042253521,0
Regional program (marker),Organisation class,0.3333333333333333,0
Regional program (marker),Sector ID,0.016260162601626018,0
Regional program (marker),Enviromental sustainability (marker),0.6666666666666666,0
Regional program (marker),Organisation name,0.0058997050147492625,0
Regional program (marker),CountryRegion name,0.013793103448275862,0
Regional program (marker),Continent ID,0.4,0
Regional program (marker),Climate change adaptation (marker),0.6666666666666666,0
Regional program (marker),Section name,0.08,0
Regional program (marker),Trade development (marker),0.5,0
Regional program (marker),Biodiversity (marker),0.5,0
Regional program (marker),Urban issues (marker),0.5,0
Regional program (marker),Children issues (marker),0.5,0
Regional program (marker),Youth issues (marker),0.5,0
Regional program (marker),Indigenous issues (marker),0.5,0
Regional program (marker),Disability issues (marker),0.5,0
Regional program (marker),ICT as a tool for development (marker),0.6666666666666666,0
Regional program (marker),Knowledge for development (marker),0.5,0
Regional program (marker),Gender equality (marker),0.5,0
Regional program (marker),Organisation ID,0.0058997050147492625,0
Regional program (marker),Organisation type,0.5,0
Regional program (marker),Organisation sub-class,0.08333333333333333,0
Regional program (marker),Continent name,0.4,0
Regional program (marker),Project Browser country ID,0.013071895424836602,0
Regional program (marker),CountryRegion percent,0.004975124378109453,0
Regional program (marker),Sector name,0.016260162601626018,0
Regional program (marker),Sector percent,0.010810810810810811,0
Regional program (marker),Amount spent,0.00039840637450199205,0
Fund centre ID,Fiscal year,0.006172839506172839,0
Fund centre ID,FSTC percent,0.30246913580246915,0
Fund centre ID,Section ID,0.15432098765432098,0
Fund centre ID,Participatory development and good governance,0.024691358024691357,0
Fund centre ID,CIDA business delivery model (old),0.018518518518518517,0
Fund centre ID,CountryRegion ID,0.8765432098765432,0
Fund centre ID,Organisation class,0.037037037037037035,0
Fund centre ID,Sector ID,0.7592592592592593,0
Fund centre ID,Enviromental sustainability (marker),0.018518518518518517,0
Fund centre ID,Organisation name,0.4778761061946903,0
Fund centre ID,CountryRegion name,0.8950617283950617,0
Fund centre ID,Continent ID,0.030864197530864196,0
Fund centre ID,Climate change adaptation (marker),0.018518518518518517,0
Fund centre ID,Section name,0.15432098765432098,0
Fund centre ID,Trade development (marker),0.024691358024691357,0
Fund centre ID,Biodiversity (marker),0.024691358024691357,0
Fund centre ID,Urban issues (marker),0.024691358024691357,0
Fund centre ID,Children issues (marker),0.024691358024691357,0
Fund centre ID,Youth issues (marker),0.024691358024691357,0
Fund centre ID,Indigenous issues (marker),0.024691358024691357,0
Fund centre ID,Disability issues (marker),0.024691358024691357,0
Fund centre ID,ICT as a tool for development (marker),0.018518518518518517,0
Fund centre ID,Knowledge for development (marker),0.024691358024691357,0
Fund centre ID,Gender equality (marker),0.024691358024691357,0
Fund centre ID,Organisation ID,0.4778761061946903,0
Fund centre ID,Organisation type,0.024691358024691357,0
Fund centre ID,Organisation sub-class,0.14814814814814814,0
Fund centre ID,Continent name,0.030864197530864196,0
Fund centre ID,Project Browser country ID,0.9444444444444444,0
Fund centre ID,CountryRegion percent,0.40298507462686567,0
Fund centre ID,Sector name,0.7592592592592593,0
Fund centre ID,Sector percent,0.8756756756756757,0
Fund centre ID,Amount spent,0.03227091633466136,0
Fund centre name,Fiscal year,0.006172839506172839,0
Fund centre name,FSTC percent,0.30246913580246915,0
Fund centre name,Section ID,0.15432098765432098,0
Fund centre name,Participatory development and good governance,0.024691358024691357,0
Fund centre name,CIDA business delivery model (old),0.018518518518518517,0
Fund centre name,CountryRegion ID,0.8765432098765432,0
Fund centre name,Organisation class,0.037037037037037035,0
Fund centre name,Sector ID,0.7592592592592593,0
Fund centre name,Enviromental sustainability (marker),0.018518518518518517,0
Fund centre name,Organisation name,0.4778761061946903,0
Fund centre name,CountryRegion name,0.8950617283950617,0
Fund centre name,Continent ID,0.030864197530864196,0
Fund centre name,Climate change adaptation (marker),0.018518518518518517,0
Fund centre name,Section name,0.15432098765432098,0
Fund centre name,Trade development (marker),0.024691358024691357,0
Fund centre name,Biodiversity (marker),0.024691358024691357,0
Fund centre name,Urban issues (marker),0.024691358024691357,0
Fund centre name,Children issues (marker),0.024691358024691357,0
Fund centre name,Youth issues (marker),0.024691358024691357,0
Fund centre name,Indigenous issues (marker),0.024691358024691357,0
Fund centre name,Disability issues (marker),0.024691358024691357,0
Fund centre name,ICT as a tool for development (marker),0.018518518518518517,0
Fund centre name,Knowledge for development (marker),0.024691358024691357,0
Fund centre name,Gender equality (marker),0.024691358024691357,0
Fund centre name,Organisation ID,0.4778761061946903,0
Fund centre name,Organisation type,0.024691358024691357,0
Fund centre name,Organisation sub-class,0.14814814814814814,0
Fund centre name,Continent name,0.030864197530864196,0
Fund centre name,Project Browser country ID,0.9444444444444444,0
Fund centre name,CountryRegion percent,0.40298507462686567,0
Fund centre name,Sector name,0.7592592592592593,0
Fund centre name,Sector percent,0.8756756756756757,0
Fund centre name,Amount spent,0.03227091633466136,0
Untied amount(Project-level budget),Fiscal year,0.0011641443538998836,0
Untied amount(Project-level budget),FSTC percent,0.0570430733410943,0
Untied amount(Project-level budget),Section ID,0.02910360884749709,0
Untied amount(Project-level budget),Participatory development and good governance,0.004656577415599534,0
Untied amount(Project-level budget),CIDA business delivery model (old),0.0034924330616996507,0
Untied amount(Project-level budget),CountryRegion ID,0.16530849825378346,0
Untied amount(Project-level budget),Organisation class,0.006984866123399301,0
Untied amount(Project-level budget),Sector ID,0.14318975552968569,0
Untied amount(Project-level budget),Enviromental sustainability (marker),0.0034924330616996507,0
Untied amount(Project-level budget),Organisation name,0.3946449359720605,0
Untied amount(Project-level budget),CountryRegion name,0.16880093131548313,0
Untied amount(Project-level budget),Continent ID,0.005820721769499418,0
Untied amount(Project-level budget),Climate change adaptation (marker),0.0034924330616996507,0
Untied amount(Project-level budget),Section name,0.02910360884749709,0
Untied amount(Project-level budget),Trade development (marker),0.004656577415599534,0
Untied amount(Project-level budget),Biodiversity (marker),0.004656577415599534,0
Untied amount(Project-level budget),Urban issues (marker),0.004656577415599534,0
Untied amount(Project-level budget),Children issues (marker),0.004656577415599534,0
Untied amount(Project-level budget),Youth issues (marker),0.004656577415599534,0
Untied amount(Project-level budget),Indigenous issues (marker),0.004656577415599534,0
Untied amount(Project-level budget),Disability issues (marker),0.004656577415599534,0
Untied amount(Project-level budget),ICT as a tool for development (marker),0.0034924330616996507,0
Untied amount(Project-level budget),Knowledge for development (marker),0.004656577415599534,0
Untied amount(Project-level budget),Gender equality (marker),0.004656577415599534,0
Untied amount(Project-level budget),Organisation ID,0.3946449359720605,0
Untied amount(Project-level budget),Organisation type,0.004656577415599534,0
Untied amount(Project-level budget),Organisation sub-class,0.027939464493597205,0
Untied amount(Project-level budget),Continent name,0.005820721769499418,0
Untied amount(Project-level budget),Project Browser country ID,0.1781140861466822,0
Untied amount(Project-level budget),CountryRegion percent,0.4679860302677532,0
Untied amount(Project-level budget),Sector name,0.14318975552968569,0
Untied amount(Project-level budget),Sector percent,0.21536670547147846,0
Untied amount(Project-level budget),Amount spent,0.1711155378486056,0
IRTC percent,Fiscal year,0.25,0
IRTC percent,FSTC percent,0.08163265306122448,0
IRTC percent,Section ID,0.16,0
IRTC percent,Participatory development and good governance,1.0,0
IRTC percent,CIDA business delivery model (old),0.75,0
IRTC percent,CountryRegion ID,0.028169014084507043,0
IRTC percent,Organisation class,0.6666666666666666,0
IRTC percent,Sector ID,0.032520325203252036,0
IRTC percent,Enviromental sustainability (marker),0.75,0
IRTC percent,Organisation name,0.011799410029498525,0
IRTC percent,CountryRegion name,0.027586206896551724,0
IRTC percent,Continent ID,0.8,0
IRTC percent,Climate change adaptation (marker),0.75,0
IRTC percent,Section name,0.16,0
IRTC percent,Trade development (marker),1.0,0
IRTC percent,Biodiversity (marker),1.0,0
IRTC percent,Urban issues (marker),1.0,0
IRTC percent,Children issues (marker),1.0,0
IRTC percent,Youth issues (marker),1.0,0
IRTC percent,Indigenous issues (marker),1.0,0
IRTC percent,Disability issues (marker),1.0,0
IRTC percent,ICT as a tool for development (marker),0.75,0
IRTC percent,Knowledge for development (marker),1.0,0
IRTC percent,Gender equality (marker),1.0,0
IRTC percent,Organisation ID,0.011799410029498525,0
IRTC percent,Organisation type,1.0,0
IRTC percent,Organisation sub-class,0.16666666666666666,0
IRTC percent,Continent name,0.8,0
IRTC percent,Project Browser country ID,0.026143790849673203,0
IRTC percent,CountryRegion percent,0.009950248756218905,0
IRTC percent,Sector name,0.032520325203252036,0
IRTC percent,Sector percent,0.021621621621621623,0
IRTC percent,Amount spent,0.0007968127490039841,0
CFLI (marker),Fiscal year,0.5,0
CFLI (marker),FSTC percent,0.04081632653061224,0
CFLI (marker),Section ID,0.08,0
CFLI (marker),Participatory development and good governance,0.5,0
CFLI (marker),CIDA business delivery model (old),0.6666666666666666,0
CFLI (marker),CountryRegion ID,0.014084507042253521,0
CFLI (marker),Organisation class,0.3333333333333333,0
CFLI (marker),Sector ID,0.016260162601626018,0
CFLI (marker),Enviromental sustainability (marker),0.6666666666666666,0
CFLI (marker),Organisation name,0.0058997050147492625,0
CFLI (marker),CountryRegion name,0.013793103448275862,0
CFLI (marker),Continent ID,0.4,0
CFLI (marker),Climate change adaptation (marker),0.6666666666666666,0
CFLI (marker),Section name,0.08,0
CFLI (marker),Trade development (marker),0.5,0
CFLI (marker),Biodiversity (marker),0.5,0
CFLI (marker),Urban issues (marker),0.5,0
CFLI (marker),Children issues (marker),0.5,0
CFLI (marker),Youth issues (marker),0.5,0
CFLI (marker),Indigenous issues (marker),0.5,0
CFLI (marker),Disability issues (marker),0.5,0
CFLI (marker),ICT as a tool for development (marker),0.6666666666666666,0
CFLI (marker),Knowledge for development (marker),0.5,0
CFLI (marker),Gender equality (marker),0.5,0
CFLI (marker),Organisation ID,0.0058997050147492625,0
CFLI (marker),Organisation type,0.5,0
CFLI (marker),Organisation sub-class,0.08333333333333333,0
CFLI (marker),Continent name,0.4,0
CFLI (marker),Project Browser country ID,0.013071895424836602,0
CFLI (marker),CountryRegion percent,0.004975124378109453,0
CFLI (marker),Sector name,0.016260162601626018,0
CFLI (marker),Sector percent,0.010810810810810811,0
CFLI (marker),Amount spent,0.00039840637450199205,0
Programming process (new),Fiscal year,1.0,0
Programming process (new),FSTC percent,0.02040816326530612,0
Programming process (new),Section ID,0.04,0
Programming process (new),Participatory development and good governance,0.25,0
Programming process (new),CIDA business delivery model (old),0.3333333333333333,0
Programming process (new),CountryRegion ID,0.007042253521126761,0
Programming process (new),Organisation class,0.16666666666666666,0
Programming process (new),Sector ID,0.008130081300813009,0
Programming process (new),Enviromental sustainability (marker),0.3333333333333333,0
Programming process (new),Organisation name,0.0029498525073746312,0
Programming process (new),CountryRegion name,0.006896551724137931,0
Programming process (new),Continent ID,0.2,0
Programming process (new),Climate change adaptation (marker),0.3333333333333333,0
Programming process (new),Section name,0.04,0
Programming process (new),Trade development (marker),0.25,0
Programming process (new),Biodiversity (marker),0.25,0
Programming process (new),Urban issues (marker),0.25,0
Programming process (new),Children issues (marker),0.25,0
Programming process (new),Youth issues (marker),0.25,0
Programming process (new),Indigenous issues (marker),0.25,0
Programming process (new),Disability issues (marker),0.25,0
Programming process (new),ICT as a tool for development (marker),0.3333333333333333,0
Programming process (new),Knowledge for development (marker),0.25,0
Programming process (new),Gender equality (marker),0.25,0
Programming process (new),Organisation ID,0.0029498525073746312,0
Programming process (new),Organisation type,0.25,0
Programming process (new),Organisation sub-class,0.041666666666666664,0
Programming process (new),Continent name,0.2,0
Programming process (new),Project Browser country ID,0.006535947712418301,0
Programming process (new),CountryRegion percent,0.0024875621890547263,0
Programming process (new),Sector name,0.008130081300813009,0
Programming process (new),Sector percent,0.005405405405405406,0
Programming process (new),Amount spent,0.00019920318725099602,0
Bilateral aid (international marker),Fiscal year,0.5,0
Bilateral aid (international marker),FSTC percent,0.04081632653061224,0
Bilateral aid (international marker),Section ID,0.08,0
Bilateral aid (international marker),Participatory development and good governance,0.5,0
Bilateral aid (international marker),CIDA business delivery model (old),0.6666666666666666,0
Bilateral aid (international marker),CountryRegion ID,0.014084507042253521,0
Bilateral aid (international marker),Organisation class,0.3333333333333333,0
Bilateral aid (international marker),Sector ID,0.016260162601626018,0
Bilateral aid (international marker),Enviromental sustainability (marker),0.6666666666666666,0
Bilateral aid (international marker),Organisation name,0.0058997050147492625,0
Bilateral aid (international marker),CountryRegion name,0.013793103448275862,0
Bilateral aid (international marker),Continent ID,0.4,0
Bilateral aid (international marker),Climate change adaptation (marker),0.6666666666666666,0
Bilateral aid (international marker),Section name,0.08,0
Bilateral aid (international marker),Trade development (marker),0.5,0
