source,target,conf,realConf
Fiscal year,fsclr,0.042465095208183264,1
Fiscal year,dsrtfctn(mrkr),0.03184405891582313,0
Fiscal year,prjctnmbr,0.030284464025221575,0
Fiscal year,ntdmnt(prjct-lvlbdgt),0.027099860086420294,0
Fiscal year,ndgnssss(mrkr),0.02859589060036668,0
Fiscal year,sctrd,0.037325342948155885,0
Fiscal year,ctstlfrdvlpmnt(mrkr),0.0299580257003968,0
Fiscal year,fndcntrd,0.030647365325918118,0
Fiscal year,chldrnsss(mrkr),0.03146927026403969,0
Fiscal year,prgrmmngprcss(nw),0.025064193518238,0
Fiscal year,knwldgfrdvlpmnt(mrkr),0.027174816962354485,0
Fiscal year,dvsnnm,0.026940761347545826,0
Fiscal year,mxmmcdcntrbtn(prjct-lvl),0.026664837544171666,0
Fiscal year,cntrrgnprcnt,0.029085832561903172,0
Fiscal year,stts,0.027577657095674536,0
Fiscal year,brnchd,0.026940761347545826,0
Fiscal year,trddvlpmnt(mrkr),0.028114680479558316,0
Fiscal year,cntnntnm,0.02643794891481262,0
Fiscal year,rgnstnclss,0.03376464436321063,0
Fiscal year,cntrrgnd,0.030711854593044794,0
Fiscal year,pbtp,0.022164043236580458,0
Fiscal year,rgnlprgrm(mrkr),0.028346031499177724,0
Fiscal year,bdvrst(mrkr),0.029160789437837363,0
Fiscal year,cntnntd,0.026610898852032185,0
Fiscal year,cntrrgnnm,0.030284464025221575,0
Fiscal year,prtcptrdvlpmntndgdgvrnnc,0.029059914645431888,0
Fiscal year,rbnsss(mrkr),0.029160789437837363,0
Fiscal year,thsss(mrkr),0.029481754686400255,0
Fiscal year,dsbltsss(mrkr),0.03184405891582313,0
Fiscal year,gndrqlt(mrkr),0.02886657129332138,0
Fiscal year,rgnstnd,0.02667538811915886,0
Fiscal year,rgnstnnm,0.02643794891481262,0
Fiscal year,rgnstntp,0.02643794891481262,0
Fiscal year,rgnstnsb-clss,0.03231456922238186,0
Fiscal year,prjctbrwsrcntrd,0.03153375953116636,0
Fiscal year,sctrnm,0.03649419756947655,0
Fiscal year,sctrprcnt,0.03420522827648127,0
Fiscal year,mntspnt,0.026535941976097998,0
Desertification (marker),fsclr,0.03049820442349342,0
Desertification (marker),dsrtfctn(mrkr),0.04996537757306746,1
Desertification (marker),prjctnmbr,0.0368621705587921,0
Desertification (marker),ntdmnt(prjct-lvlbdgt),0.031055924432404437,0
Desertification (marker),ndgnssss(mrkr),0.037143660538370954,0
Desertification (marker),sctrd,0.03338557106268405,0
Desertification (marker),ctstlfrdvlpmnt(mrkr),0.04064049245692455,0
Desertification (marker),fndcntrd,0.03233551665035977,0
Desertification (marker),chldrnsss(mrkr),0.03884226407715553,0
Desertification (marker),prgrmmngprcss(nw),0.03002013086991488,0
Desertification (marker),knwldgfrdvlpmnt(mrkr),0.036621294288809246,0
Desertification (marker),dvsnnm,0.030218189913540274,0
Desertification (marker),mxmmcdcntrbtn(prjct-lvl),0.03218376065304904,0
Desertification (marker),cntrrgnprcnt,0.031055924432404437,0
Desertification (marker),stts,0.030798219969871785,0
Desertification (marker),brnchd,0.027511382983993235,0
Desertification (marker),trddvlpmnt(mrkr),0.0384258322418406,0
Desertification (marker),cntnntnm,0.03224829511070055,0
Desertification (marker),rgnstnclss,0.029262846291347205,0
Desertification (marker),cntrrgnd,0.03224829511070055,0
Desertification (marker),pbtp,0.0249979194065567,0
Desertification (marker),rgnlprgrm(mrkr),0.03884226407715553,0
Desertification (marker),bdvrst(mrkr),0.04023037019487196,0
Desertification (marker),cntnntd,0.030043462395501385,0
Desertification (marker),cntrrgnnm,0.03194070341416112,0
Desertification (marker),prtcptrdvlpmntndgdgvrnnc,0.03233551665035977,0
Desertification (marker),rbnsss(mrkr),0.04023037019487196,0
Desertification (marker),thsss(mrkr),0.0384258322418406,0
Desertification (marker),dsbltsss(mrkr),0.03928061337748704,0
Desertification (marker),gndrqlt(mrkr),0.03974265723459322,0
Desertification (marker),rgnstnd,0.029956240855842177,0
Desertification (marker),rgnstnnm,0.03224829511070055,0
Desertification (marker),rgnstntp,0.029710663614250205,0
Desertification (marker),rgnstnsb-clss,0.028681894088662226,0
Desertification (marker),prjctbrwsrcntrd,0.03250856500777239,0
Desertification (marker),sctrnm,0.03563180377263436,0
Desertification (marker),sctrprcnt,0.0343369025288251,0
Desertification (marker),mntspnt,0.02727221582120965,0
Project number,fsclr,0.030711854593044794,0
Project number,dsrtfctn(mrkr),0.039500455659399046,0
Project number,prjctnmbr,0.05040898511011479,1
Project number,ntdmnt(prjct-lvlbdgt),0.03362519822014976,0
Project number,ndgnssss(mrkr),0.03080000481442641,0
Project number,sctrd,0.03492127100415029,0
Project number,ctstlfrdvlpmnt(mrkr),0.03404134924686719,0
Project number,fndcntrd,0.033172855044873495,0
Project number,chldrnsss(mrkr),0.03330013436757946,0
Project number,prgrmmngprcss(nw),0.030022514967523475,0
Project number,knwldgfrdvlpmnt(mrkr),0.031380034870757925,0
Project number,dvsnnm,0.030284464025221575,0
Project number,mxmmcdcntrbtn(prjct-lvl),0.03057240844998393,0
Project number,cntrrgnprcnt,0.03451755215296747,0
Project number,stts,0.02667538811915886,0
Project number,brnchd,0.030284464025221575,0
Project number,trddvlpmnt(mrkr),0.032926781687641946,0
Project number,cntnntnm,0.036928444670473404,0
Project number,rgnstnclss,0.03231456922238186,0
Project number,cntrrgnd,0.03323734431200017,0
Project number,pbtp,0.02667538811915886,0
Project number,rgnlprgrm(mrkr),0.03330013436757946,0
Project number,bdvrst(mrkr),0.034592509028901666,0
Project number,cntnntd,0.033700155096083956,0
Project number,cntrrgnnm,0.03628651417334762,0
Project number,prtcptrdvlpmntndgdgvrnnc,0.0327843181650342,0
Project number,rbnsss(mrkr),0.034592509028901666,0
Project number,thsss(mrkr),0.03184405891582313,0
Project number,dsbltsss(mrkr),0.03080000481442641,0
Project number,gndrqlt(mrkr),0.03412980698966285,0
Project number,rgnstnd,0.03376464436321063,0
Project number,rgnstnnm,0.036928444670473404,0
Project number,rgnstntp,0.03323734431200017,0
Project number,rgnstnsb-clss,0.034194296256789526,0
Project number,prjctbrwsrcntrd,0.03896491383376898,0
Project number,sctrnm,0.0384048848138627,0
Project number,sctrprcnt,0.032616450296094966,0
Project number,mntspnt,0.02975833117793971,0
Untied amount(Project-level budget),fsclr,0.026084752022103082,0
Untied amount(Project-level budget),dsrtfctn(mrkr),0.03031663085097603,0
Untied amount(Project-level budget),prjctnmbr,0.031252292523965615,0
Untied amount(Project-level budget),ntdmnt(prjct-lvlbdgt),0.05121651020380009,1
Untied amount(Project-level budget),ndgnssss(mrkr),0.03197385958335176,0
Untied amount(Project-level budget),sctrd,0.028120802780578172,0
Untied amount(Project-level budget),ctstlfrdvlpmnt(mrkr),0.03384200833621169,0
Untied amount(Project-level budget),fndcntrd,0.03336130689417797,0
Untied amount(Project-level budget),chldrnsss(mrkr),0.03015090797773845,0
Untied amount(Project-level budget),prgrmmngprcss(nw),0.029832638539937447,0
Untied amount(Project-level budget),knwldgfrdvlpmnt(mrkr),0.0336310883157275,0
Untied amount(Project-level budget),dvsnnm,0.025985722500290385,0
Untied amount(Project-level budget),mxmmcdcntrbtn(prjct-lvl),0.04010745997236611,0
Untied amount(Project-level budget),cntrrgnprcnt,0.032581502011021835,0
Untied amount(Project-level budget),stts,0.026188859980931813,0
Untied amount(Project-level budget),brnchd,0.027966312936544318,0
Untied amount(Project-level budget),trddvlpmnt(mrkr),0.03476840215167163,0
Untied amount(Project-level budget),cntnntnm,0.02957842143116961,0
Untied amount(Project-level budget),rgnstnclss,0.03104723139293932,0
Untied amount(Project-level budget),cntrrgnd,0.02957842143116961,0
Untied amount(Project-level budget),pbtp,0.026188859980931813,0
Untied amount(Project-level budget),rgnlprgrm(mrkr),0.03015090797773845,0
Untied amount(Project-level budget),bdvrst(mrkr),0.030669232708928306,0
Untied amount(Project-level budget),cntnntd,0.03169765479462248,0
Untied amount(Project-level budget),cntrrgnnm,0.029406742344728995,0
Untied amount(Project-level budget),prtcptrdvlpmntndgdgvrnnc,0.03166488473494273,0
Untied amount(Project-level budget),rbnsss(mrkr),0.028941483604962116,0
Untied amount(Project-level budget),thsss(mrkr),0.02909172265748091,0
Untied amount(Project-level budget),dsbltsss(mrkr),0.03031663085097603,0
Untied amount(Project-level budget),gndrqlt(mrkr),0.032181013174898736,0
Untied amount(Project-level budget),rgnstnd,0.029758275712202638,0
Untied amount(Project-level budget),rgnstnnm,0.027689951480322838,0
Untied amount(Project-level budget),rgnstntp,0.02957842143116961,0
Untied amount(Project-level budget),rgnstnsb-clss,0.030483313282617025,0
Untied amount(Project-level budget),prjctbrwsrcntrd,0.03176904657415187,0
Untied amount(Project-level budget),sctrnm,0.025985722500290385,0
Untied amount(Project-level budget),sctrprcnt,0.029597208104171123,0
Untied amount(Project-level budget),mntspnt,0.029948741471644766,0
Indigenous issues (marker),fsclr,0.02733675027886117,0
Indigenous issues (marker),dsrtfctn(mrkr),0.0384258322418406,0
Indigenous issues (marker),prjctnmbr,0.029058129800877255,0
Indigenous issues (marker),ntdmnt(prjct-lvlbdgt),0.032399729291044815,0
Indigenous issues (marker),ndgnssss(mrkr),0.05060646342480228,1
Indigenous issues (marker),sctrd,0.027423971818520375,0
Indigenous issues (marker),ctstlfrdvlpmnt(mrkr),0.03630746160132553,0
Indigenous issues (marker),fndcntrd,0.0317384268864891,0
Indigenous issues (marker),chldrnsss(mrkr),0.04397148546335161,0
Indigenous issues (marker),prgrmmngprcss(nw),0.03342858882997979,0
Indigenous issues (marker),knwldgfrdvlpmnt(mrkr),0.039462481704220315,0
Indigenous issues (marker),dvsnnm,0.029710663614250205,0
Indigenous issues (marker),mxmmcdcntrbtn(prjct-lvl),0.03015365545588876,0
Indigenous issues (marker),cntrrgnprcnt,0.030581046023711977,0
Indigenous issues (marker),stts,0.027511382983993235,0
Indigenous issues (marker),brnchd,0.027173032117799856,0
Indigenous issues (marker),trddvlpmnt(mrkr),0.03765245883339859,0
Indigenous issues (marker),cntnntnm,0.029262846291347205,0
Indigenous issues (marker),rgnstnclss,0.033376131331345156,0
Indigenous issues (marker),cntrrgnd,0.029262846291347205,0
Indigenous issues (marker),pbtp,0.022097769124899153,0
Indigenous issues (marker),rgnlprgrm(mrkr),0.03802971415458982,0
Indigenous issues (marker),bdvrst(mrkr),0.03928061337748704,0
Indigenous issues (marker),cntnntd,0.027106457809189348,0
Indigenous issues (marker),cntrrgnnm,0.031378250026203286,0
Indigenous issues (marker),prtcptrdvlpmntndgdgvrnnc,0.02868132729547126,0
Indigenous issues (marker),rbnsss(mrkr),0.04355451905571921,0
Indigenous issues (marker),thsss(mrkr),0.041937365555847574,0
Indigenous issues (marker),dsbltsss(mrkr),0.044516147833321446,0
Indigenous issues (marker),gndrqlt(mrkr),0.03884226407715553,0
Indigenous issues (marker),rgnstnd,0.029479969841845626,0
Indigenous issues (marker),rgnstnnm,0.031651205346829886,0
Indigenous issues (marker),rgnstntp,0.029262846291347205,0
Indigenous issues (marker),rgnstnsb-clss,0.034590724184347034,0
Indigenous issues (marker),prjctbrwsrcntrd,0.028039540433660953,0
Indigenous issues (marker),sctrnm,0.027173032117799856,0
Indigenous issues (marker),sctrprcnt,0.02899359534322574,0
Indigenous issues (marker),mntspnt,0.026954701811878617,0
Sector ID,fsclr,0.03369837025152933,0
Sector ID,dsrtfctn(mrkr),0.03277684386713374,0
Sector ID,prjctnmbr,0.03563180377263436,0
Sector ID,ntdmnt(prjct-lvlbdgt),0.02744684852634172,0
Sector ID,ndgnssss(mrkr),0.02571560839875016,0
Sector ID,sctrd,0.039585892354503625,1
Sector ID,ctstlfrdvlpmnt(mrkr),0.030585425963152627,0
Sector ID,fndcntrd,0.03651514499745446,0
Sector ID,chldrnsss(mrkr),0.02895200798842596,0
Sector ID,prgrmmngprcss(nw),0.02522100788976112,0
Sector ID,knwldgfrdvlpmnt(mrkr),0.027598604523652447,0
Sector ID,dvsnnm,0.022097769124899153,0
Sector ID,mxmmcdcntrbtn(prjct-lvl),0.02941543538419411,0
Sector ID,cntrrgnprcnt,0.033633835793877805,0
Sector ID,stts,0.028344246654623095,0
Sector ID,brnchd,0.027511382983993235,0
Sector ID,trddvlpmnt(mrkr),0.02868132729547126,0
Sector ID,cntnntnm,0.031651205346829886,0
Sector ID,rgnstnclss,0.026371674803131323,0
Sector ID,cntrrgnd,0.03642792345779525,0
Sector ID,pbtp,0.028344246654623095,0
Sector ID,rgnlprgrm(mrkr),0.02556849932649216,0
Sector ID,bdvrst(mrkr),0.029918724748978477,0
Sector ID,cntnntd,0.03233551665035977,0
Sector ID,cntrrgnnm,0.03563180377263436,0
Sector ID,prtcptrdvlpmntndgdgvrnnc,0.02956719138150483,0
Sector ID,rbnsss(mrkr),0.02605185770676842,0
Sector ID,thsss(mrkr),0.03030541145319948,0
Sector ID,dsbltsss(mrkr),0.029246226132941946,0
Sector ID,gndrqlt(mrkr),0.02956719138150483,0
Sector ID,rgnstnd,0.027173032117799856,0
Sector ID,rgnstnnm,0.02687448723586452,0
Sector ID,rgnstntp,0.02687448723586452,0
Sector ID,rgnstnsb-clss,0.02578886948337239,0
Sector ID,prjctbrwsrcntrd,0.03224829511070055,0
Sector ID,sctrnm,0.0383386107021814,0
Sector ID,sctrprcnt,0.03556726931498284,0
Sector ID,mntspnt,0.027108497660148338,0
ICT as a tool for development (marker),fsclr,0.027763178977439476,0
ICT as a tool for development (marker),dsrtfctn(mrkr),0.03780118448886821,0
ICT as a tool for development (marker),prjctnmbr,0.029008765540763943,0
ICT as a tool for development (marker),ntdmnt(prjct-lvlbdgt),0.033043974719642384,0
ICT as a tool for development (marker),ndgnssss(mrkr),0.034677945724006246,0
ICT as a tool for development (marker),sctrd,0.029738870467945454,0
ICT as a tool for development (marker),ctstlfrdvlpmnt(mrkr),0.04738629656034115,1
ICT as a tool for development (marker),fndcntrd,0.03101153500003784,0
ICT as a tool for development (marker),chldrnsss(mrkr),0.03597438445659046,0
ICT as a tool for development (marker),prgrmmngprcss(nw),0.029479969841845626,0
ICT as a tool for development (marker),knwldgfrdvlpmnt(mrkr),0.04420647076934785,0
ICT as a tool for development (marker),dvsnnm,0.029479969841845626,0
ICT as a tool for development (marker),mxmmcdcntrbtn(prjct-lvl),0.029891706398190658,0
ICT as a tool for development (marker),cntrrgnprcnt,0.03015365545588876,0
ICT as a tool for development (marker),stts,0.027898069688214244,0
ICT as a tool for development (marker),brnchd,0.02578886948337239,0
ICT as a tool for development (marker),trddvlpmnt(mrkr),0.04474171507745036,0
ICT as a tool for development (marker),cntnntnm,0.02915900459328274,0
ICT as a tool for development (marker),rgnstnclss,0.027173032117799856,0
ICT as a tool for development (marker),cntrrgnd,0.02915900459328274,0
ICT as a tool for development (marker),pbtp,0.02596463616710921,0
ICT as a tool for development (marker),rgnlprgrm(mrkr),0.037506539322371794,0
ICT as a tool for development (marker),bdvrst(mrkr),0.03680174808411238,0
ICT as a tool for development (marker),cntnntd,0.027598604523652447,0
ICT as a tool for development (marker),cntrrgnnm,0.029008765540763943,0
ICT as a tool for development (marker),prtcptrdvlpmntndgdgvrnnc,0.0352824435494634,0
ICT as a tool for development (marker),rbnsss(mrkr),0.035177663926384155,0
ICT as a tool for development (marker),thsss(mrkr),0.033785591791188535,0
ICT as a tool for development (marker),dsbltsss(mrkr),0.03623956510643723,0
ICT as a tool for development (marker),gndrqlt(mrkr),0.03651514499745446,0
ICT as a tool for development (marker),rgnstnd,0.027511382983993235,0
ICT as a tool for development (marker),rgnstnnm,0.02915900459328274,0
ICT as a tool for development (marker),rgnstntp,0.02915900459328274,0
ICT as a tool for development (marker),rgnstnsb-clss,0.02687448723586452,0
ICT as a tool for development (marker),prjctbrwsrcntrd,0.02975854345380587,0
ICT as a tool for development (marker),sctrnm,0.03132552002108225,0
ICT as a tool for development (marker),sctrprcnt,0.032399729291044815,0
ICT as a tool for development (marker),mntspnt,0.02925138647937308,0
Fund centre ID,fsclr,0.03064558048136349,0
Fund centre ID,dsrtfctn(mrkr),0.033785591791188535,0
Fund centre ID,prjctnmbr,0.032689622327474535,0
Fund centre ID,ntdmnt(prjct-lvlbdgt),0.033633835793877805,0
Fund centre ID,ndgnssss(mrkr),0.033785591791188535,0
Fund centre ID,sctrd,0.03500670769925487,0
Fund centre ID,ctstlfrdvlpmnt(mrkr),0.0317384268864891,0
Fund centre ID,fndcntrd,0.04433159281539778,1
Fund centre ID,chldrnsss(mrkr),0.030585425963152627,0
Fund centre ID,prgrmmngprcss(nw),0.029956240855842177,0
Fund centre ID,knwldgfrdvlpmnt(mrkr),0.033785591791188535,0
Fund centre ID,dvsnnm,0.030218189913540274,0
Fund centre ID,mxmmcdcntrbtn(prjct-lvl),0.032717998862828064,0
Fund centre ID,cntrrgnprcnt,0.034526189726695515,0
Fund centre ID,stts,0.026609114007477556,0
Fund centre ID,brnchd,0.030218189913540274,0
Fund centre ID,trddvlpmnt(mrkr),0.033012218382746525,0
Fund centre ID,cntnntnm,0.03317107020031886,0
Fund centre ID,rgnstnclss,0.028864786448766753,0
Fund centre ID,cntrrgnd,0.0368621705587921,0
Fund centre ID,pbtp,0.026609114007477556,0
Fund centre ID,rgnlprgrm(mrkr),0.02778528086362121,0
Fund centre ID,bdvrst(mrkr),0.031554706959144266,0
Fund centre ID,cntnntd,0.033785591791188535,0
Fund centre ID,cntrrgnnm,0.03622024006166632,0
Fund centre ID,prtcptrdvlpmntndgdgvrnnc,0.0307328020210227,0
Fund centre ID,rbnsss(mrkr),0.028431468194282303,0
Fund centre ID,thsss(mrkr),0.02868132729547126,0
Fund centre ID,dsbltsss(mrkr),0.030885441509530997,0
Fund centre ID,gndrqlt(mrkr),0.03421524368476743,0
Fund centre ID,rgnstnd,0.02983150320931927,0
Fund centre ID,rgnstnnm,0.029479969841845626,0
Fund centre ID,rgnstntp,0.03317107020031886,0
Fund centre ID,rgnstnsb-clss,0.028112895635003687,0
Fund centre ID,prjctbrwsrcntrd,0.03329834952302484,0
Fund centre ID,sctrnm,0.03427840030786084,0
Fund centre ID,sctrprcnt,0.032625087869823016,0
Fund centre ID,mntspnt,0.033633835793877805,0
Children issues (marker),fsclr,0.027698059323962,0
Children issues (marker),dsrtfctn(mrkr),0.04141756621660312,0
Children issues (marker),prjctnmbr,0.03194070341416112,0
Children issues (marker),ntdmnt(prjct-lvlbdgt),0.031055924432404437,0
Children issues (marker),ndgnssss(mrkr),0.0456914718948353,0
Children issues (marker),sctrd,0.02778528086362121,0
Children issues (marker),ctstlfrdvlpmnt(mrkr),0.03879494227768793,0
Children issues (marker),fndcntrd,0.029797885153909413,0
Children issues (marker),chldrnsss(mrkr),0.05133521913660341,1
Children issues (marker),prgrmmngprcss(nw),0.03398131174242275,0
Children issues (marker),knwldgfrdvlpmnt(mrkr),0.04023037019487196,0
Children issues (marker),dvsnnm,0.030218189913540274,0
Children issues (marker),mxmmcdcntrbtn(prjct-lvl),0.03218376065304904,0
Children issues (marker),cntrrgnprcnt,0.028800251991115237,0
Children issues (marker),stts,0.027898069688214244,0
Children issues (marker),brnchd,0.027511382983993235,0
Children issues (marker),trddvlpmnt(mrkr),0.0384258322418406,0
Children issues (marker),cntnntnm,0.027173032117799856,0
Children issues (marker),rgnstnclss,0.03403956440231256,0
Children issues (marker),cntrrgnd,0.029710663614250205,0
Children issues (marker),pbtp,0.022097769124899153,0
Children issues (marker),rgnlprgrm(mrkr),0.03884226407715553,0
Children issues (marker),bdvrst(mrkr),0.04248604263616116,0
Children issues (marker),cntnntd,0.02480448124153937,0
Children issues (marker),cntrrgnnm,0.029479969841845626,0
Children issues (marker),prtcptrdvlpmntndgdgvrnnc,0.02895200798842596,0
Children issues (marker),rbnsss(mrkr),0.04699738751873956,0
Children issues (marker),thsss(mrkr),0.04538619291781871,0
Children issues (marker),dsbltsss(mrkr),0.04355451905571921,0
Children issues (marker),gndrqlt(mrkr),0.03974265723459322,0
Children issues (marker),rgnstnd,0.029956240855842177,0
Children issues (marker),rgnstnnm,0.03224829511070055,0
Children issues (marker),rgnstntp,0.029710663614250205,0
Children issues (marker),rgnstnsb-clss,0.03307131073117094,0
Children issues (marker),prjctbrwsrcntrd,0.030426405831197746,0
Children issues (marker),sctrnm,0.030218189913540274,0
Children issues (marker),sctrprcnt,0.02941543538419411,0
Children issues (marker),mntspnt,0.02727221582120965,0
Programming process (new),fsclr,0.024870850166127494,0
Programming process (new),dsrtfctn(mrkr),0.03042819067575237,0
Programming process (new),prjctnmbr,0.03171747945851119,0
Programming process (new),ntdmnt(prjct-lvlbdgt),0.032616450296094966,0
Programming process (new),ndgnssss(mrkr),0.034592509028901666,0
Programming process (new),sctrd,0.02480636089900082,0
Programming process (new),ctstlfrdvlpmnt(mrkr),0.031122243734610585,0
Programming process (new),fndcntrd,0.02948175468640025,0
Programming process (new),chldrnsss(mrkr),0.03428018515241546,0
Programming process (new),prgrmmngprcss(nw),0.05309897957426092,1
Programming process (new),knwldgfrdvlpmnt(mrkr),0.03269140717202916,0
Programming process (new),dvsnnm,0.02740302439054247,0
Programming process (new),mxmmcdcntrbtn(prjct-lvl),0.03362519822014976,0
Programming process (new),cntrrgnprcnt,0.037387555342300094,0
Programming process (new),stts,0.0277643334356433,0
Programming process (new),brnchd,0.030022514967523475,0
Programming process (new),trddvlpmnt(mrkr),0.03200250615072344,0
Programming process (new),cntnntnm,0.027085510381211438,0
Programming process (new),rgnstnclss,0.03608476458853666,0
Programming process (new),cntrrgnd,0.03200697752584242,0
Programming process (new),pbtp,0.024964188336111876,0
Programming process (new),rgnlprgrm(mrkr),0.03631029034957574,0
Programming process (new),bdvrst(mrkr),0.030878387254471215,0
Programming process (new),cntnntd,0.027174816962354485,0
Programming process (new),cntrrgnnm,0.03171747945851119,0
Programming process (new),prtcptrdvlpmntndgdgvrnnc,0.033700155096083956,0
Programming process (new),rbnsss(mrkr),0.03526780389697992,0
Programming process (new),thsss(mrkr),0.031122243734610585,0
Programming process (new),dsbltsss(mrkr),0.03042819067575237,0
Programming process (new),gndrqlt(mrkr),0.0327843181650342,0
Programming process (new),rgnstnd,0.03485220071883221,0
Programming process (new),rgnstnnm,0.03446771109815791,0
Programming process (new),rgnstntp,0.03446771109815791,0
Programming process (new),rgnstnsb-clss,0.034985760271276964,0
Programming process (new),prjctbrwsrcntrd,0.03231456922238186,0
Programming process (new),sctrnm,0.02740302439054247,0
Programming process (new),sctrprcnt,0.033966392370933005,0
Programming process (new),mntspnt,0.032175123079320994,0
Knowledge for development (marker),fsclr,0.028344246654623095,0
Knowledge for development (marker),dsrtfctn(mrkr),0.037410779643260464,0
Knowledge for development (marker),prjctnmbr,0.029651648928286246,0
Knowledge for development (marker),ntdmnt(prjct-lvlbdgt),0.03384475581436199,0
Knowledge for development (marker),ndgnssss(mrkr),0.03910253397422737,0
Knowledge for development (marker),sctrd,0.026349309017707656,0
Knowledge for development (marker),ctstlfrdvlpmnt(mrkr),0.04624549670497649,0
Knowledge for development (marker),fndcntrd,0.03185215827008351,0
Knowledge for development (marker),chldrnsss(mrkr),0.038757277988315755,0
Knowledge for development (marker),prgrmmngprcss(nw),0.031651205346829886,0
Knowledge for development (marker),knwldgfrdvlpmnt(mrkr),0.05171379353234426,1
Knowledge for development (marker),dvsnnm,0.030218189913540274,0
Knowledge for development (marker),mxmmcdcntrbtn(prjct-lvl),0.030433669965841896,0
Knowledge for development (marker),cntrrgnprcnt,0.030859779002727114,0
Knowledge for development (marker),stts,0.024234721964015243,0
Knowledge for development (marker),brnchd,0.026157979519219714,0
Knowledge for development (marker),trddvlpmnt(mrkr),0.04492216887275351,0
Knowledge for development (marker),cntnntnm,0.02983150320931927,0
Knowledge for development (marker),rgnstnclss,0.02763441966260901,0
Knowledge for development (marker),cntrrgnd,0.02983150320931927,0
Knowledge for development (marker),pbtp,0.026371674803131323,0
Knowledge for development (marker),rgnlprgrm(mrkr),0.040414506720691495,0
Knowledge for development (marker),bdvrst(mrkr),0.038072770468421425,0
Knowledge for development (marker),cntnntd,0.02812676197332016,0
Knowledge for development (marker),cntrrgnnm,0.029651648928286246,0
Knowledge for development (marker),prtcptrdvlpmntndgdgvrnnc,0.034785643612449756,0
Knowledge for development (marker),rbnsss(mrkr),0.03630746160132553,0
Knowledge for development (marker),thsss(mrkr),0.03481675633577789,0
Knowledge for development (marker),dsbltsss(mrkr),0.037410779643260464,0
Knowledge for development (marker),gndrqlt(mrkr),0.04119023080818652,0
Knowledge for development (marker),rgnstnd,0.028039540433660953,0
Knowledge for development (marker),rgnstnnm,0.02983150320931927,0
Knowledge for development (marker),rgnstntp,0.027898069688214244,0
Knowledge for development (marker),rgnstnsb-clss,0.02728101643679774,0
Knowledge for development (marker),prjctbrwsrcntrd,0.030383912786777847,0
Knowledge for development (marker),sctrnm,0.028188084716379996,0
Knowledge for development (marker),sctrprcnt,0.029587114470634723,0
Knowledge for development (marker),mntspnt,0.029955596412263367,0
Division name,fsclr,0.02667538811915886,0
Division name,dsrtfctn(mrkr),0.031122243734610585,0
Division name,prjctnmbr,0.029546243953526927,0
Division name,ntdmnt(prjct-lvlbdgt),0.026801315204484956,0
Division name,ndgnssss(mrkr),0.031122243734610585,0
Division name,sctrd,0.026610898852032185,0
Division name,ctstlfrdvlpmnt(mrkr),0.02948175468640025,0
Division name,fndcntrd,0.029833288053873894,0
Division name,chldrnsss(mrkr),0.02789985453276887,0
Division name,prgrmmngprcss(nw),0.027577657095674536,0
Division name,knwldgfrdvlpmnt(mrkr),0.029264631135901827,0
Division name,dvsnnm,0.0435335716277413,1
Division name,mxmmcdcntrbtn(prjct-lvl),0.026414013736028308,0
Division name,cntrrgnprcnt,0.028520933724432495,0
Division name,stts,0.026940761347545826,0
Division name,brnchd,0.02643794891481262,0
Division name,trddvlpmnt(mrkr),0.030499989268048047,0
Division name,cntnntnm,0.03376464436321063,0
Division name,rgnstnclss,0.02922527870496404,0
Division name,cntrrgnd,0.02989777732100057,0
Division name,pbtp,0.022164043236580458,0
Division name,rgnlprgrm(mrkr),0.02789985453276887,0
Division name,bdvrst(mrkr),0.03184405891582313,0
Division name,cntnntd,0.0302199747580949,0
Division name,cntrrgnnm,0.03323734431200017,0
Division name,prtcptrdvlpmntndgdgvrnnc,0.02868367893321685,0
Division name,rbnsss(mrkr),0.02859589060036668,0
Division name,thsss(mrkr),0.02886657129332138,0
Division name,dsbltsss(mrkr),0.02811468047955832,0
Division name,gndrqlt(mrkr),0.028346031499177724,0
Division name,rgnstnd,0.030284464025221575,0
Division name,rgnstnnm,0.03763151140542068,0
Division name,rgnstntp,0.02989777732100057,0
Division name,rgnstnsb-clss,0.028410520766304397,0
Division name,prjctbrwsrcntrd,0.027964343799895545,0
Division name,sctrnm,0.034985760271276964,0
Division name,sctrprcnt,0.029406797810466064,0
Division name,mntspnt,0.030145017882160712,0
Maximum CIDA contribution (project-level),fsclr,0.025555159361974316,0
Maximum CIDA contribution (project-level),dsrtfctn(mrkr),0.03088912804943309,0
Maximum CIDA contribution (project-level),prjctnmbr,0.030144962416423643,0
Maximum CIDA contribution (project-level),ntdmnt(prjct-lvlbdgt),0.040551441426091704,0
Maximum CIDA contribution (project-level),ndgnssss(mrkr),0.0294126879060438,0
Maximum CIDA contribution (project-level),sctrd,0.027326413790385015,0
Maximum CIDA contribution (project-level),ctstlfrdvlpmnt(mrkr),0.031349002848193704,0
Maximum CIDA contribution (project-level),fndcntrd,0.028659402118600283,0
Maximum CIDA contribution (project-level),chldrnsss(mrkr),0.03073093803406996,0
Maximum CIDA contribution (project-level),prgrmmngprcss(nw),0.031825049476142495,0
Maximum CIDA contribution (project-level),knwldgfrdvlpmnt(mrkr),0.029888958920040357,0
Maximum CIDA contribution (project-level),dvsnnm,0.025480039835714917,0
Maximum CIDA contribution (project-level),mxmmcdcntrbtn(prjct-lvl),0.0484502130120652,1
Maximum CIDA contribution (project-level),cntrrgnprcnt,0.036004401179256754,0
Maximum CIDA contribution (project-level),stts,0.025633617533845247,0
Maximum CIDA contribution (project-level),brnchd,0.027207788939681107,0
Maximum CIDA contribution (project-level),trddvlpmnt(mrkr),0.030578298545561666,0
Maximum CIDA contribution (project-level),cntnntnm,0.030310685289661216,0
Maximum CIDA contribution (project-level),rgnstnclss,0.029985738479391462,0
Maximum CIDA contribution (project-level),cntrrgnd,0.030310685289661216,0
Maximum CIDA contribution (project-level),pbtp,0.027438155486876604,0
Maximum CIDA contribution (project-level),rgnlprgrm(mrkr),0.029280862893241187,0
Maximum CIDA contribution (project-level),bdvrst(mrkr),0.029691261518004053,0
Maximum CIDA contribution (project-level),cntnntd,0.030489258843931832,0
Maximum CIDA contribution (project-level),cntrrgnnm,0.030144962416423643,0
Maximum CIDA contribution (project-level),prtcptrdvlpmntndgdgvrnnc,0.030775555730710846,0
Maximum CIDA contribution (project-level),rbnsss(mrkr),0.03122341638378539,0
Maximum CIDA contribution (project-level),thsss(mrkr),0.02827696471882127,0
Maximum CIDA contribution (project-level),dsbltsss(mrkr),0.0294126879060438,0
Maximum CIDA contribution (project-level),gndrqlt(mrkr),0.031053176954254132,0
Maximum CIDA contribution (project-level),rgnstnd,0.027099804620683225,0
Maximum CIDA contribution (project-level),rgnstnnm,0.026996227824909742,0
Maximum CIDA contribution (project-level),rgnstntp,0.02865345655728548,0
Maximum CIDA contribution (project-level),rgnstnsb-clss,0.02954344976541319,0
Maximum CIDA contribution (project-level),prjctbrwsrcntrd,0.030724992472755154,0
Maximum CIDA contribution (project-level),sctrnm,0.028935538043647308,0
Maximum CIDA contribution (project-level),sctrprcnt,0.033583596491322226,0
Maximum CIDA contribution (project-level),mntspnt,0.03067377904205916,0
CountryRegion percent,fsclr,0.02514778039264449,0
CountryRegion percent,dsrtfctn(mrkr),0.02899084786507543,0
CountryRegion percent,prjctnmbr,0.032851769345970686,0
CountryRegion percent,ntdmnt(prjct-lvlbdgt),0.035749042034959856,0
CountryRegion percent,ndgnssss(mrkr),0.03131096809040147,0
CountryRegion percent,sctrd,0.02827696471882127,0
CountryRegion percent,ctstlfrdvlpmnt(mrkr),0.03193343937036699,0
CountryRegion percent,fndcntrd,0.033231067587223016,0
CountryRegion percent,chldrnsss(mrkr),0.02879750451296493,0
CountryRegion percent,prgrmmngprcss(nw),0.036983211501595115,0
CountryRegion percent,knwldgfrdvlpmnt(mrkr),0.03169765479462248,0
CountryRegion percent,dvsnnm,0.028039668137887053,0
CountryRegion percent,mxmmcdcntrbtn(prjct-lvl),0.036651311011475535,0
CountryRegion percent,cntrrgnprcnt,0.04682234311037957,1
CountryRegion percent,stts,0.028520878258695422,0
CountryRegion percent,brnchd,0.03104723139293932,0
CountryRegion percent,trddvlpmnt(mrkr),0.033004028795369116,0
CountryRegion percent,cntnntnm,0.036025267125439624,0
CountryRegion percent,rgnstnclss,0.03250250393570655,0
CountryRegion percent,cntrrgnd,0.036025267125439624,0
CountryRegion percent,pbtp,0.028520878258695422,0
CountryRegion percent,rgnlprgrm(mrkr),0.033308849395543336,0
CountryRegion percent,bdvrst(mrkr),0.0294126879060438,0
CountryRegion percent,cntnntd,0.036531238597385045,0
CountryRegion percent,cntrrgnnm,0.038265383205064764,0
CountryRegion percent,prtcptrdvlpmntndgdgvrnnc,0.031053176954254132,0
CountryRegion percent,rbnsss(mrkr),0.0294126879060438,0
CountryRegion percent,thsss(mrkr),0.02964338167844838,0
CountryRegion percent,dsbltsss(mrkr),0.02899084786507543,0
CountryRegion percent,gndrqlt(mrkr),0.031583923411028066,0
CountryRegion percent,rgnstnd,0.033625142754412696,0
CountryRegion percent,rgnstnnm,0.03322512202590821,0
CountryRegion percent,rgnstntp,0.036025267125439624,0
CountryRegion percent,rgnstnsb-clss,0.03157797784971326,0
CountryRegion percent,prjctbrwsrcntrd,0.03555857627551772,0
CountryRegion percent,sctrnm,0.03104723139293932,0
CountryRegion percent,sctrprcnt,0.04116265589405394,0
CountryRegion percent,mntspnt,0.03671575879551237,0
Status,fsclr,0.029546243953526927,0
Status,dsrtfctn(mrkr),0.0302199747580949,0
Status,prjctnmbr,0.027577657095674536,0
Status,ntdmnt(prjct-lvlbdgt),0.028039723603624125,0
Status,ndgnssss(mrkr),0.026159764363774343,0
Status,sctrd,0.02948175468640025,0
Status,ctstlfrdvlpmnt(mrkr),0.028346031499177724,0
Status,fndcntrd,0.02789985453276887,0
Status,chldrnsss(mrkr),0.02596642101166384,0
Status,prgrmmngprcss(nw),0.02569466097077225,0
Status,knwldgfrdvlpmnt(mrkr),0.025107117224506054,0
Status,dvsnnm,0.028931060560448058,0
Status,mxmmcdcntrbtn(prjct-lvl),0.027438210952613673,0
Status,cntrrgnprcnt,0.031047286858676394,0
Status,stts,0.04652530560250382,1
Status,brnchd,0.022164043236580458,0
Status,trddvlpmnt(mrkr),0.02948175468640025,0
Status,cntnntnm,0.03376464436321063,0
Status,rgnstnclss,0.03231456922238186,0
Status,cntrrgnd,0.027964343799895545,0
Status,pbtp,0.030284464025221575,0
Status,rgnlprgrm(mrkr),0.022099553969453786,0
Status,bdvrst(mrkr),0.026610898852032185,0
Status,cntnntd,0.034592509028901666,0
Status,cntrrgnnm,0.027577657095674536,0
Status,prtcptrdvlpmntndgdgvrnnc,0.02751316782854786,0
Status,rbnsss(mrkr),0.026610898852032185,0
Status,thsss(mrkr),0.03165299019138451,0
Status,dsbltsss(mrkr),0.0302199747580949,0
Status,gndrqlt(mrkr),0.026373459647685952,0
Status,rgnstnd,0.028410520766304397,0
Status,rgnstnnm,0.027964343799895545,0
Status,rgnstntp,0.03376464436321063,0
Status,rgnstnsb-clss,0.030711854593044794,0
Status,prjctbrwsrcntrd,0.02989777732100057,0
Status,sctrnm,0.028931060560448058,0
Status,sctrprcnt,0.03285182481170775,0
Status,mntspnt,0.03451755215296747,0
Branch ID,fsclr,0.027964343799895545,0
Branch ID,dsrtfctn(mrkr),0.029160789437837363,0
Branch ID,prjctnmbr,0.031186733001737257,0
Branch ID,ntdmnt(prjct-lvlbdgt),0.027438210952613673,0
Branch ID,ndgnssss(mrkr),0.025630171703645573,0
Branch ID,sctrd,0.02789985453276887,0
Branch ID,ctstlfrdvlpmnt(mrkr),0.02769984416851663,0
Branch ID,fndcntrd,0.03165299019138451,0
Branch ID,chldrnsss(mrkr),0.02886657129332138,0
Branch ID,prgrmmngprcss(nw),0.03153375953116636,0
Branch ID,knwldgfrdvlpmnt(mrkr),0.02751316782854786,0
Branch ID,dvsnnm,0.027577657095674536,0
Branch ID,mxmmcdcntrbtn(prjct-lvl),0.029406797810466064,0
Branch ID,cntrrgnprcnt,0.03362519822014976,0
Branch ID,stts,0.022164043236580458,0
Branch ID,brnchd,0.04381849867295678,1
Branch ID,trddvlpmnt(mrkr),0.02859589060036668,0
Branch ID,cntnntnm,0.026940761347545826,0
Branch ID,rgnstnclss,0.034985760271276964,0
Branch ID,cntrrgnd,0.03171747945851119,0
Branch ID,pbtp,0.022164043236580458,0
Branch ID,rgnlprgrm(mrkr),0.02886657129332138,0
Branch ID,bdvrst(mrkr),0.02596642101166384,0
Branch ID,cntnntd,0.027174816962354485,0
Branch ID,cntrrgnnm,0.031186733001737257,0
Branch ID,prtcptrdvlpmntndgdgvrnnc,0.02948175468640025,0
Branch ID,rbnsss(mrkr),0.029833288053873894,0
Branch ID,thsss(mrkr),0.026159764363774343,0
Branch ID,dsbltsss(mrkr),0.025630171703645573,0
Branch ID,gndrqlt(mrkr),0.02579065432792702,0
Branch ID,rgnstnd,0.03231456922238186,0
Branch ID,rgnstnnm,0.03171747945851119,0
Branch ID,rgnstntp,0.03171747945851119,0
Branch ID,rgnstnsb-clss,0.03323734431200017,0
Branch ID,prjctbrwsrcntrd,0.028931060560448058,0
Branch ID,sctrnm,0.03299127095476862,0
Branch ID,sctrprcnt,0.031047286858676394,0
Branch ID,mntspnt,0.027099860086420294,0
Trade development (marker),fsclr,0.02733675027886117,0
Trade development (marker),dsrtfctn(mrkr),0.0384258322418406,0
Trade development (marker),prjctnmbr,0.031378250026203286,0
Trade development (marker),ntdmnt(prjct-lvlbdgt),0.034127478395011006,0
Trade development (marker),ndgnssss(mrkr),0.0384258322418406,0
Trade development (marker),sctrd,0.027423971818520375,0
Trade development (marker),ctstlfrdvlpmnt(mrkr),0.04689931480390091,0
Trade development (marker),fndcntrd,0.0317384268864891,0
Trade development (marker),chldrnsss(mrkr),0.03802971415458982,0
Trade development (marker),prgrmmngprcss(nw),0.031540118879133015,0
Trade development (marker),knwldgfrdvlpmnt(mrkr),0.046373478120085104,0
Trade development (marker),dvsnnm,0.03224829511070055,0
Trade development (marker),mxmmcdcntrbtn(prjct-lvl),0.03177773961361698,0
Trade development (marker),cntrrgnprcnt,0.030581046023711977,0
Trade development (marker),stts,0.024804576054446196,0
Trade development (marker),brnchd,0.027173032117799856,0
Trade development (marker),trddvlpmnt(mrkr),0.05118649348113379,1
Trade development (marker),cntnntnm,0.029262846291347205,0
Trade development (marker),rgnstnclss,0.028864786448766753,0
Trade development (marker),cntrrgnd,0.031651205346829886,0
Trade development (marker),pbtp,0.027511382983993235,0
Trade development (marker),rgnlprgrm(mrkr),0.041990895027097686,0
Trade development (marker),bdvrst(mrkr),0.04141756621660312,0
Trade development (marker),cntnntd,0.027106457809189348,0
Trade development (marker),cntrrgnnm,0.031378250026203286,0
Trade development (marker),prtcptrdvlpmntndgdgvrnnc,0.03680174808411238,0
Trade development (marker),rbnsss(mrkr),0.03928061337748704,0
Trade development (marker),thsss(mrkr),0.03754794891333886,0
Trade development (marker),dsbltsss(mrkr),0.04045593743900088,0
Trade development (marker),gndrqlt(mrkr),0.040924423253730184,0
Trade development (marker),rgnstnd,0.029479969841845626,0
Trade development (marker),rgnstnnm,0.031651205346829886,0
Trade development (marker),rgnstntp,0.029262846291347205,0
Trade development (marker),rgnstnsb-clss,0.028344246654623095,0
Trade development (marker),prjctbrwsrcntrd,0.03002013086991488,0
Trade development (marker),sctrnm,0.029710663614250205,0
Trade development (marker),sctrprcnt,0.031313715568551774,0
Trade development (marker),mntspnt,0.02941543538419411,0
Continent name,fsclr,0.022164043236580458,0
Continent name,dsrtfctn(mrkr),0.033700155096083956,0
Continent name,prjctnmbr,0.03275589643915583,0
Continent name,ntdmnt(prjct-lvlbdgt),0.03130507799482373,0
Continent name,ndgnssss(mrkr),0.03080000481442641,0
Continent name,sctrd,0.026373459647685952,0
Continent name,ctstlfrdvlpmnt(mrkr),0.03165299019138451,0
Continent name,fndcntrd,0.033172855044873495,0
Continent name,chldrnsss(mrkr),0.02769984416851663,0
Continent name,prgrmmngprcss(nw),0.02740302439054247,0
Continent name,knwldgfrdvlpmnt(mrkr),0.031380034870757925,0
Continent name,dvsnnm,0.034344674419542136,0
Continent name,mxmmcdcntrbtn(prjct-lvl),0.03057240844998393,0
Continent name,cntrrgnprcnt,0.03764079091782944,0
Continent name,stts,0.031186733001737257,0
Continent name,brnchd,0.026224253630901015,0
Continent name,trddvlpmnt(mrkr),0.032926781687641946,0
Continent name,cntnntnm,0.0480017457458931,1
Continent name,rgnstnclss,0.03231456922238186,0
Continent name,cntrrgnd,0.03323734431200017,0
Continent name,pbtp,0.02667538811915886,0
Continent name,rgnlprgrm(mrkr),0.02769984416851663,0
Continent name,bdvrst(mrkr),0.028346031499177724,0
Continent name,cntnntd,0.041433889180504065,0
Continent name,cntrrgnnm,0.03981713190753942,0
Continent name,prtcptrdvlpmntndgdgvrnnc,0.0327843181650342,0
Continent name,rbnsss(mrkr),0.028346031499177724,0
Continent name,thsss(mrkr),0.02859589060036668,0
Continent name,dsbltsss(mrkr),0.02789985453276887,0
Continent name,gndrqlt(mrkr),0.031122243734610585,0
Continent name,rgnstnd,0.03376464436321063,0
Continent name,rgnstnnm,0.040619545028946644,0
Continent name,rgnstntp,0.036928444670473404,0
Continent name,rgnstnsb-clss,0.031186733001737257,0
Continent name,prjctbrwsrcntrd,0.03056447853517472,0
Continent name,sctrnm,0.034344674419542136,0
Continent name,sctrprcnt,0.032616450296094966,0
Continent name,mntspnt,0.03749206526235982,0
Organisation class,fsclr,0.03275589643915583,0
Organisation class,dsrtfctn(mrkr),0.029712448458804833,0
Organisation class,prjctnmbr,0.031186733001737257,0
Organisation class,ntdmnt(prjct-lvlbdgt),0.03243539297639282,0
Organisation class,ndgnssss(mrkr),0.03478771145170553,0
Organisation class,sctrd,0.029160789437837363,0
Organisation class,ctstlfrdvlpmnt(mrkr),0.02851041248680204,0
Organisation class,fndcntrd,0.028346031499177724,0
Organisation class,chldrnsss(mrkr),0.034403221831031235,0
Organisation class,prgrmmngprcss(nw),0.03608476458853666,0
Organisation class,knwldgfrdvlpmnt(mrkr),0.028346031499177724,0
Organisation class,dvsnnm,0.028931060560448058,0
Organisation class,mxmmcdcntrbtn(prjct-lvl),0.031691764699044736,0
Organisation class,cntrrgnprcnt,0.03285182481170775,0
Organisation class,stts,0.03323734431200017,0
Organisation class,brnchd,0.03231456922238186,0
Organisation class,trddvlpmnt(mrkr),0.029264631135901827,0
Organisation class,cntnntnm,0.03153375953116636,0
Organisation class,rgnstnclss,0.05116554605315589,1
Organisation class,cntrrgnd,0.03153375953116636,0
Organisation class,pbtp,0.025855143595053694,0
Organisation class,rgnlprgrm(mrkr),0.03194248825871575,0
Organisation class,bdvrst(mrkr),0.0302199747580949,0
Organisation class,cntnntd,0.03184405891582313,0
Organisation class,cntrrgnnm,0.034194296256789526,0
Organisation class,prtcptrdvlpmntndgdgvrnnc,0.03176672157497893,0
Organisation class,rbnsss(mrkr),0.03563358861718899,0
Organisation class,thsss(mrkr),0.030499989268048047,0
Organisation class,dsbltsss(mrkr),0.03225007995525519,0
Organisation class,gndrqlt(mrkr),0.029958025700396806,0
Organisation class,rgnstnd,0.04165305312931914,0
Organisation class,rgnstnnm,0.04090347582575228,0
Organisation class,rgnstntp,0.04090347582575228,0
Organisation class,rgnstnsb-clss,0.04835894900639052,0
Organisation class,prjctbrwsrcntrd,0.029546243953526927,0
Organisation class,sctrnm,0.03231456922238186,0
Organisation class,sctrprcnt,0.031047286858676394,0
Organisation class,mntspnt,0.03176910203988893,0
CountryRegion ID,fsclr,0.026030910278790516,0
CountryRegion ID,dsrtfctn(mrkr),0.02751316782854786,0
CountryRegion ID,prjctnmbr,0.028660379867493358,0
CountryRegion ID,ntdmnt(prjct-lvlbdgt),0.03080343037853702,0
CountryRegion ID,ndgnssss(mrkr),0.0302199747580949,0
CountryRegion ID,sctrd,0.029833288053873894,0
CountryRegion ID,ctstlfrdvlpmnt(mrkr),0.02886657129332138,0
CountryRegion ID,fndcntrd,0.03225007995525519,0
CountryRegion ID,chldrnsss(mrkr),0.027338535123415796,0
CountryRegion ID,prgrmmngprcss(nw),0.029546243953526927,0
CountryRegion ID,knwldgfrdvlpmnt(mrkr),0.02868367893321685,0
CountryRegion ID,dvsnnm,0.029546243953526927,0
CountryRegion ID,mxmmcdcntrbtn(prjct-lvl),0.030145017882160712,0
CountryRegion ID,cntrrgnprcnt,0.0365253485018073,0
CountryRegion ID,stts,0.026224253630901015,0
CountryRegion ID,brnchd,0.029546243953526927,0
CountryRegion ID,trddvlpmnt(mrkr),0.029712448458804833,0
CountryRegion ID,cntnntnm,0.03231456922238186,0
CountryRegion ID,rgnstnclss,0.03153375953116636,0
CountryRegion ID,cntrrgnd,0.03908158654624946,1
CountryRegion ID,pbtp,0.026224253630901015,0
CountryRegion ID,rgnlprgrm(mrkr),0.029958025700396806,0
CountryRegion ID,bdvrst(mrkr),0.02789985453276887,0
CountryRegion ID,cntnntd,0.03269140717202916,0
CountryRegion ID,cntrrgnnm,0.0384048848138627,0
CountryRegion ID,prtcptrdvlpmntndgdgvrnnc,0.0302199747580949,0
CountryRegion ID,rbnsss(mrkr),0.02789985453276887,0
CountryRegion ID,thsss(mrkr),0.02811468047955832,0
CountryRegion ID,dsbltsss(mrkr),0.02751316782854786,0
CountryRegion ID,gndrqlt(mrkr),0.030499989268048047,0
CountryRegion ID,rgnstnd,0.03275589643915583,0
CountryRegion ID,rgnstnnm,0.03231456922238186,0
CountryRegion ID,rgnstntp,0.03231456922238186,0
CountryRegion ID,rgnstnsb-clss,0.03056447853517472,0
CountryRegion ID,prjctbrwsrcntrd,0.030022514967523475,0
CountryRegion ID,sctrnm,0.03323734431200017,0
CountryRegion ID,sctrprcnt,0.03176910203988893,0
CountryRegion ID,mntspnt,0.032616450296094966,0
PBA type,fsclr,0.022164043236580458,0
PBA type,dsrtfctn(mrkr),0.02579065432792702,0
PBA type,prjctnmbr,0.026940761347545826,0
PBA type,ntdmnt(prjct-lvlbdgt),0.027624887292582435,0
PBA type,ndgnssss(mrkr),0.022099553969453786,0
PBA type,sctrd,0.028346031499177724,0
PBA type,ctstlfrdvlpmnt(mrkr),0.02789985453276887,0
PBA type,fndcntrd,0.027174816962354485,0
PBA type,chldrnsss(mrkr),0.022099553969453786,0
PBA type,prgrmmngprcss(nw),0.025412211552036903,0
PBA type,knwldgfrdvlpmnt(mrkr),0.024899699068985204,0
PBA type,dvsnnm,0.022164043236580458,0
PBA type,mxmmcdcntrbtn(prjct-lvl),0.027099860086420294,0
PBA type,cntrrgnprcnt,0.030145017882160712,0
PBA type,stts,0.028931060560448058,0
PBA type,brnchd,0.022164043236580458,0
PBA type,trddvlpmnt(mrkr),0.02886657129332138,0
PBA type,cntnntnm,0.02723930622948116,0
PBA type,rgnstnclss,0.02667538811915886,0
PBA type,cntrrgnd,0.02723930622948116,0
PBA type,pbtp,0.03569807788431566,1
PBA type,rgnlprgrm(mrkr),0.025630171703645573,0
PBA type,bdvrst(mrkr),0.026159764363774343,0
PBA type,cntnntd,0.02751316782854786,0
PBA type,cntrrgnnm,0.026940761347545826,0
PBA type,prtcptrdvlpmntndgdgvrnnc,0.027174816962354485,0
PBA type,rbnsss(mrkr),0.022099553969453786,0
PBA type,thsss(mrkr),0.026373459647685952,0
PBA type,dsbltsss(mrkr),0.02579065432792702,0
PBA type,gndrqlt(mrkr),0.02596642101166384,0
PBA type,rgnstnd,0.027577657095674536,0
PBA type,rgnstnnm,0.02723930622948116,0
PBA type,rgnstntp,0.03231456922238186,0
PBA type,rgnstnsb-clss,0.026030910278790516,0
PBA type,prjctbrwsrcntrd,0.02569466097077225,0
PBA type,sctrnm,0.027964343799895545,0
PBA type,sctrprcnt,0.03157803331545033,0
PBA type,mntspnt,0.03285182481170775,0
Regional program (marker),fsclr,0.027511382983993235,0
Regional program (marker),dsrtfctn(mrkr),0.03676010490058088,0
Regional program (marker),prjctnmbr,0.031651205346829886,0
Regional program (marker),ntdmnt(prjct-lvlbdgt),0.030859779002727114,0
Regional program (marker),ndgnssss(mrkr),0.03884226407715553,0
Regional program (marker),sctrd,0.024891797594105407,0
Regional program (marker),ctstlfrdvlpmnt(mrkr),0.0384258322418406,0
Regional program (marker),fndcntrd,0.027106457809189348,0
Regional program (marker),chldrnsss(mrkr),0.0384258322418406,0
Regional program (marker),prgrmmngprcss(nw),0.03756523729373939,0
Regional program (marker),knwldgfrdvlpmnt(mrkr),0.04160338820261321,0
Regional program (marker),dvsnnm,0.02733675027886117,0
Regional program (marker),mxmmcdcntrbtn(prjct-lvl),0.03031937832912633,0
Regional program (marker),cntrrgnprcnt,0.030812067952265064,0
Regional program (marker),stts,0.022097769124899153,0
Regional program (marker),brnchd,0.024717259701880163,0
Regional program (marker),trddvlpmnt(mrkr),0.040010304590843745,0
Regional program (marker),cntnntnm,0.02701923626953014,0
Regional program (marker),rgnstnclss,0.029058129800877255,0
Regional program (marker),cntrrgnd,0.029479969841845626,0
Regional program (marker),pbtp,0.024897914224430575,0
Regional program (marker),rgnlprgrm(mrkr),0.05060646342480228,1
Regional program (marker),bdvrst(mrkr),0.03754794891333886,0
Regional program (marker),cntnntd,0.02472262216100871,0
Regional program (marker),cntrrgnnm,0.031651205346829886,0
Regional program (marker),prtcptrdvlpmntndgdgvrnnc,0.03047113432643706,0
Regional program (marker),rbnsss(mrkr),0.03754794891333886,0
Regional program (marker),thsss(mrkr),0.03571902531229357,0
Regional program (marker),dsbltsss(mrkr),0.03676010490058088,0
Regional program (marker),gndrqlt(mrkr),0.04141756621660312,0
Regional program (marker),rgnstnd,0.027173032117799856,0
Regional program (marker),rgnstnnm,0.029479969841845626,0
Regional program (marker),rgnstntp,0.029479969841845626,0
Regional program (marker),rgnstnsb-clss,0.028508627642247406,0
Regional program (marker),prjctbrwsrcntrd,0.03224829511070055,0
Regional program (marker),sctrnm,0.02733675027886117,0
Regional program (marker),sctrprcnt,0.026809952778213002,0
Regional program (marker),mntspnt,0.027108497660148338,0
Biodiversity (marker),fsclr,0.028344246654623095,0
Biodiversity (marker),dsrtfctn(mrkr),0.043066072692492664,0
Biodiversity (marker),prjctnmbr,0.03292499684308732,0
Biodiversity (marker),ntdmnt(prjct-lvlbdgt),0.03170040227277278,0
Biodiversity (marker),ndgnssss(mrkr),0.04074595246716664,0
Biodiversity (marker),sctrd,0.031554706959144266,0
Biodiversity (marker),ctstlfrdvlpmnt(mrkr),0.040010304590843745,0
Biodiversity (marker),fndcntrd,0.030585425963152627,0
Biodiversity (marker),chldrnsss(mrkr),0.04248604263616116,0
Biodiversity (marker),prgrmmngprcss(nw),0.03064558048136349,0
Biodiversity (marker),knwldgfrdvlpmnt(mrkr),0.039585892354503625,0
Biodiversity (marker),dvsnnm,0.034128022145108225,0
Biodiversity (marker),mxmmcdcntrbtn(prjct-lvl),0.0328604623854358,0
Biodiversity (marker),cntrrgnprcnt,0.02941543538419411,0
Biodiversity (marker),stts,0.028594105755812053,0
Biodiversity (marker),brnchd,0.02510533237995142,0
Biodiversity (marker),trddvlpmnt(mrkr),0.041937365555847574,0
Biodiversity (marker),cntnntnm,0.027698059323962,0
Biodiversity (marker),rgnstnclss,0.029956240855842177,0
Biodiversity (marker),cntrrgnd,0.03049820442349342,0
Biodiversity (marker),pbtp,0.025345937440355605,0
Biodiversity (marker),rgnlprgrm(mrkr),0.03797469775358277,0
Biodiversity (marker),bdvrst(mrkr),0.04925305996002878,1
Biodiversity (marker),cntnntd,0.025085140946215903,0
Biodiversity (marker),cntrrgnnm,0.030218189913540274,0
Biodiversity (marker),prtcptrdvlpmntndgdgvrnnc,0.029403142476683807,0
Biodiversity (marker),rbnsss(mrkr),0.041870859243082294,0
Biodiversity (marker),thsss(mrkr),0.039948411139710815,0
Biodiversity (marker),dsbltsss(mrkr),0.043066072692492664,0
Biodiversity (marker),gndrqlt(mrkr),0.04368022216390251,0
Biodiversity (marker),rgnstnd,0.030798219969871785,0
Biodiversity (marker),rgnstnnm,0.03329834952302484,0
Biodiversity (marker),rgnstntp,0.03049820442349342,0
Biodiversity (marker),rgnstnsb-clss,0.029262846291347205,0
Biodiversity (marker),prjctbrwsrcntrd,0.031120458890055956,0
Biodiversity (marker),sctrnm,0.031120458890055956,0
Biodiversity (marker),sctrprcnt,0.0328604623854358,0
Biodiversity (marker),mntspnt,0.027833535230562725,0
Continent ID,fsclr,0.022097769124899153,0
Continent ID,dsrtfctn(mrkr),0.028431468194282303,0
Continent ID,prjctnmbr,0.02983150320931927,0
Continent ID,ntdmnt(prjct-lvlbdgt),0.031876168956509604,0
Continent ID,ndgnssss(mrkr),0.028431468194282303,0
Continent ID,sctrd,0.02696170877552373,0
Continent ID,ctstlfrdvlpmnt(mrkr),0.029797885153909413,0
Continent ID,fndcntrd,0.034365621847520046,0
Continent ID,chldrnsss(mrkr),0.02519255391961063,0
Continent ID,prgrmmngprcss(nw),0.027698059323962,0
Continent ID,knwldgfrdvlpmnt(mrkr),0.02956719138150483,0
Continent ID,dvsnnm,0.031120458890055956,0
Continent ID,mxmmcdcntrbtn(prjct-lvl),0.031055924432404437,0
Continent ID,cntrrgnprcnt,0.03895077797691664,0
Continent ID,stts,0.03224829511070055,0
Continent ID,brnchd,0.026609114007477556,0
Continent ID,trddvlpmnt(mrkr),0.030885441509530997,0
Continent ID,cntnntnm,0.04239882109650196,0
Continent ID,rgnstnclss,0.03317107020031886,0
Continent ID,cntrrgnd,0.03427840030786084,0
Continent ID,pbtp,0.027173032117799856,0
Continent ID,rgnlprgrm(mrkr),0.02519255391961063,0
Continent ID,bdvrst(mrkr),0.02556849932649216,0
Continent ID,cntnntd,0.04355451905571921,1
Continent ID,cntrrgnnm,0.03756523729373939,0
Continent ID,prtcptrdvlpmntndgdgvrnnc,0.03120768042971516,0
Continent ID,rbnsss(mrkr),0.02556849932649216,0
Continent ID,thsss(mrkr),0.02571560839875016,0
Continent ID,dsbltsss(mrkr),0.025308229429420334,0
Continent ID,gndrqlt(mrkr),0.02868132729547126,0
Continent ID,rgnstnd,0.03491948615959566,0
Continent ID,rgnstnnm,0.0383386107021814,0
Continent ID,rgnstntp,0.0383386107021814,0
Continent ID,rgnstnsb-clss,0.0318422740712685,0
Continent ID,prjctbrwsrcntrd,0.031120458890055956,0
Continent ID,sctrnm,0.031120458890055956,0
Continent ID,sctrprcnt,0.033633835793877805,0
Continent ID,mntspnt,0.03912885738017631,0
CountryRegion name,fsclr,0.02569466097077225,0
CountryRegion name,dsrtfctn(mrkr),0.029712448458804833,0
CountryRegion name,prjctnmbr,0.031186733001737257,0
CountryRegion name,ntdmnt(prjct-lvlbdgt),0.030353233799818177,0
CountryRegion name,ndgnssss(mrkr),0.03225007995525519,0
CountryRegion name,sctrd,0.029160789437837363,0
CountryRegion name,ctstlfrdvlpmnt(mrkr),0.030647365325918118,0
CountryRegion name,fndcntrd,0.031469270264039687,0
CountryRegion name,chldrnsss(mrkr),0.02948175468640025,0
CountryRegion name,prgrmmngprcss(nw),0.031444524137884594,0
CountryRegion name,knwldgfrdvlpmnt(mrkr),0.03042819067575237,0
CountryRegion name,dvsnnm,0.03231456922238186,0
CountryRegion name,mxmmcdcntrbtn(prjct-lvl),0.02975833117793971,0
CountryRegion name,cntrrgnprcnt,0.038265438670801837,0
CountryRegion name,stts,0.025855143595053694,0
CountryRegion name,brnchd,0.028931060560448058,0
CountryRegion name,trddvlpmnt(mrkr),0.03165299019138451,0
CountryRegion name,cntnntnm,0.0377802370608903,0
CountryRegion name,rgnstnclss,0.03376464436321063,0
CountryRegion name,cntrrgnd,0.0377802370608903,0
CountryRegion name,pbtp,0.025855143595053694,0
CountryRegion name,rgnlprgrm(mrkr),0.03194248825871575,0
CountryRegion name,bdvrst(mrkr),0.02751316782854786,0
CountryRegion name,cntnntd,0.035092227231279575,0
CountryRegion name,cntrrgnnm,0.04321698602194632,1
CountryRegion name,prtcptrdvlpmntndgdgvrnnc,0.03176672157497893,0
CountryRegion name,rbnsss(mrkr),0.0302199747580949,0
CountryRegion name,thsss(mrkr),0.02769984416851663,0
CountryRegion name,dsbltsss(mrkr),0.027174816962354485,0
CountryRegion name,gndrqlt(mrkr),0.029958025700396806,0
CountryRegion name,rgnstnd,0.035156716498406244,0
CountryRegion name,rgnstnnm,0.0377802370608903,0
CountryRegion name,rgnstntp,0.034656998296028335,0
CountryRegion name,rgnstnsb-clss,0.032642005544504485,0
CountryRegion name,prjctbrwsrcntrd,0.029546243953526927,0
CountryRegion name,sctrnm,0.03569807788431566,0
CountryRegion name,sctrprcnt,0.031047286858676394,0
CountryRegion name,mntspnt,0.03176910203988893,0
Branch name,fsclr,0.02723930622948116,0
Branch name,dsrtfctn(mrkr),0.035092227231279575,0
Branch name,prjctnmbr,0.0384048848138627,0
Branch name,ntdmnt(prjct-lvlbdgt),0.027099860086420294,0
Branch name,ndgnssss(mrkr),0.03184405891582313,0
Branch name,sctrd,0.027174816962354485,0
Branch name,ctstlfrdvlpmnt(mrkr),0.029958025700396806,0
Branch name,fndcntrd,0.03492127100415029,0
Branch name,chldrnsss(mrkr),0.034592509028901666,0
Branch name,prgrmmngprcss(nw),0.03376464436321063,0
Branch name,knwldgfrdvlpmnt(mrkr),0.029712448458804833,0
Branch name,dvsnnm,0.03649419756947655,0
Branch name,mxmmcdcntrbtn(prjct-lvl),0.028984957769497697,0
Branch name,cntrrgnprcnt,0.03614706803028676,0
Branch name,stts,0.022164043236580458,0
Branch name,brnchd,0.041270915680441916,0
Branch name,trddvlpmnt(mrkr),0.031122243734610585,0
Branch name,cntnntnm,0.034985760271276964,0
Branch name,rgnstnclss,0.03376464436321063,0
Branch name,cntrrgnd,0.030711854593044794,0
Branch name,pbtp,0.022164043236580458,0
Branch name,rgnlprgrm(mrkr),0.031469270264039687,0
Branch name,bdvrst(mrkr),0.029160789437837363,0
Branch name,cntnntd,0.031122243734610585,0
Branch name,cntrrgnnm,0.0384048848138627,0
Branch name,prtcptrdvlpmntndgdgvrnnc,0.029059914645431884,0
Branch name,rbnsss(mrkr),0.03269140717202916,0
Branch name,thsss(mrkr),0.02948175468640025,0
Branch name,dsbltsss(mrkr),0.025347722284910227,0
Branch name,gndrqlt(mrkr),0.02886657129332138,0
Branch name,rgnstnd,0.03569807788431566,0
Branch name,rgnstnnm,0.03925966594950913,0
Branch name,rgnstntp,0.034985760271276964,0
Branch name,rgnstnsb-clss,0.03231456922238186,0
Branch name,prjctbrwsrcntrd,0.03153375953116636,0
Branch name,sctrnm,0.03649419756947655,0
Branch name,sctrprcnt,0.03420522827648127,0
Branch name,mntspnt,0.031047286858676394,0
Division ID,fsclr,0.02723930622948116,0
Division ID,dsrtfctn(mrkr),0.02859589060036668,0
Division ID,prjctnmbr,0.026224253630901015,0
Division ID,ntdmnt(prjct-lvlbdgt),0.024562228589969943,0
Division ID,ndgnssss(mrkr),0.025347722284910227,0
Division ID,sctrd,0.027174816962354485,0
Division ID,ctstlfrdvlpmnt(mrkr),0.027338535123415796,0
Division ID,fndcntrd,0.026373459647685952,0
Division ID,chldrnsss(mrkr),0.02522279273431575,0
Division ID,prgrmmngprcss(nw),0.027964343799895545,0
Division ID,knwldgfrdvlpmnt(mrkr),0.027174816962354485,0
Division ID,dvsnnm,0.03649419756947655,0
Division ID,mxmmcdcntrbtn(prjct-lvl),0.02434471731884563,0
Division ID,cntrrgnprcnt,0.025555214827711385,0
Division ID,stts,0.027577657095674536,0
Division ID,brnchd,0.026940761347545826,0
Division ID,trddvlpmnt(mrkr),0.02811468047955832,0
Division ID,cntnntnm,0.02643794891481262,0
Division ID,rgnstnclss,0.02989777732100057,0
Division ID,cntrrgnd,0.02643794891481262,0
Division ID,pbtp,0.022164043236580458,0
Division ID,rgnlprgrm(mrkr),0.02522279273431575,0
Division ID,bdvrst(mrkr),0.029160789437837363,0
Division ID,cntnntd,0.026610898852032185,0
Division ID,cntrrgnnm,0.026224253630901015,0
Division ID,prtcptrdvlpmntndgdgvrnnc,0.026739794420105854,0
Division ID,rbnsss(mrkr),0.025630171703645573,0
Division ID,thsss(mrkr),0.02579065432792702,0
Division ID,dsbltsss(mrkr),0.025347722284910227,0
Division ID,gndrqlt(mrkr),0.025483062631387585,0
Division ID,rgnstnd,0.031186733001737257,0
Division ID,rgnstnnm,0.030711854593044794,0
Division ID,rgnstntp,0.030711854593044794,0
Division ID,rgnstnsb-clss,0.028931060560448058,0
Division ID,prjctbrwsrcntrd,0.028410520766304397,0
Division ID,sctrnm,0.03171747945851119,0
Division ID,sctrprcnt,0.030145017882160712,0
Division ID,mntspnt,0.031047286858676394,0
Section ID,fsclr,0.027577657095674536,0
Section ID,dsrtfctn(mrkr),0.03225007995525519,0
Section ID,prjctnmbr,0.034985760271276964,0
Section ID,ntdmnt(prjct-lvlbdgt),0.027263578247481608,0
Section ID,ndgnssss(mrkr),0.025483062631387585,0
Section ID,sctrd,0.032926781687641946,0
Section ID,ctstlfrdvlpmnt(mrkr),0.0302199747580949,0
Section ID,fndcntrd,0.031122243734610585,0
Section ID,chldrnsss(mrkr),0.02859589060036668,0
Section ID,prgrmmngprcss(nw),0.02817916974668499,0
Section ID,knwldgfrdvlpmnt(mrkr),0.024719044546434792,0
Section ID,dvsnnm,0.02723930622948116,0
Section ID,mxmmcdcntrbtn(prjct-lvl),0.02918967425996764,0
Section ID,cntrrgnprcnt,0.0330978981689393,0
Section ID,stts,0.027964343799895545,0
Section ID,brnchd,0.02723930622948116,0
Section ID,trddvlpmnt(mrkr),0.028346031499177724,0
Section ID,cntnntnm,0.03569807788431566,0
Section ID,rgnstnclss,0.030284464025221575,0
Section ID,cntrrgnd,0.03569807788431566,0
Section ID,pbtp,0.027964343799895545,0
Section ID,rgnlprgrm(mrkr),0.025347722284910227,0
Section ID,bdvrst(mrkr),0.02579065432792702,0
Section ID,cntnntd,0.03642970830234988,0
Section ID,cntrrgnnm,0.034985760271276964,0
Section ID,prtcptrdvlpmntndgdgvrnnc,0.029264631135901827,0
Section ID,rbnsss(mrkr),0.02579065432792702,0
Section ID,thsss(mrkr),0.02596642101166384,0
Section ID,dsbltsss(mrkr),0.025483062631387585,0
Section ID,gndrqlt(mrkr),0.025630171703645573,0
Section ID,rgnstnd,0.03171747945851119,0
Section ID,rgnstnnm,0.031186733001737257,0
Section ID,rgnstntp,0.031186733001737257,0
Section ID,rgnstnsb-clss,0.02922527870496404,0
Section ID,prjctbrwsrcntrd,0.031908548182949796,0
Section ID,sctrnm,0.03738983221528256,0
Section ID,sctrprcnt,0.0348463141282161,0
Section ID,mntspnt,0.03157803331545033,0
Section name,fsclr,0.026940761347545826,0
Section name,dsrtfctn(mrkr),0.034592509028901666,0
Section name,prjctnmbr,0.03763151140542068,0
Section name,ntdmnt(prjct-lvlbdgt),0.026946064238150578,0
Section name,ndgnssss(mrkr),0.031469270264039687,0
Section name,sctrd,0.03165299019138451,0
Section name,ctstlfrdvlpmnt(mrkr),0.03225007995525519,0
Section name,fndcntrd,0.0302199747580949,0
Section name,chldrnsss(mrkr),0.031122243734610585,0
Section name,prgrmmngprcss(nw),0.0277643334356433,0
Section name,knwldgfrdvlpmnt(mrkr),0.02948175468640025,0
Section name,dvsnnm,0.03569807788431566,0
Section name,mxmmcdcntrbtn(prjct-lvl),0.028791614417387187,0
Section name,cntrrgnprcnt,0.035558631741254794,0
Section name,stts,0.02723930622948116,0
Section name,brnchd,0.02667538811915886,0
Section name,trddvlpmnt(mrkr),0.03080000481442641,0
Section name,cntnntnm,0.04246509520818326,0
Section name,rgnstnclss,0.029546243953526927,0
Section name,cntrrgnd,0.034344674419542136,0
Section name,pbtp,0.02723930622948116,0
Section name,rgnlprgrm(mrkr),0.02811468047955832,0
Section name,bdvrst(mrkr),0.02886657129332138,0
Section name,cntnntd,0.039195176682382454,0
Section name,cntrrgnnm,0.04149837844763075,0
Section name,prtcptrdvlpmntndgdgvrnnc,0.031122243734610585,0
Section name,rbnsss(mrkr),0.02886657129332138,0
Section name,thsss(mrkr),0.029160789437837363,0
Section name,dsbltsss(mrkr),0.028346031499177724,0
