source,target,conf,realConf
Fiscal year,FiYe,0.04635543549615577,1
Fiscal year,CIDABusDeliMod,0.03468954409798999,0
Fiscal year,CoReID,0.032630857380666616,0
Fiscal year,Bio,0.03372780801630821,0
Fiscal year,OrganN,0.032630857380666616,0
Fiscal year,DivID,0.032988268269090806,0
Fiscal year,ProPr,0.032988268269090806,0
Fiscal year,DiviN,0.032988268269090806,0
Fiscal year,ContiID,0.032184700688508504,0
Fiscal year,SecID,0.032988268269090806,0
Fiscal year,PrNum,0.032988268269090806,0
Fiscal year,TrDev,0.03285981014442087,0
Fiscal year,BraN,0.03339333394263823,0
Fiscal year,ContiN,0.032630857380666616,0
Fiscal year,CounRegPer,0.035919951781220226,0
Fiscal year,UrIs,0.03326487581796829,0
Fiscal year,ChIss,0.03285981014442087,0
Fiscal year,YoIss,0.03285981014442087,0
Fiscal year,IndiIss,0.037585576335807475,0
Fiscal year,DisIs,0.03893579524763222,0
Fiscal year,ICTAAToFoDev,0.035237369532634004,0
Fiscal year,KnoFoDevelo,0.035621621554971485,0
Fiscal year,GeEq,0.03326487581796829,0
Fiscal year,OrgaID,0.032630857380666616,0
Fiscal year,OrgTy,0.032988268269090806,0
Fiscal year,OrgCl,0.032988268269090806,0
Fiscal year,OrgS,0.03339333394263823,0
Fiscal year,ProjBrCoID,0.03154160514927858,0
Fiscal year,CoReNa,0.038349431595453766,0
Fiscal year,SeID,0.03326487581796829,0
Fiscal year,SecN,0.03339333394263823,0
Fiscal year,SePerc,0.038098456243996284,0
Fiscal year,AmoSpe,0.032379882029209134,0
CIDA business delivery model (old),FiYe,0.032028902200162704,0
CIDA business delivery model (old),CIDABusDeliMod,0.04919089521098774,1
CIDA business delivery model (old),CoReID,0.03420346528973308,0
CIDA business delivery model (old),Bio,0.03203873107641934,0
CIDA business delivery model (old),OrganN,0.029342677207164006,0
CIDA business delivery model (old),DivID,0.034390418677524195,0
CIDA business delivery model (old),ProPr,0.031897706840309285,0
CIDA business delivery model (old),DiviN,0.034390418677524195,0
CIDA business delivery model (old),ContiID,0.033897173454725246,0
CIDA business delivery model (old),SecID,0.031897706840309285,0
CIDA business delivery model (old),PrNum,0.031897706840309285,0
CIDA business delivery model (old),TrDev,0.034261960552854256,0
CIDA business delivery model (old),BraN,0.029470592683021084,0
CIDA business delivery model (old),ContiN,0.03420346528973308,0
CIDA business delivery model (old),CounRegPer,0.03991800258506492,0
CIDA business delivery model (old),UrIs,0.031900444075492765,0
CIDA business delivery model (old),ChIss,0.036754672390069174,0
CIDA business delivery model (old),YoIss,0.034261960552854256,0
CIDA business delivery model (old),IndiIss,0.03626828959256382,0
CIDA business delivery model (old),DisIs,0.036754672390069174,0
CIDA business delivery model (old),ICTAAToFoDev,0.035237369532634004,0
CIDA business delivery model (old),KnoFoDevelo,0.03974592659472707,0
CIDA business delivery model (old),GeEq,0.029342134558351145,0
CIDA business delivery model (old),OrgaID,0.03177307124844854,0
CIDA business delivery model (old),OrgTy,0.031897706840309285,0
CIDA business delivery model (old),OrgCl,0.031897706840309285,0
CIDA business delivery model (old),OrgS,0.029470592683021084,0
CIDA business delivery model (old),ProjBrCoID,0.033540630551200934,0
CIDA business delivery model (old),CoReNa,0.03420346528973308,0
CIDA business delivery model (old),SeID,0.031900444075492765,0
CIDA business delivery model (old),SecN,0.029470592683021084,0
CIDA business delivery model (old),SePerc,0.0339524899382756,0
CIDA business delivery model (old),AmoSpe,0.03638288397956013,0
CountryRegion ID,FiYe,0.03177307124844854,0
CountryRegion ID,CIDABusDeliMod,0.04311491010777639,0
CountryRegion ID,CoReID,0.05342567270716535,1
CountryRegion ID,Bio,0.037017063109776004,0
CountryRegion ID,OrganN,0.0401689779365224,0
CountryRegion ID,DivID,0.040800249116076825,0
CountryRegion ID,ProPr,0.03617092713267771,0
CountryRegion ID,DiviN,0.03154160514927858,0
CountryRegion ID,ContiID,0.05637123076119521,0
CountryRegion ID,SecID,0.040800249116076825,0
CountryRegion ID,PrNum,0.03154160514927858,0
CountryRegion ID,TrDev,0.03604246900800776,0
CountryRegion ID,BraN,0.03177307124844854,0
CountryRegion ID,ContiN,0.04900677445028436,0
CountryRegion ID,CounRegPer,0.05283478210517855,0
CountryRegion ID,UrIs,0.03650540120634768,0
CountryRegion ID,ChIss,0.03604246900800776,0
CountryRegion ID,YoIss,0.03604246900800776,0
CountryRegion ID,IndiIss,0.03946414177834625,0
CountryRegion ID,DisIs,0.03604246900800776,0
CountryRegion ID,ICTAAToFoDev,0.040671790991406886,0
CountryRegion ID,KnoFoDevelo,0.037585576335807475,0
CountryRegion ID,GeEq,0.0316446131237786,0
CountryRegion ID,OrgaID,0.04458787619340338,0
CountryRegion ID,OrgTy,0.03617092713267771,0
CountryRegion ID,OrgCl,0.03617092713267771,0
CountryRegion ID,OrgS,0.03663385933101762,0
CountryRegion ID,ProjBrCoID,0.0456076219449913,0
CountryRegion ID,CoReNa,0.04458787619340338,0
CountryRegion ID,SeID,0.041366189288916756,0
CountryRegion ID,SecN,0.03177307124844854,0
CountryRegion ID,SePerc,0.031080206071302963,0
CountryRegion ID,AmoSpe,0.035499104328183935,0
Biodiversity (marker),FiYe,0.03455915895481732,0
Biodiversity (marker),CIDABusDeliMod,0.03789227078286468,0
Biodiversity (marker),CoReID,0.03398306555243876,0
Biodiversity (marker),Bio,0.03899637968941266,1
Biodiversity (marker),OrganN,0.03398306555243876,0
Biodiversity (marker),DivID,0.03426003353435153,0
Biodiversity (marker),ProPr,0.03426003353435153,0
Biodiversity (marker),DiviN,0.03799910129017389,0
Biodiversity (marker),ContiID,0.03378839245808865,0
Biodiversity (marker),SecID,0.030520965778529162,0
Biodiversity (marker),PrNum,0.03426003353435153,0
Biodiversity (marker),TrDev,0.0343225449946347,0
Biodiversity (marker),BraN,0.03844778942087258,0
Biodiversity (marker),ContiN,0.03398306555243876,0
Biodiversity (marker),CounRegPer,0.039237701563582146,0
Biodiversity (marker),UrIs,0.03462167041510049,0
Biodiversity (marker),ChIss,0.03058347723881233,0
Biodiversity (marker),YoIss,0.0343225449946347,0
Biodiversity (marker),IndiIss,0.03726038394563799,0
Biodiversity (marker),DisIs,0.0343225449946347,0
Biodiversity (marker),ICTAAToFoDev,0.032736273825497944,0
Biodiversity (marker),KnoFoDevelo,0.03595838713780699,0
Biodiversity (marker),GeEq,0.030733039949045225,0
Biodiversity (marker),OrgaID,0.03398306555243876,0
Biodiversity (marker),OrgTy,0.03426003353435153,0
Biodiversity (marker),OrgCl,0.030520965778529162,0
Biodiversity (marker),OrgS,0.030670528488762054,0
Biodiversity (marker),ProjBrCoID,0.033053882645376564,0
Biodiversity (marker),CoReNa,0.03758364931730475,0
Biodiversity (marker),SeID,0.030733039949045225,0
Biodiversity (marker),SecN,0.030670528488762054,0
Biodiversity (marker),SePerc,0.03749548361284055,0
Biodiversity (marker),AmoSpe,0.033894899847974565,0
Organisation name,FiYe,0.03617092713267771,0
Organisation name,CIDABusDeliMod,0.036320260099884136,0
Organisation name,CoReID,0.03536582765730395,0
Organisation name,Bio,0.03650540120634768,0
Organisation name,OrganN,0.048046144394440674,1
Organisation name,DivID,0.031331181422760444,0
Organisation name,ProPr,0.03575007967964142,0
Organisation name,DiviN,0.03575007967964142,0
Organisation name,ContiID,0.038935795247632216,0
Organisation name,SecID,0.031331181422760444,0
Organisation name,PrNum,0.03575007967964142,0
Organisation name,TrDev,0.035621621554971485,0
Organisation name,BraN,0.03617092713267771,0
Organisation name,ContiN,0.03959259990301619,0
Organisation name,CounRegPer,0.03746305910901993,0
Organisation name,UrIs,0.03604246900800776,0
Organisation name,ChIss,0.031202723298090502,0
Organisation name,YoIss,0.031202723298090502,0
Organisation name,IndiIss,0.038935795247632216,0
Organisation name,DisIs,0.035621621554971485,0
Organisation name,ICTAAToFoDev,0.03348836032751171,0
Organisation name,KnoFoDevelo,0.03719979950385755,0
Organisation name,GeEq,0.031413147024608644,0
Organisation name,OrgaID,0.04381937214872843,0
Organisation name,OrgTy,0.0401689779365224,0
Organisation name,OrgCl,0.0401689779365224,0
Organisation name,OrgS,0.040800249116076825,0
Organisation name,ProjBrCoID,0.034113450695611426,0
Organisation name,CoReNa,0.03536582765730395,0
Organisation name,SeID,0.031413147024608644,0
Organisation name,SecN,0.03154160514927858,0
Organisation name,SePerc,0.030888080060134226,0
Organisation name,AmoSpe,0.03511485230584646,0
Division ID,FiYe,0.03339333394263823,0
Division ID,CIDABusDeliMod,0.04246680503010051,0
Division ID,CoReID,0.04406800581024091,0
Division ID,Bio,0.040671790991406886,0
Division ID,OrganN,0.032630857380666616,0
Division ID,DivID,0.0572922086819362,1
Division ID,ProPr,0.032988268269090806,0
Division ID,DiviN,0.05121622357872485,0
Division ID,ContiID,0.048387327630405416,0
Division ID,SecID,0.039064253372302155,0
Division ID,PrNum,0.02691228316587946,0
Division ID,TrDev,0.038935795247632216,0
Division ID,BraN,0.02691228316587946,0
Division ID,ContiN,0.038349431595453766,0
Division ID,CounRegPer,0.035919951781220226,0
Division ID,UrIs,0.0332648758179683,0
Division ID,ChIss,0.032859810144420874,0
Division ID,YoIss,0.038935795247632216,0
Division ID,IndiIss,0.037585576335807475,0
Division ID,DisIs,0.05108776545405492,0
Division ID,ICTAAToFoDev,0.035237369532634004,0
Division ID,KnoFoDevelo,0.040040519811852464,0
Division ID,GeEq,0.026783825041209523,0
Division ID,OrgaID,0.038349431595453766,0
Division ID,OrgTy,0.02691228316587946,0
Division ID,OrgCl,0.02691228316587946,0
Division ID,OrgS,0.02691228316587946,0
Division ID,ProjBrCoID,0.040800249116076825,0
Division ID,CoReNa,0.032630857380666616,0
Division ID,SeID,0.03974592659472707,0
Division ID,SecN,0.02691228316587946,0
Division ID,SePerc,0.026661307814421983,0
Division ID,AmoSpe,0.03237988202920913,0
Programming process (new),FiYe,0.03361681845218164,0
Programming process (new),CIDABusDeliMod,0.031897706840309285,0
Programming process (new),CoReID,0.03318426778854924,0
Programming process (new),Bio,0.03372780801630821,0
Programming process (new),OrganN,0.039456252411219014,0
Programming process (new),DivID,0.030152808554258847,0
Programming process (new),ProPr,0.039874384719397006,1
Programming process (new),DiviN,0.030152808554258847,0
Programming process (new),ContiID,0.032859810144420874,0
Programming process (new),SecID,0.030152808554258847,0
Programming process (new),PrNum,0.03663385933101762,0
Programming process (new),TrDev,0.0332648758179683,0
Programming process (new),BraN,0.03361681845218164,0
Programming process (new),ContiN,0.03318426778854924,0
Programming process (new),CounRegPer,0.03777168057457987,0
Programming process (new),UrIs,0.03348836032751171,0
Programming process (new),ChIss,0.0332648758179683,0
Programming process (new),YoIss,0.03650540120634768,0
Programming process (new),IndiIss,0.03589780269602655,0
Programming process (new),DisIs,0.03650540120634768,0
Programming process (new),ICTAAToFoDev,0.03466618409402425,0
Programming process (new),KnoFoDevelo,0.037585576335807475,0
Programming process (new),GeEq,0.030136092684360613,0
Programming process (new),OrgaID,0.036320260099884136,0
Programming process (new),OrgTy,0.03339333394263823,0
Programming process (new),OrgCl,0.03339333394263823,0
Programming process (new),OrgS,0.03361681845218164,0
Programming process (new),ProjBrCoID,0.040800249116076825,0
Programming process (new),CoReNa,0.03318426778854924,0
Programming process (new),SeID,0.030136092684360613,0
Programming process (new),SecN,0.030264550809030552,0
Programming process (new),SePerc,0.03606928474842665,0
Programming process (new),AmoSpe,0.03606928474842665,0
Division name,FiYe,0.038349431595453766,0
Division name,CIDABusDeliMod,0.0413146182253434,0
Division name,CoReID,0.03714552123444594,0
Division name,Bio,0.038935795247632216,0
Division name,OrganN,0.032028902200162704,0
Division name,DivID,0.04311491010777639,0
Division name,ProPr,0.03231315881317844,0
Division name,DiviN,0.04851578575507536,1
Division name,ContiID,0.03650540120634768,0
Division name,SecID,0.03231315881317844,0
Division name,PrNum,0.03231315881317844,0
Division name,TrDev,0.037585576335807475,0
Division name,BraN,0.032630857380666616,0
Division name,ContiN,0.03714552123444594,0
Division name,CounRegPer,0.03934162455155871,0
Division name,UrIs,0.032502399255996677,0
Division name,ChIss,0.032184700688508504,0
Division name,YoIss,0.032184700688508504,0
Division name,IndiIss,0.03650540120634768,0
Division name,DisIs,0.04298645198310645,0
Division name,ICTAAToFoDev,0.03456108597332005,0
Division name,KnoFoDevelo,0.038935795247632216,0
Division name,GeEq,0.032502399255996677,0
Division name,OrgaID,0.032028902200162704,0
Division name,OrgTy,0.02691228316587946,0
Division name,OrgCl,0.02691228316587946,0
Division name,OrgS,0.02691228316587946,0
Division name,ProjBrCoID,0.03113905541159171,0
Division name,CoReNa,0.03714552123444594,0
Division name,SeID,0.032502399255996677,0
Division name,SecN,0.032630857380666616,0
Division name,SePerc,0.03177792684870522,0
Division name,AmoSpe,0.03689454588298846,0
Continent ID,FiYe,0.03893386822912949,0
Continent ID,CIDABusDeliMod,0.0379991012901739,0
Continent ID,CoReID,0.05378627625920166,0
Continent ID,Bio,0.03332546025974873,0
Continent ID,OrganN,0.03218277367000577,0
Continent ID,DivID,0.043937620667068245,0
Continent ID,ProPr,0.032500472237493944,0
Continent ID,DiviN,0.032500472237493944,0
Continent ID,ContiID,0.06266074272297265,1
Continent ID,SecID,0.043937620667068245,0
Continent ID,PrNum,0.026781898022706797,0
Continent ID,TrDev,0.03256298369777711,0
Continent ID,BraN,0.026781898022706797,0
Continent ID,ContiN,0.05378627625920166,0
Continent ID,CounRegPer,0.044369325345766514,0
Continent ID,UrIs,0.03292039458620131,0
Continent ID,ChIss,0.03828155791256427,0
Continent ID,YoIss,0.03828155791256427,0
Continent ID,IndiIss,0.04219426658583968,0
Continent ID,DisIs,0.03828155791256427,0
Continent ID,ICTAAToFoDev,0.03899637968941266,0
Continent ID,KnoFoDevelo,0.035297953974414445,0
Continent ID,GeEq,0.03292039458620131,0
Continent ID,OrgaID,0.03758364931730474,0
Continent ID,OrgTy,0.026781898022706797,0
Continent ID,OrgCl,0.032500472237493944,0
Continent ID,OrgS,0.026781898022706797,0
Continent ID,ProjBrCoID,0.04445749105023071,0
Continent ID,CoReNa,0.04298452496460372,0
Continent ID,SeID,0.045072364792624005,0
Continent ID,SecN,0.03285788312591814,0
Continent ID,SePerc,0.032094607965541574,0
Continent ID,AmoSpe,0.03749548361284055,0
Section ID,FiYe,0.03385626614097815,0
Section ID,CIDABusDeliMod,0.039064253372302155,0
Section ID,CoReID,0.04514023847551351,0
Section ID,Bio,0.041740096064498994,0
Section ID,OrganN,0.032988268269090806,0
Section ID,DivID,0.04635543549615577,0
Section ID,ProPr,0.03339333394263823,0
Section ID,DiviN,0.03339333394263823,0
Section ID,ContiID,0.04965812190035812,0
Section ID,SecID,0.05931753704967332,1
Section ID,PrNum,0.02691228316587946,0
Section ID,TrDev,0.0332648758179683,0
Section ID,BraN,0.02691228316587946,0
Section ID,ContiN,0.039064253372302155,0
Section ID,CounRegPer,0.03638288397956013,0
Section ID,UrIs,0.03372780801630821,0
Section ID,ChIss,0.0332648758179683,0
Section ID,YoIss,0.03974592659472707,0
Section ID,IndiIss,0.038220973470783834,0
Section ID,DisIs,0.03974592659472707,0
Section ID,ICTAAToFoDev,0.035621621554971485,0
Section ID,KnoFoDevelo,0.03604246900800776,0
Section ID,GeEq,0.03372780801630821,0
Section ID,OrgaID,0.039064253372302155,0
Section ID,OrgTy,0.02691228316587946,0
Section ID,OrgCl,0.02691228316587946,0
Section ID,OrgS,0.03385626614097815,0
Section ID,ProjBrCoID,0.041494647413586695,0
Section ID,CoReNa,0.032988268269090806,0
Section ID,SeID,0.054559756941604254,0
Section ID,SecN,0.04774423209117551,0
Section ID,SePerc,0.04488926312405602,0
Section ID,AmoSpe,0.03881327802084467,0
Project number,FiYe,0.03231315881317844,0
Project number,CIDABusDeliMod,0.03385626614097815,0
Project number,CoReID,0.03663385933101762,0
Project number,Bio,0.032502399255996677,0
Project number,OrganN,0.03663385933101762,0
Project number,DivID,0.02691228316587946,0
Project number,ProPr,0.04737875930301242,0
Project number,DiviN,0.02691228316587946,0
Project number,ContiID,0.03604246900800776,0
Project number,SecID,0.03714552123444594,0
Project number,PrNum,0.04737875930301242,1
Project number,TrDev,0.037017063109776004,0
Project number,BraN,0.03231315881317844,0
Project number,ContiN,0.03663385933101762,0
Project number,CounRegPer,0.04286393475631891,0
Project number,UrIs,0.032184700688508504,0
Project number,ChIss,0.026783825041209523,0
Project number,YoIss,0.031900444075492765,0
Project number,IndiIss,0.031413147024608644,0
Project number,DisIs,0.026783825041209523,0
Project number,ICTAAToFoDev,0.034261960552854256,0
Project number,KnoFoDevelo,0.03844971643937531,0
Project number,GeEq,0.032184700688508504,0
Project number,OrgaID,0.03177307124844854,0
Project number,OrgTy,0.032028902200162704,0
Project number,OrgCl,0.032028902200162704,0
Project number,OrgS,0.03231315881317844,0
Project number,ProjBrCoID,0.04716556684325062,0
Project number,CoReNa,0.03663385933101762,0
Project number,SeID,0.032184700688508504,0
Project number,SecN,0.037714034460477414,0
Project number,SePerc,0.041243672062129214,0
Project number,AmoSpe,0.03638288397956013,0
Trade development (marker),FiYe,0.030022423411086175,0
Trade development (marker),CIDABusDeliMod,0.03407308014656041,0
Trade development (marker),CoReID,0.03285788312591814,0
Trade development (marker),Bio,0.030196677126141054,0
Trade development (marker),OrganN,0.03589587567752382,0
Trade development (marker),DivID,0.029917890334041686,0
Trade development (marker),ProPr,0.036189874956711464,0
Trade development (marker),DiviN,0.029917890334041686,0
Trade development (marker),ContiID,0.03568220599675192,0
Trade development (marker),SecID,0.029917890334041686,0
Trade development (marker),PrNum,0.03305388264537657,0
Trade development (marker),TrDev,0.039388378728329516,1
Trade development (marker),BraN,0.033262948799465564,0
Trade development (marker),ContiN,0.03589587567752382,0
Trade development (marker),CounRegPer,0.03749548361284055,0
Trade development (marker),UrIs,0.030084934871369345,0
Trade development (marker),ChIss,0.026844409482989967,0
Trade development (marker),YoIss,0.029980401794324856,0
Trade development (marker),IndiIss,0.029790341654243952,0
Trade development (marker),DisIs,0.026844409482989967,0
Trade development (marker),ICTAAToFoDev,0.03451933803441483,0
Trade development (marker),KnoFoDevelo,0.0399816745710145,0
Trade development (marker),GeEq,0.030084934871369345,0
Trade development (marker),OrgaID,0.03285788312591814,0
Trade development (marker),OrgTy,0.029917890334041686,0
Trade development (marker),OrgCl,0.03305388264537657,0
Trade development (marker),OrgS,0.030022423411086175,0
Trade development (marker),ProjBrCoID,0.03488321149365526,0
Trade development (marker),CoReNa,0.03589587567752382,0
Trade development (marker),SeID,0.030084934871369345,0
Trade development (marker),SecN,0.030022423411086175,0
Trade development (marker),SePerc,0.03580770997305962,0
Trade development (marker),AmoSpe,0.03580770997305962,0
Branch name,FiYe,0.03339333394263823,0
Branch name,CIDABusDeliMod,0.03468954409798999,0
Branch name,CoReID,0.032630857380666616,0
Branch name,Bio,0.03372780801630821,0
Branch name,OrganN,0.04406800581024091,0
Branch name,DivID,0.02691228316587946,0
Branch name,ProPr,0.032988268269090806,0
Branch name,DiviN,0.02691228316587946,0
Branch name,ContiID,0.032184700688508504,0
Branch name,SecID,0.032988268269090806,0
Branch name,PrNum,0.039064253372302155,0
Branch name,TrDev,0.038935795247632216,0
Branch name,BraN,0.04635543549615577,1
Branch name,ContiN,0.032630857380666616,0
Branch name,CounRegPer,0.035919951781220226,0
Branch name,UrIs,0.0332648758179683,0
Branch name,ChIss,0.032859810144420874,0
Branch name,YoIss,0.026783825041209523,0
Branch name,IndiIss,0.032184700688508504,0
Branch name,DisIs,0.026783825041209523,0
Branch name,ICTAAToFoDev,0.03101059728692177,0
Branch name,KnoFoDevelo,0.035621621554971485,0
Branch name,GeEq,0.0332648758179683,0
Branch name,OrgaID,0.038349431595453766,0
Branch name,OrgTy,0.032988268269090806,0
Branch name,OrgCl,0.032988268269090806,0
Branch name,OrgS,0.03339333394263823,0
Branch name,ProjBrCoID,0.03617092713267771,0
Branch name,CoReNa,0.032630857380666616,0
Branch name,SeID,0.0332648758179683,0
Branch name,SecN,0.03339333394263823,0
Branch name,SePerc,0.038098456243996284,0
Branch name,AmoSpe,0.038098456243996284,0
Continent name,FiYe,0.037714034460477414,0
Continent name,CIDABusDeliMod,0.03385626614097815,0
Continent name,CoReID,0.041494647413586695,0
Continent name,Bio,0.032502399255996677,0
Continent name,OrganN,0.03177307124844854,0
Continent name,DivID,0.032028902200162704,0
Continent name,ProPr,0.032028902200162704,0
Continent name,DiviN,0.032028902200162704,0
Continent name,ContiID,0.049930434958205136,0
Continent name,SecID,0.032028902200162704,0
Continent name,PrNum,0.032028902200162704,0
Continent name,TrDev,0.031900444075492765,0
Continent name,BraN,0.03231315881317844,0
Continent name,ContiN,0.05121622357872485,1
Continent name,CounRegPer,0.04691459149179313,0
Continent name,UrIs,0.026783825041209523,0
Continent name,ChIss,0.031900444075492765,0
Continent name,YoIss,0.031900444075492765,0
Continent name,IndiIss,0.03604246900800776,0
Continent name,DisIs,0.031900444075492765,0
Continent name,ICTAAToFoDev,0.038001028308676625,0
Continent name,KnoFoDevelo,0.03844971643937531,0
Continent name,GeEq,0.032184700688508504,0
Continent name,OrgaID,0.03177307124844854,0
Continent name,OrgTy,0.02691228316587946,0
Continent name,OrgCl,0.032028902200162704,0
Continent name,OrgS,0.02691228316587946,0
Continent name,ProjBrCoID,0.035013596636827925,0
Continent name,CoReNa,0.04635543549615577,0
Continent name,SeID,0.032184700688508504,0
Continent name,SecN,0.03231315881317844,0
Continent name,SePerc,0.03638288397956013,0
Continent name,AmoSpe,0.03638288397956013,0
CountryRegion percent,FiYe,0.03446597994806182,0
CountryRegion percent,CIDABusDeliMod,0.04057668496614865,0
CountryRegion percent,CoReID,0.041091054075415225,0
CountryRegion percent,Bio,0.034815187635239976,0
CountryRegion percent,OrganN,0.03749047031054924,0
CountryRegion percent,DivID,0.030427786771773654,0
CountryRegion percent,ProPr,0.03790592228341839,0
CountryRegion percent,DiviN,0.030427786771773654,0
CountryRegion percent,ContiID,0.04407383160203821,0
CountryRegion percent,SecID,0.034166854527596026,0
CountryRegion percent,PrNum,0.030427786771773654,0
CountryRegion percent,TrDev,0.034192009675936254,0
CountryRegion percent,BraN,0.030577349482006546,0
CountryRegion percent,ContiN,0.044691637840281205,0
CountryRegion percent,CounRegPer,0.05525308169188402,1
CountryRegion percent,UrIs,0.03060250463034677,0
CountryRegion percent,ChIss,0.030452941920113878,0
CountryRegion percent,YoIss,0.030452941920113878,0
CountryRegion percent,IndiIss,0.0336578571393902,0
CountryRegion percent,DisIs,0.030452941920113878,0
CountryRegion percent,ICTAAToFoDev,0.038497602849307457,0
CountryRegion percent,KnoFoDevelo,0.038865844370714206,0
CountryRegion percent,GeEq,0.03060250463034677,0
CountryRegion percent,OrgaID,0.03388988654568326,0
CountryRegion percent,OrgTy,0.034166854527596026,0
CountryRegion percent,OrgCl,0.034166854527596026,0
CountryRegion percent,OrgS,0.03446597994806182,0
CountryRegion percent,ProjBrCoID,0.03609669594995596,0
CountryRegion percent,CoReNa,0.041091054075415225,0
CountryRegion percent,SeID,0.03060250463034677,0
CountryRegion percent,SecN,0.03446597994806182,0
CountryRegion percent,SePerc,0.04143148594933395,0
CountryRegion percent,AmoSpe,0.03783090218446796,0
Status,FiYe,0.02691228316587946,0
Status,CIDABusDeliMod,0.03663385933101762,0
Status,CoReID,0.02691228316587946,0
Status,Bio,0.026783825041209523,0
Status,OrganN,0.035013596636827925,0
Status,DivID,0.02691228316587946,0
Status,ProPr,0.02691228316587946,0
Status,DiviN,0.02691228316587946,0
Status,ContiID,0.034261960552854256,0
Status,SecID,0.03575007967964142,0
Status,PrNum,0.03575007967964142,0
Status,TrDev,0.026783825041209523,0
Status,BraN,0.03663385933101762,0
Status,ContiN,0.035013596636827925,0
Status,CounRegPer,0.032737292917633325,0
Status,UrIs,0.03650540120634768,0
Status,ChIss,0.035621621554971485,0
Status,YoIss,0.035621621554971485,0
Status,IndiIss,0.034261960552854256,0
Status,DisIs,0.035621621554971485,0
Status,ICTAAToFoDev,0.026783825041209523,0
Status,KnoFoDevelo,0.026783825041209523,0
Status,GeEq,0.026783825041209523,0
Status,OrgaID,0.035013596636827925,0
Status,OrgTy,0.02691228316587946,0
Status,OrgCl,0.02691228316587946,0
Status,OrgS,0.03663385933101762,0
Status,ProjBrCoID,0.02691228316587946,0
Status,CoReNa,0.035013596636827925,0
Status,SeID,0.03650540120634768,0
Status,SecN,0.03663385933101762,0
Status,SePerc,0.03476262128537044,0
Status,AmoSpe,0.03476262128537044,0
Maximum CIDA contribution (project-level),FiYe,0.03100941953379047,0
Maximum CIDA contribution (project-level),CIDABusDeliMod,0.03906163413521803,0
Maximum CIDA contribution (project-level),CoReID,0.03289398039795437,0
Maximum CIDA contribution (project-level),Bio,0.0311327724211725,0
Maximum CIDA contribution (project-level),OrganN,0.030825559937286674,0
Maximum CIDA contribution (project-level),DivID,0.03302887738451965,0
Maximum CIDA contribution (project-level),ProPr,0.03302887738451965,0
Maximum CIDA contribution (project-level),DiviN,0.03302887738451965,0
Maximum CIDA contribution (project-level),ContiID,0.036840516002977095,0
Maximum CIDA contribution (project-level),SecID,0.03091549126166353,0
Maximum CIDA contribution (project-level),PrNum,0.03091549126166353,0
Maximum CIDA contribution (project-level),TrDev,0.03305403253285988,0
Maximum CIDA contribution (project-level),BraN,0.028849069274870878,0
Maximum CIDA contribution (project-level),ContiN,0.037030821319289746,0
Maximum CIDA contribution (project-level),CounRegPer,0.038466299319444314,0
Maximum CIDA contribution (project-level),UrIs,0.028874224423211102,0
Maximum CIDA contribution (project-level),ChIss,0.030940646410003755,0
Maximum CIDA contribution (project-level),YoIss,0.02882726028714763,0
Maximum CIDA contribution (project-level),IndiIss,0.032789859267502865,0
Maximum CIDA contribution (project-level),DisIs,0.030940646410003755,0
Maximum CIDA contribution (project-level),ICTAAToFoDev,0.03771943208708942,0
Maximum CIDA contribution (project-level),KnoFoDevelo,0.039800611309669796,0
Maximum CIDA contribution (project-level),GeEq,0.028874224423211102,0
Maximum CIDA contribution (project-level),OrgaID,0.03289398039795437,0
Maximum CIDA contribution (project-level),OrgTy,0.028802105138807405,0
Maximum CIDA contribution (project-level),OrgCl,0.03091549126166353,0
Maximum CIDA contribution (project-level),OrgS,0.028849069274870878,0
Maximum CIDA contribution (project-level),ProjBrCoID,0.03431348463566749,0
Maximum CIDA contribution (project-level),CoReNa,0.03289398039795437,0
Maximum CIDA contribution (project-level),SeID,0.031034574682130694,0
Maximum CIDA contribution (project-level),SecN,0.03100941953379047,0
Maximum CIDA contribution (project-level),SePerc,0.0311659918112054,0
Maximum CIDA contribution (project-level),AmoSpe,0.03530283273254079,0
Branch ID,FiYe,0.02691228316587946,0
Branch ID,CIDABusDeliMod,0.03536582765730395,0
Branch ID,CoReID,0.039874384719397006,0
Branch ID,Bio,0.034885138512157986,0
Branch ID,OrganN,0.04635543549615577,0
Branch ID,DivID,0.040800249116076825,0
Branch ID,ProPr,0.03385626614097815,0
Branch ID,DiviN,0.03385626614097815,0
Branch ID,ContiID,0.045011780350843564,0
Branch ID,SecID,0.04774423209117551,0
Branch ID,PrNum,0.03385626614097815,0
Branch ID,TrDev,0.040671790991406886,0
Branch ID,BraN,0.04934668970081367,0
Branch ID,ContiN,0.03339333394263823,0
Branch ID,CounRegPer,0.03177792684870522,0
Branch ID,UrIs,0.041740096064498994,0
Branch ID,ChIss,0.040671790991406886,0
Branch ID,YoIss,0.03372780801630821,0
Branch ID,IndiIss,0.038935795247632216,0
Branch ID,DisIs,0.03372780801630821,0
Branch ID,ICTAAToFoDev,0.03604246900800776,0
Branch ID,KnoFoDevelo,0.03650540120634768,0
Branch ID,GeEq,0.026783825041209523,0
Branch ID,OrgaID,0.05283648627291455,0
Branch ID,OrgTy,0.03385626614097815,0
Branch ID,OrgCl,0.03385626614097815,0
Branch ID,OrgS,0.034390418677524195,0
Branch ID,ProjBrCoID,0.04737875930301242,0
Branch ID,CoReNa,0.03339333394263823,0
Branch ID,SeID,0.041740096064498994,0
Branch ID,SecN,0.034390418677524195,0
Branch ID,SePerc,0.039623409367939524,0
Branch ID,AmoSpe,0.026661307814421983,0
Section name,FiYe,0.039064253372302155,0
Section name,CIDABusDeliMod,0.038129486433346564,0
Section name,CoReID,0.037714034460477414,0
Section name,Bio,0.03974592659472707,0
Section name,OrganN,0.03231315881317844,0
Section name,DivID,0.032630857380666616,0
Section name,ProPr,0.032630857380666616,0
Section name,DiviN,0.032630857380666616,0
Section name,ContiID,0.037017063109776004,0
Section name,SecID,0.04406800581024091,0
Section name,PrNum,0.032630857380666616,0
Section name,TrDev,0.032502399255996677,0
Section name,BraN,0.032988268269090806,0
Section name,ContiN,0.037714034460477414,0
Section name,CounRegPer,0.03991800258506492,0
Section name,UrIs,0.026783825041209523,0
Section name,ChIss,0.026783825041209523,0
Section name,YoIss,0.032502399255996677,0
Section name,IndiIss,0.031900444075492765,0
Section name,DisIs,0.032502399255996677,0
Section name,ICTAAToFoDev,0.034885138512157986,0
Section name,KnoFoDevelo,0.035237369532634004,0
Section name,GeEq,0.032859810144420874,0
Section name,OrgaID,0.03231315881317844,0
Section name,OrgTy,0.02691228316587946,0
Section name,OrgCl,0.02691228316587946,0
Section name,OrgS,0.032988268269090806,0
Section name,ProjBrCoID,0.031331181422760444,0
Section name,CoReNa,0.037714034460477414,0
Section name,SeID,0.038935795247632216,0
Section name,SecN,0.04514023847551351,0
Section name,SePerc,0.04286393475631891,0
Section name,AmoSpe,0.03746305910901993,0
Regional program (marker),FiYe,0.03348643330900897,0
Regional program (marker),CIDABusDeliMod,0.03426003353435153,0
Regional program (marker),CoReID,0.03305388264537657,0
Regional program (marker),Bio,0.03378839245808865,0
Regional program (marker),OrganN,0.036189874956711464,0
Regional program (marker),DivID,0.030022423411086175,0
Regional program (marker),ProPr,0.03650347418784494,0
Regional program (marker),DiviN,0.030022423411086175,0
Regional program (marker),ContiID,0.03292039458620131,0
Regional program (marker),SecID,0.030022423411086175,0
Regional program (marker),PrNum,0.033262948799465564,0
Regional program (marker),TrDev,0.03332546025974873,0
Regional program (marker),BraN,0.03348643330900897,0
Regional program (marker),ContiN,0.03305388264537657,0
Regional program (marker),CounRegPer,0.04058169826843996,0
Regional program (marker),UrIs,0.030196677126141054,0
Regional program (marker),ChIss,0.026844409482989967,0
Regional program (marker),YoIss,0.030084934871369345,0
Regional program (marker),IndiIss,0.029882402034595638,0
Regional program (marker),DisIs,0.030084934871369345,0
Regional program (marker),ICTAAToFoDev,0.034726768535804683,0
Regional program (marker),KnoFoDevelo,0.03494572295393843,0
Regional program (marker),GeEq,0.030196677126141054,0
Regional program (marker),OrgaID,0.036189874956711464,0
Regional program (marker),OrgTy,0.033262948799465564,0
Regional program (marker),OrgCl,0.033262948799465564,0
Regional program (marker),OrgS,0.03348643330900897,0
Regional program (marker),ProjBrCoID,0.03511467759282521,0
Regional program (marker),CoReNa,0.036189874956711464,0
Regional program (marker),SeID,0.030196677126141054,0
Regional program (marker),SecN,0.030134165665857887,0
Regional program (marker),SePerc,0.03610170925224727,0
Regional program (marker),AmoSpe,0.03610170925224727,0
Fund centre ID,FiYe,0.03758364931730474,0
Fund centre ID,CIDABusDeliMod,0.033725880997805484,0
Fund centre ID,CoReID,0.04136426227041403,0
Fund centre ID,Bio,0.026844409482989967,0
Fund centre ID,OrganN,0.03164268610527587,0
Fund centre ID,DivID,0.03701513609127327,0
Fund centre ID,ProPr,0.03189851705699003,0
Fund centre ID,DiviN,0.03189851705699003,0
Fund centre ID,ContiID,0.045361697416586445,0
Fund centre ID,SecID,0.04213175512555651,0
Fund centre ID,PrNum,0.03189851705699003,0
Fund centre ID,TrDev,0.037077647551556445,0
Fund centre ID,BraN,0.03218277367000577,0
Fund centre ID,ContiN,0.03650347418784494,0
Fund centre ID,CounRegPer,0.04289635926013952,0
Fund centre ID,UrIs,0.03764616077758791,0
Fund centre ID,ChIss,0.031961028517273206,0
Fund centre ID,YoIss,0.031961028517273206,0
Fund centre ID,IndiIss,0.04073237543318733,0
Fund centre ID,DisIs,0.031961028517273206,0
Fund centre ID,ICTAAToFoDev,0.0343225449946347,0
Fund centre ID,KnoFoDevelo,0.03851030088115575,0
Fund centre ID,GeEq,0.03224528513028894,0
Fund centre ID,OrgaID,0.04136426227041403,0
Fund centre ID,OrgTy,0.03189851705699003,0
Fund centre ID,OrgCl,0.03189851705699003,0
Fund centre ID,OrgS,0.03218277367000577,0
Fund centre ID,ProjBrCoID,0.03893386822912949,0
Fund centre ID,CoReNa,0.03164268610527587,0
Fund centre ID,SeID,0.04304703642488689,0
Fund centre ID,SecN,0.03218277367000577,0
Fund centre ID,SePerc,0.03641530848338075,0
Fund centre ID,AmoSpe,0.03155452040081167,0
Fund centre name,FiYe,0.03663385933101762,0
Fund centre name,CIDABusDeliMod,0.03339333394263823,0
Fund centre name,CoReID,0.031331181422760444,0
Fund centre name,Bio,0.026783825041209523,0
Fund centre name,OrganN,0.03575007967964142,0
Fund centre name,DivID,0.02691228316587946,0
Fund centre name,ProPr,0.03154160514927858,0
Fund centre name,DiviN,0.02691228316587946,0
Fund centre name,ContiID,0.035237369532634004,0
Fund centre name,SecID,0.03154160514927858,0
Fund centre name,PrNum,0.03617092713267771,0
Fund centre name,TrDev,0.03604246900800776,0
Fund centre name,BraN,0.03663385933101762,0
Fund centre name,ContiN,0.03575007967964142,0
Fund centre name,CounRegPer,0.041617578837711444,0
Fund centre name,UrIs,0.0316446131237786,0
Fund centre name,ChIss,0.026783825041209523,0
Fund centre name,YoIss,0.026783825041209523,0
Fund centre name,IndiIss,0.035237369532634004,0
Fund centre name,DisIs,0.026783825041209523,0
Fund centre name,ICTAAToFoDev,0.03372780801630821,0
Fund centre name,KnoFoDevelo,0.037585576335807475,0
Fund centre name,GeEq,0.0316446131237786,0
Fund centre name,OrgaID,0.03575007967964142,0
Fund centre name,OrgTy,0.03154160514927858,0
Fund centre name,OrgCl,0.03154160514927858,0
Fund centre name,OrgS,0.03177307124844854,0
Fund centre name,ProjBrCoID,0.030651350921701827,0
Fund centre name,CoReNa,0.03575007967964142,0
Fund centre name,SeID,0.0316446131237786,0
Fund centre name,SecN,0.03177307124844854,0
Fund centre name,SePerc,0.035499104328183935,0
Fund centre name,AmoSpe,0.035499104328183935,0
Untied amount(Project-level budget),FiYe,0.031674142690381116,0
Untied amount(Project-level budget),CIDABusDeliMod,0.03462469955892121,0
Untied amount(Project-level budget),CoReID,0.03143095129162844,0
Untied amount(Project-level budget),Bio,0.03183049319857475,0
Untied amount(Project-level budget),OrganN,0.03143095129162844,0
Untied amount(Project-level budget),DivID,0.03154950709852036,0
Untied amount(Project-level budget),ProPr,0.033979901139804904,0
Untied amount(Project-level budget),DiviN,0.03154950709852036,0
Untied amount(Project-level budget),ContiID,0.0336578571393902,0
Untied amount(Project-level budget),SecID,0.03154950709852036,0
Untied amount(Project-level budget),PrNum,0.033979901139804904,0
Untied amount(Project-level budget),TrDev,0.03400505628814513,0
Untied amount(Project-level budget),BraN,0.029181430853166206,0
Untied amount(Project-level budget),ContiN,0.033802067429467016,0
Untied amount(Project-level budget),CounRegPer,0.03999125244338756,0
Untied amount(Project-level budget),UrIs,0.03169929783872134,0
Untied amount(Project-level budget),ChIss,0.026713874164291516,0
Untied amount(Project-level budget),YoIss,0.02914426820557605,0
Untied amount(Project-level budget),IndiIss,0.03134319614769063,0
Untied amount(Project-level budget),DisIs,0.02914426820557605,0
Untied amount(Project-level budget),ICTAAToFoDev,0.03498755600696228,0
Untied amount(Project-level budget),KnoFoDevelo,0.04150757702428436,0
Untied amount(Project-level budget),GeEq,0.02920658600150643,0
Untied amount(Project-level budget),OrgaID,0.03143095129162844,0
Untied amount(Project-level budget),OrgTy,0.03154950709852036,0
Untied amount(Project-level budget),OrgCl,0.03154950709852036,0
Untied amount(Project-level budget),OrgS,0.031674142690381116,0
Untied amount(Project-level budget),ProjBrCoID,0.03533012005162965,0
Untied amount(Project-level budget),CoReNa,0.03143095129162844,0
Untied amount(Project-level budget),SeID,0.02920658600150643,0
Untied amount(Project-level budget),SecN,0.031674142690381116,0
Untied amount(Project-level budget),SePerc,0.03651361544122431,0
Untied amount(Project-level budget),AmoSpe,0.03414249930338574,0
FSTC percent,FiYe,0.038840689222373985,0
FSTC percent,CIDABusDeliMod,0.034166854527596026,0
FSTC percent,CoReID,0.03749047031054924,0
FSTC percent,Bio,0.026713874164291516,0
FSTC percent,OrganN,0.03749047031054924,0
FSTC percent,DivID,0.026688719015951292,0
FSTC percent,ProPr,0.03240729323073844,0
FSTC percent,DiviN,0.026688719015951292,0
FSTC percent,ContiID,0.042063731267141226,0
FSTC percent,SecID,0.04384444166031274,0
FSTC percent,PrNum,0.03240729323073844,0
FSTC percent,TrDev,0.04386959680865296,0
FSTC percent,BraN,0.03276470411916264,0
FSTC percent,ContiN,0.042891345957848215,0
FSTC percent,CounRegPer,0.04028584566051296,0
FSTC percent,UrIs,0.032789859267502865,0
FSTC percent,ChIss,0.03243244837907867,0
FSTC percent,YoIss,0.026713874164291516,0
FSTC percent,IndiIss,0.03183049319857475,0
FSTC percent,DisIs,0.026713874164291516,0
FSTC percent,ICTAAToFoDev,0.034815187635239976,0
FSTC percent,KnoFoDevelo,0.03939419090142824,0
FSTC percent,GeEq,0.032789859267502865,0
FSTC percent,OrgaID,0.032089594663250266,0
FSTC percent,OrgTy,0.03240729323073844,0
FSTC percent,OrgCl,0.03240729323073844,0
FSTC percent,OrgS,0.03276470411916264,0
FSTC percent,ProjBrCoID,0.031107617272832268,0
FSTC percent,CoReNa,0.03749047031054924,0
FSTC percent,SeID,0.038865844370714206,0
FSTC percent,SecN,0.044916674325585326,0
FSTC percent,SePerc,0.04863265347906592,0
FSTC percent,AmoSpe,0.043231777831766946,0
IRTC percent,FiYe,0.03276470411916264,0
IRTC percent,CIDABusDeliMod,0.034166854527596026,0
IRTC percent,CoReID,0.03749047031054924,0
IRTC percent,Bio,0.026713874164291516,0
IRTC percent,OrganN,0.03749047031054924,0
IRTC percent,DivID,0.03240729323073844,0
IRTC percent,ProPr,0.03240729323073844,0
IRTC percent,DiviN,0.026688719015951292,0
IRTC percent,ContiID,0.042063731267141226,0
IRTC percent,SecID,0.03812586744552559,0
IRTC percent,PrNum,0.03240729323073844,0
IRTC percent,TrDev,0.04386959680865296,0
IRTC percent,BraN,0.03276470411916264,0
IRTC percent,ContiN,0.042891345957848215,0
IRTC percent,CounRegPer,0.04028584566051296,0
IRTC percent,UrIs,0.032789859267502865,0
IRTC percent,ChIss,0.03243244837907867,0
IRTC percent,YoIss,0.03243244837907867,0
IRTC percent,IndiIss,0.036947112232857994,0
IRTC percent,DisIs,0.03243244837907867,0
IRTC percent,ICTAAToFoDev,0.038865844370714206,0
IRTC percent,KnoFoDevelo,0.035167418655715994,0
IRTC percent,GeEq,0.032789859267502865,0
IRTC percent,OrgaID,0.032089594663250266,0
IRTC percent,OrgTy,0.03240729323073844,0
IRTC percent,OrgCl,0.03240729323073844,0
IRTC percent,OrgS,0.03276470411916264,0
IRTC percent,ProjBrCoID,0.031107617272832268,0
IRTC percent,CoReNa,0.03749047031054924,0
IRTC percent,SeID,0.032789859267502865,0
IRTC percent,SecN,0.038840689222373985,0
IRTC percent,SePerc,0.043231777831766946,0
IRTC percent,AmoSpe,0.03783090218446796,0
CFLI (marker),FiYe,0.0382190464522811,0
CFLI (marker),CIDABusDeliMod,0.03758364931730474,0
CFLI (marker),CoReID,0.03701513609127327,0
CFLI (marker),Bio,0.026844409482989967,0
CFLI (marker),OrganN,0.03189851705699003,0
CFLI (marker),DivID,0.03218277367000577,0
CFLI (marker),ProPr,0.03758364931730474,0
CFLI (marker),DiviN,0.026781898022706797,0
CFLI (marker),ContiID,0.036565985648128116,0
CFLI (marker),SecID,0.03218277367000577,0
CFLI (marker),PrNum,0.03218277367000577,0
CFLI (marker),TrDev,0.03764616077758791,0
CFLI (marker),BraN,0.032500472237493944,0
CFLI (marker),ContiN,0.03189851705699003,0
CFLI (marker),CounRegPer,0.03937404905537933,0
CFLI (marker),UrIs,0.03256298369777711,0
CFLI (marker),ChIss,0.03764616077758791,0
CFLI (marker),YoIss,0.03224528513028894,0
CFLI (marker),IndiIss,0.03170519756555904,0
CFLI (marker),DisIs,0.03224528513028894,0
CFLI (marker),ICTAAToFoDev,0.03851030088115575,0
CFLI (marker),KnoFoDevelo,0.03494572295393843,0
CFLI (marker),GeEq,0.03256298369777711,0
CFLI (marker),OrgaID,0.03189851705699003,0
CFLI (marker),OrgTy,0.03218277367000577,0
CFLI (marker),OrgCl,0.03218277367000577,0
CFLI (marker),OrgS,0.032500472237493944,0
CFLI (marker),ProjBrCoID,0.03523544251413128,0
CFLI (marker),CoReNa,0.03701513609127327,0
CFLI (marker),SeID,0.03256298369777711,0
CFLI (marker),SecN,0.032500472237493944,0
CFLI (marker),SePerc,0.036926970386809074,0
CFLI (marker),AmoSpe,0.036926970386809074,0
Bilateral aid (international marker),FiYe,0.03164268610527587,0
Bilateral aid (international marker),CIDABusDeliMod,0.03650347418784494,0
Bilateral aid (international marker),CoReID,0.03141122000610592,0
Bilateral aid (international marker),Bio,0.0343225449946347,0
Bilateral aid (international marker),OrganN,0.033725880997805484,0
Bilateral aid (international marker),DivID,0.029153014160545374,0
Bilateral aid (international marker),ProPr,0.03389524643622252,0
Bilateral aid (international marker),DiviN,0.03152413029838394,0
Bilateral aid (international marker),ContiID,0.03362690448192356,0
Bilateral aid (international marker),SecID,0.029153014160545374,0
Bilateral aid (international marker),PrNum,0.03152413029838394,0
Bilateral aid (international marker),TrDev,0.031586641758667114,0
Bilateral aid (international marker),BraN,0.03407308014656041,0
Bilateral aid (international marker),ContiN,0.033725880997805484,0
Bilateral aid (international marker),CounRegPer,0.03514727680966708,0
Bilateral aid (international marker),UrIs,0.029274803524274508,0
Bilateral aid (international marker),ChIss,0.026844409482989967,0
Bilateral aid (international marker),YoIss,0.02921552562082854,0
Bilateral aid (international marker),IndiIss,0.031366072815612364,0
Bilateral aid (international marker),DisIs,0.02921552562082854,0
Bilateral aid (international marker),ICTAAToFoDev,0.0308950662184642,0
Bilateral aid (international marker),KnoFoDevelo,0.03304967086499304,0
Bilateral aid (international marker),GeEq,0.029274803524274508,0
Bilateral aid (international marker),OrgaID,0.03141122000610592,0
Bilateral aid (international marker),OrgTy,0.029153014160545374,0
Bilateral aid (international marker),OrgCl,0.03152413029838394,0
Bilateral aid (international marker),OrgS,0.029212292063991334,0
Bilateral aid (international marker),ProjBrCoID,0.033122056391275155,0
Bilateral aid (international marker),CoReNa,0.03141122000610592,0
Bilateral aid (international marker),SeID,0.029274803524274508,0
Bilateral aid (international marker),SecN,0.029212292063991334,0
Bilateral aid (international marker),SePerc,0.03363771529334128,0
Bilateral aid (international marker),AmoSpe,0.031323054301641715,0
PBA type,FiYe,0.035013596636827925,0
PBA type,CIDABusDeliMod,0.03575007967964142,0
PBA type,CoReID,0.03385626614097815,0
PBA type,Bio,0.035621621554971485,0
PBA type,OrganN,0.02691228316587946,0
PBA type,DivID,0.02691228316587946,0
PBA type,ProPr,0.034390418677524195,0
PBA type,DiviN,0.02691228316587946,0
PBA type,ContiID,0.0332648758179683,0
PBA type,SecID,0.034390418677524195,0
PBA type,PrNum,0.034390418677524195,0
PBA type,TrDev,0.034261960552854256,0
PBA type,BraN,0.035013596636827925,0
PBA type,ContiN,0.03385626614097815,0
PBA type,CounRegPer,0.03746305910901993,0
PBA type,UrIs,0.026783825041209523,0
PBA type,ChIss,0.026783825041209523,0
PBA type,YoIss,0.026783825041209523,0
PBA type,IndiIss,0.026783825041209523,0
PBA type,DisIs,0.026783825041209523,0
PBA type,ICTAAToFoDev,0.03650540120634768,0
PBA type,KnoFoDevelo,0.031900444075492765,0
PBA type,GeEq,0.034885138512157986,0
PBA type,OrgaID,0.02691228316587946,0
PBA type,OrgTy,0.034390418677524195,0
PBA type,OrgCl,0.02691228316587946,0
PBA type,OrgS,0.02691228316587946,0
PBA type,ProjBrCoID,0.037714034460477414,0
PBA type,CoReNa,0.03385626614097815,0
PBA type,SeID,0.034885138512157986,0
PBA type,SecN,0.035013596636827925,0
PBA type,SePerc,0.040549273764619344,0
PBA type,AmoSpe,0.047493256739718034,0
Enviromental sustainability (marker),FiYe,0.03164268610527587,0
Enviromental sustainability (marker),CIDABusDeliMod,0.03455915895481732,0
Enviromental sustainability (marker),CoReID,0.03141122000610592,0
Enviromental sustainability (marker),Bio,0.03182983315741979,0
Enviromental sustainability (marker),OrganN,0.033725880997805484,0
Enviromental sustainability (marker),DivID,0.029153014160545374,0
Enviromental sustainability (marker),ProPr,0.03389524643622252,0
Enviromental sustainability (marker),DiviN,0.03152413029838394,0
Enviromental sustainability (marker),ContiID,0.035887736148234754,0
Enviromental sustainability (marker),SecID,0.029153014160545374,0
Enviromental sustainability (marker),PrNum,0.03389524643622252,0
Enviromental sustainability (marker),TrDev,0.031586641758667114,0
Enviromental sustainability (marker),BraN,0.03164268610527587,0
Enviromental sustainability (marker),ContiN,0.036040541989505036,0
Enviromental sustainability (marker),CounRegPer,0.0372606629325232,0
Enviromental sustainability (marker),UrIs,0.03170519756555904,0
Enviromental sustainability (marker),ChIss,0.031586641758667114,0
Enviromental sustainability (marker),YoIss,0.033957757896505694,0
Enviromental sustainability (marker),IndiIss,0.035887736148234754,0
Enviromental sustainability (marker),DisIs,0.033957757896505694,0
Enviromental sustainability (marker),ICTAAToFoDev,0.0308950662184642,0
Enviromental sustainability (marker),KnoFoDevelo,0.03511809132566074,0
Enviromental sustainability (marker),GeEq,0.029274803524274508,0
Enviromental sustainability (marker),OrgaID,0.03141122000610592,0
Enviromental sustainability (marker),OrgTy,0.03152413029838394,0
Enviromental sustainability (marker),OrgCl,0.03152413029838394,0
Enviromental sustainability (marker),OrgS,0.029212292063991334,0
Enviromental sustainability (marker),ProjBrCoID,0.033122056391275155,0
Enviromental sustainability (marker),CoReNa,0.033725880997805484,0
Enviromental sustainability (marker),SeID,0.029274803524274508,0
Enviromental sustainability (marker),SecN,0.029212292063991334,0
Enviromental sustainability (marker),SePerc,0.03363771529334128,0
Enviromental sustainability (marker),AmoSpe,0.031323054301641715,0
Climate change adaptation (marker),FiYe,0.03189851705699003,0
Climate change adaptation (marker),CIDABusDeliMod,0.03488321149365526,0
Climate change adaptation (marker),CoReID,0.03407308014656041,0
Climate change adaptation (marker),Bio,0.03209931551819978,0
Climate change adaptation (marker),OrganN,0.03407308014656041,0
Climate change adaptation (marker),DivID,0.02927460985992171,0
Climate change adaptation (marker),ProPr,0.03176732169713662,0
Climate change adaptation (marker),DiviN,0.03176732169713662,0
Climate change adaptation (marker),ContiID,0.03632887403434426,0
Climate change adaptation (marker),SecID,0.03176732169713662,0
Climate change adaptation (marker),PrNum,0.02927460985992171,0
Climate change adaptation (marker),TrDev,0.03182983315741979,0
Climate change adaptation (marker),BraN,0.029340207539848416,0
Climate change adaptation (marker),ContiN,0.03650347418784494,0
Climate change adaptation (marker),CounRegPer,0.03774097796044505,0
Climate change adaptation (marker),UrIs,0.029402719000131583,0
Climate change adaptation (marker),ChIss,0.03182983315741979,0
Climate change adaptation (marker),YoIss,0.029337121320204877,0
Climate change adaptation (marker),IndiIss,0.033957757896505694,0
Climate change adaptation (marker),DisIs,0.029337121320204877,0
Climate change adaptation (marker),ICTAAToFoDev,0.03318456785155833,0
Climate change adaptation (marker),KnoFoDevelo,0.03332546025974873,0
Climate change adaptation (marker),GeEq,0.029402719000131583,0
Climate change adaptation (marker),OrgaID,0.03164268610527587,0
Climate change adaptation (marker),OrgTy,0.02927460985992171,0
Climate change adaptation (marker),OrgCl,0.03176732169713662,0
Climate change adaptation (marker),OrgS,0.029340207539848416,0
Climate change adaptation (marker),ProjBrCoID,0.031200796279587776,0
Climate change adaptation (marker),CoReNa,0.03407308014656041,0
Climate change adaptation (marker),SeID,0.029402719000131583,0
Climate change adaptation (marker),SecN,0.03189851705699003,0
Climate change adaptation (marker),SePerc,0.03398491444209621,0
Climate change adaptation (marker),AmoSpe,0.03398491444209621,0
Climate change mitigation (marker),FiYe,0.03189851705699003,0
Climate change mitigation (marker),CIDABusDeliMod,0.03488321149365526,0
Climate change mitigation (marker),CoReID,0.03407308014656041,0
Climate change mitigation (marker),Bio,0.03209931551819978,0
Climate change mitigation (marker),OrganN,0.03407308014656041,0
Climate change mitigation (marker),DivID,0.02927460985992171,0
Climate change mitigation (marker),ProPr,0.03176732169713662,0
Climate change mitigation (marker),DiviN,0.03176732169713662,0
Climate change mitigation (marker),ContiID,0.03632887403434426,0
Climate change mitigation (marker),SecID,0.03176732169713662,0
Climate change mitigation (marker),PrNum,0.02927460985992171,0
Climate change mitigation (marker),TrDev,0.03182983315741979,0
Climate change mitigation (marker),BraN,0.029340207539848416,0
Climate change mitigation (marker),ContiN,0.03650347418784494,0
Climate change mitigation (marker),CounRegPer,0.03995042708888553,0
Climate change mitigation (marker),UrIs,0.029402719000131583,0
Climate change mitigation (marker),ChIss,0.03182983315741979,0
Climate change mitigation (marker),YoIss,0.029337121320204877,0
Climate change mitigation (marker),IndiIss,0.031586641758667114,0
Climate change mitigation (marker),DisIs,0.029337121320204877,0
Climate change mitigation (marker),ICTAAToFoDev,0.03318456785155833,0
Climate change mitigation (marker),KnoFoDevelo,0.03332546025974873,0
Climate change mitigation (marker),GeEq,0.029402719000131583,0
Climate change mitigation (marker),OrgaID,0.03164268610527587,0
Climate change mitigation (marker),OrgTy,0.02927460985992171,0
Climate change mitigation (marker),OrgCl,0.03176732169713662,0
Climate change mitigation (marker),OrgS,0.029340207539848416,0
Climate change mitigation (marker),ProjBrCoID,0.031200796279587776,0
Climate change mitigation (marker),CoReNa,0.03407308014656041,0
Climate change mitigation (marker),SeID,0.029402719000131583,0
Climate change mitigation (marker),SecN,0.03189851705699003,0
Climate change mitigation (marker),SePerc,0.03398491444209621,0
Climate change mitigation (marker),AmoSpe,0.03398491444209621,0
Desertification (marker),FiYe,0.033725880997805484,0
Desertification (marker),CIDABusDeliMod,0.0395734456084149,0
Desertification (marker),CoReID,0.033262948799465564,0
Desertification (marker),Bio,0.03404557701272193,0
Desertification (marker),OrganN,0.03650347418784494,0
Desertification (marker),DivID,0.03348643330900897,0
Desertification (marker),ProPr,0.036838700952160054,0
Desertification (marker),DiviN,0.036838700952160054,0
Desertification (marker),ContiID,0.03311639410565974,0
Desertification (marker),SecID,0.03348643330900897,0
Desertification (marker),PrNum,0.03348643330900897,0
Desertification (marker),TrDev,0.03354894476929214,0
Desertification (marker),BraN,0.033725880997805484,0
Desertification (marker),ContiN,0.033262948799465564,0
Desertification (marker),CounRegPer,0.038130880747816905,0
Desertification (marker),UrIs,0.030316400970539302,0
Desertification (marker),ChIss,0.030196677126141054,0
Desertification (marker),YoIss,0.030196677126141054,0
Desertification (marker),IndiIss,0.029980401794324856,0
Desertification (marker),DisIs,0.03354894476929214,0
Desertification (marker),ICTAAToFoDev,0.03224528513028894,0
Desertification (marker),KnoFoDevelo,0.037954782243147855,0
Desertification (marker),GeEq,0.030316400970539302,0
Desertification (marker),OrgaID,0.033262948799465564,0
Desertification (marker),OrgTy,0.030134165665857887,0
Desertification (marker),OrgCl,0.030134165665857887,0
Desertification (marker),OrgS,0.030253889510256135,0
Desertification (marker),ProjBrCoID,0.03535975934488752,0
Desertification (marker),CoReNa,0.033262948799465564,0
Desertification (marker),SeID,0.030316400970539302,0
Desertification (marker),SecN,0.033725880997805484,0
Desertification (marker),SePerc,0.03965583387176014,0
Desertification (marker),AmoSpe,0.03317478309500137,0
Participatory development and good governance,FiYe,0.030749888294191754,0
Participatory development and good governance,CIDABusDeliMod,0.03337279711771571,0
Participatory development and good governance,CoReID,0.0305942808325649,0
Participatory development and good governance,Bio,0.0308950662184642,0
Participatory development and good governance,OrganN,0.034406663642422994,0
Participatory development and good governance,DivID,0.03067052848876205,0
Participatory development and good governance,ProPr,0.03455915895481732,0
Participatory development and good governance,DiviN,0.03067052848876205,0
Participatory development and good governance,ContiID,0.03245301111672352,0
Participatory development and good governance,SecID,0.03067052848876205,0
Participatory development and good governance,PrNum,0.03261484372178969,0
Participatory development and good governance,TrDev,0.03267735518207286,0
Participatory development and good governance,BraN,0.030749888294191754,0
Participatory development and good governance,ContiN,0.032500472237493944,0
Participatory development and good governance,CounRegPer,0.035531528832004555,0
Participatory development and good governance,UrIs,0.028828404618732453,0
Participatory development and good governance,ChIss,0.026844409482989967,0
Participatory development and good governance,YoIss,0.028788724716017594,0
Participatory development and good governance,IndiIss,0.03058347723881233,0
Participatory development and good governance,DisIs,0.028788724716017594,0
Participatory development and good governance,ICTAAToFoDev,0.03366656819536762,0
Participatory development and good governance,KnoFoDevelo,0.03726038394563799,0
Participatory development and good governance,GeEq,0.028828404618732453,0
Participatory development and good governance,OrgaID,0.032500472237493944,0
Participatory development and good governance,OrgTy,0.03067052848876205,0
Participatory development and good governance,OrgCl,0.03067052848876205,0
Participatory development and good governance,OrgS,0.030749888294191754,0
Participatory development and good governance,ProjBrCoID,0.03561969453646875,0
Participatory development and good governance,CoReNa,0.032500472237493944,0
Participatory development and good governance,SeID,0.028828404618732453,0
Participatory development and good governance,SecN,0.030749888294191754,0
Participatory development and good governance,SePerc,0.0343184979379588,0
Participatory development and good governance,AmoSpe,0.03241230653302975,0
