source,target,conf,realConf
Fiscal year,Fiscal year,0.0591432656706732,1
Fiscal year,Continent ID,0.027487358516390108,0
Fiscal year,Division ID,0.03132428761214379,0
Fiscal year,Disability issues (marker),0.03737600817879334,0
Fiscal year,Youth issues (marker),0.032788461332570476,0
Fiscal year,Branch ID,0.028542389806290848,0
Fiscal year,Gender equality (marker),0.03176387843532553,0
Fiscal year,Project Browser country ID,0.029162677830568865,0
Fiscal year,Organisation class,0.03408220354036007,0
Fiscal year,Continent name,0.03007243359950997,0
Fiscal year,CountryRegion percent,0.030282660337770818,0
Fiscal year,Division name,0.03364253578368791,0
Fiscal year,Status,0.0253922996437809,0
Fiscal year,Participatory development and good governance,0.030397767905665604,0
Fiscal year,CFLI (marker),0.03358535914153876,0
Fiscal year,Organisation type,0.037285497196114376,0
Fiscal year,CountryRegion name,0.02880619046029414,0
Fiscal year,Amount spent,0.02737225094849532,0
Fiscal year,Bilateral aid (international marker),0.032228937339039546,0
Fiscal year,Project number,0.0331325211859482,0
Fiscal year,ICT as a tool for development (marker),0.03176387843532553,0
Fiscal year,Biodiversity (marker),0.032788461332570476,0
Fiscal year,Indigenous issues (marker),0.03324075468360654,0
Fiscal year,Section ID,0.028178093665048202,0
Fiscal year,Regional program (marker),0.03358535914153876,0
Fiscal year,Climate change mitigation (marker),0.03103528615284024,0
Fiscal year,Desertification (marker),0.03394965528278141,0
Fiscal year,Trade development (marker),0.03117312793601313,0
Fiscal year,Urban issues (marker),0.032788461332570476,0
Fiscal year,Children issues (marker),0.03394965528278141,0
Fiscal year,Knowledge for development (marker),0.029335237493707884,0
Fiscal year,Organisation ID,0.03266173848034232,0
Fiscal year,Organisation name,0.03455327613679452,0
Fiscal year,Organisation sub-class,0.03248341169791585,0
Fiscal year,CountryRegion ID,0.026558999703969768,0
Fiscal year,Sector ID,0.028485213164141706,0
Fiscal year,Sector name,0.03132428761214379,0
Fiscal year,Sector percent,0.03296023697590427,0
Continent ID,Fiscal year,0.02746054175506358,0
Continent ID,Continent ID,0.059148099414567654,1
Continent ID,Division ID,0.03743908823257956,0
Continent ID,Disability issues (marker),0.02894986665366402,0
Continent ID,Youth issues (marker),0.03248824544181031,0
Continent ID,Branch ID,0.03538002308642547,0
Continent ID,Gender equality (marker),0.02939724787975148,0
Continent ID,Project Browser country ID,0.03691390157586819,0
Continent ID,Organisation class,0.03355854238021223,0
Continent ID,Continent name,0.05023209653708723,0
Continent ID,CountryRegion percent,0.04160108141458211,0
Continent ID,Division name,0.033048527782472525,0
Continent ID,Status,0.029308420732381348,0
Continent ID,Participatory development and good governance,0.02894986665366402,0
Continent ID,CFLI (marker),0.02701717975696619,0
Continent ID,Organisation type,0.033998210136884394,0
Continent ID,CountryRegion name,0.038658688357609286,0
Continent ID,Amount spent,0.03986239528592402,0
Continent ID,Bilateral aid (international marker),0.032053573909645784,0
Continent ID,Project number,0.03257774507686664,0
Continent ID,ICT as a tool for development (marker),0.03007726734340442,0
Continent ID,Biodiversity (marker),0.03248824544181031,0
Continent ID,Indigenous issues (marker),0.030963082171057598,0
Continent ID,Section ID,0.04167241098061664,0
Continent ID,Regional program (marker),0.027099884826869928,0
Continent ID,Climate change mitigation (marker),0.030875551061605708,0
Continent ID,Desertification (marker),0.02939724787975148,0
Continent ID,Trade development (marker),0.030963082171057598,0
Continent ID,Urban issues (marker),0.03016999727026619,0
Continent ID,Children issues (marker),0.03152230870366692,0
Continent ID,Knowledge for development (marker),0.0292124599820197,0
Continent ID,Organisation ID,0.04064207845993037,0
Continent ID,Organisation name,0.033998210136884394,0
Continent ID,Organisation sub-class,0.03205849944568368,0
Continent ID,CountryRegion ID,0.04539816697059826,0
Continent ID,Sector ID,0.039111811646222065,0
Continent ID,Sector name,0.03078672391423557,0
Continent ID,Sector percent,0.03250641551083211,0
Division ID,Fiscal year,0.031324287612143786,0
Division ID,Continent ID,0.03746590499390609,0
Division ID,Division ID,0.05914326567067319,1
Division ID,Disability issues (marker),0.03117312793601313,0
Division ID,Youth issues (marker),0.028007074478760732,0
Division ID,Branch ID,0.036192608772386434,0
Division ID,Gender equality (marker),0.025206547892957884,0
Division ID,Project Browser country ID,0.033297931325755675,0
Division ID,Organisation class,0.03672021008039303,0
Division ID,Continent name,0.03007243359950997,0
Division ID,CountryRegion percent,0.030282660337770818,0
Division ID,Division name,0.04958049196305372,0
Division ID,Status,0.0253922996437809,0
Division ID,Participatory development and good governance,0.027665546846345753,0
Division ID,CFLI (marker),0.02402258543391928,0
Division ID,Organisation type,0.037285497196114376,0
Division ID,CountryRegion name,0.031444197000327107,0
Division ID,Amount spent,0.030698433107667317,0
Division ID,Bilateral aid (international marker),0.030601231176040484,0
Division ID,Project number,0.027012346013071734,0
Division ID,ICT as a tool for development (marker),0.02708007090506293,0
Division ID,Biodiversity (marker),0.032788461332570476,0
Division ID,Indigenous issues (marker),0.029105501188419727,0
Division ID,Section ID,0.04274993931475408,0
Division ID,Regional program (marker),0.029335237493707884,0
Division ID,Climate change mitigation (marker),0.03103528615284024,0
Division ID,Desertification (marker),0.036135432130237295,0
Division ID,Trade development (marker),0.029105501188419727,0
Division ID,Urban issues (marker),0.028007074478760732,0
Division ID,Children issues (marker),0.029578101587869644,0
Division ID,Knowledge for development (marker),0.02763518883457553,0
Division ID,Organisation ID,0.04443130612048938,0
Division ID,Organisation name,0.037285497196114376,0
Division ID,Organisation sub-class,0.03480165986945996,0
Division ID,CountryRegion ID,0.03789265743151878,0
Division ID,Sector ID,0.036135432130237295,0
Division ID,Sector name,0.02784691535482761,0
Division ID,Sector percent,0.026840061803027802,0
Disability issues (marker),Fiscal year,0.03734919141746681,0
Disability issues (marker),Continent ID,0.02894986665366402,0
Disability issues (marker),Division ID,0.0311463111746866,0
Disability issues (marker),Disability issues (marker),0.05914809941456765,1
Disability issues (marker),Youth issues (marker),0.04856800935507376,0
Disability issues (marker),Branch ID,0.025179731131631352,0
Disability issues (marker),Gender equality (marker),0.042317617689157365,0
Disability issues (marker),Project Browser country ID,0.02963535316682988,0
Disability issues (marker),Organisation class,0.03297898033732621,0
Disability issues (marker),Continent name,0.03228350588586297,0
Disability issues (marker),CountryRegion percent,0.030503084848679415,0
Disability issues (marker),Division name,0.03453933968355782,0
Disability issues (marker),Status,0.030370951144339076,0
Disability issues (marker),Participatory development and good governance,0.03274945650339275,0
Disability issues (marker),CFLI (marker),0.03855135604431031,0
Disability issues (marker),Organisation type,0.033262022265247285,0
Disability issues (marker),CountryRegion name,0.031240294208668112,0
Disability issues (marker),Amount spent,0.028789709940259353,0
Disability issues (marker),Bilateral aid (international marker),0.03940559885690162,0
Disability issues (marker),Project number,0.03228350588586297,0
Disability issues (marker),ICT as a tool for development (marker),0.03763185857242382,0
Disability issues (marker),Biodiversity (marker),0.043684890866076576,0
Disability issues (marker),Indigenous issues (marker),0.04737853177442059,0
Disability issues (marker),Section ID,0.02718335990846591,0
Disability issues (marker),Regional program (marker),0.040397562732960815,0
Disability issues (marker),Climate change mitigation (marker),0.040022551999328686,0
Disability issues (marker),Desertification (marker),0.04384766148237648,0
Disability issues (marker),Trade development (marker),0.03855135604431031,0
Disability issues (marker),Urban issues (marker),0.04856800935507376,0
Disability issues (marker),Children issues (marker),0.04843779286203383,0
Disability issues (marker),Knowledge for development (marker),0.036197442516280896,0
Disability issues (marker),Organisation ID,0.03200361982612777,0
Disability issues (marker),Organisation name,0.03504114295503696,0
Disability issues (marker),Organisation sub-class,0.03355854238021223,0
Disability issues (marker),CountryRegion ID,0.028094100261572528,0
Disability issues (marker),Sector ID,0.025268558279001485,0
Disability issues (marker),Sector name,0.029078684427093198,0
Disability issues (marker),Sector percent,0.03029962157830453,0
Youth issues (marker),Fiscal year,0.03276164457124395,0
Youth issues (marker),Continent ID,0.03248824544181031,0
Youth issues (marker),Division ID,0.0279802577174342,0
Youth issues (marker),Disability issues (marker),0.04856800935507376,0
Youth issues (marker),Youth issues (marker),0.05914809941456765,1
Youth issues (marker),Branch ID,0.025908323414116648,0
Youth issues (marker),Gender equality (marker),0.0395975398345456,0
Youth issues (marker),Project Browser country ID,0.03220212057771302,0
Youth issues (marker),Organisation class,0.028654555863484293,0
Youth issues (marker),Continent name,0.03610861536891076,0
Youth issues (marker),CountryRegion percent,0.0334872128141777,0
Youth issues (marker),Division name,0.03205849944568368,0
Youth issues (marker),Status,0.029308420732381348,0
Youth issues (marker),Participatory development and good governance,0.029010873184494128,0
Youth issues (marker),CFLI (marker),0.041147584200225094,0
Youth issues (marker),Organisation type,0.02886103950629389,0
Youth issues (marker),CountryRegion name,0.03453933968355782,0
Youth issues (marker),Amount spent,0.03464633689994975,0
Youth issues (marker),Bilateral aid (international marker),0.03700272872323832,0
Youth issues (marker),Project number,0.03610861536891076,0
Youth issues (marker),ICT as a tool for development (marker),0.036456771972758706,0
Youth issues (marker),Biodiversity (marker),0.04457625376486178,0
Youth issues (marker),Indigenous issues (marker),0.050195715518072816,0
Youth issues (marker),Section ID,0.028211615145844353,0
Youth issues (marker),Regional program (marker),0.039191006459535695,0
Youth issues (marker),Climate change mitigation (marker),0.038979340322133835,0
Youth issues (marker),Desertification (marker),0.0395975398345456,0
Youth issues (marker),Trade development (marker),0.03880177237707939,0
Youth issues (marker),Urban issues (marker),0.050040695883501476,0
Youth issues (marker),Children issues (marker),0.04979783178933971,0
Youth issues (marker),Knowledge for development (marker),0.03758839141920736,0
Youth issues (marker),Organisation ID,0.02718335990846591,0
Youth issues (marker),Organisation name,0.03087425502368747,0
Youth issues (marker),Organisation sub-class,0.029703780885667944,0
Youth issues (marker),CountryRegion ID,0.0311463111746866,0
Youth issues (marker),Sector ID,0.025997150561486777,0
Youth issues (marker),Sector name,0.030370951144339076,0
Youth issues (marker),Sector percent,0.03166573210796446,0
Branch ID,Fiscal year,0.028542389806290844,0
Branch ID,Continent ID,0.035406839847751996,0
Branch ID,Division ID,0.036192608772386434,0
Branch ID,Disability issues (marker),0.025206547892957884,0
Branch ID,Youth issues (marker),0.025935140175443176,0
Branch ID,Branch ID,0.05914326567067319,1
Branch ID,Gender equality (marker),0.02778973871267847,0
Branch ID,Project Browser country ID,0.03400683192493056,0
Branch ID,Organisation class,0.03222582856774428,0
Branch ID,Continent name,0.02754453515853925,0
Branch ID,CountryRegion percent,0.028370105596246916,0
Branch ID,Division name,0.02784691535482761,0
Branch ID,Status,0.025992316817592318,0
Branch ID,Participatory development and good governance,0.02650182306182063,0
Branch ID,CFLI (marker),0.0243123664553623,0
Branch ID,Organisation type,0.03266173848034232,0
Branch ID,CountryRegion name,0.029392414135857026,0
Branch ID,Amount spent,0.02800580945500427,0
Branch ID,Bilateral aid (international marker),0.029335237493707884,0
Branch ID,Project number,0.03087071731771125,0
Branch ID,ICT as a tool for development (marker),0.025718112687043302,0
Branch ID,Biodiversity (marker),0.028485213164141703,0
Branch ID,Indigenous issues (marker),0.025206547892957884,0
Branch ID,Section ID,0.036997894979343866,0
Branch ID,Regional program (marker),0.02758518740342458,0
Branch ID,Climate change mitigation (marker),0.027951476957204804,0
Branch ID,Desertification (marker),0.030107986884222587,0
Branch ID,Trade development (marker),0.029578101587869644,0
Branch ID,Urban issues (marker),0.03103528615284024,0
Branch ID,Children issues (marker),0.02778973871267847,0
Branch ID,Knowledge for development (marker),0.026172356267415132,0
Branch ID,Organisation ID,0.04001771825543423,0
Branch ID,Organisation name,0.03266173848034232,0
Branch ID,Organisation sub-class,0.030763421119028276,0
Branch ID,CountryRegion ID,0.036192608772386434,0
Branch ID,Sector ID,0.037835480789369644,0
Branch ID,Sector name,0.028542389806290844,0
Branch ID,Sector percent,0.02737225094849532,0
Gender equality (marker),Fiscal year,0.031737061673999,0
Gender equality (marker),Continent ID,0.02939724787975148,0
Gender equality (marker),Division ID,0.025179731131631352,0
Gender equality (marker),Disability issues (marker),0.042317617689157365,0
Gender equality (marker),Youth issues (marker),0.0395975398345456,0
Gender equality (marker),Branch ID,0.02776292195135194,0
Gender equality (marker),Gender equality (marker),0.05914809941456765,1
Gender equality (marker),Project Browser country ID,0.033048527782472525,0
Gender equality (marker),Organisation class,0.031737061673999,0
Gender equality (marker),Continent name,0.032887470541081036,0
Gender equality (marker),CountryRegion percent,0.03263718848461152,0
Gender equality (marker),Division name,0.0311463111746866,0
Gender equality (marker),Status,0.025908323414116648,0
Gender equality (marker),Participatory development and good governance,0.030875551061605708,0
Gender equality (marker),CFLI (marker),0.03950564531243033,0
Gender equality (marker),Organisation type,0.03200361982612777,0
Gender equality (marker),CountryRegion name,0.03355854238021223,0
Gender equality (marker),Amount spent,0.029237091166346815,0
Gender equality (marker),Bilateral aid (international marker),0.03874751550497942,0
Gender equality (marker),Project number,0.034900686058474614,0
Gender equality (marker),ICT as a tool for development (marker),0.0381716925720475,0
Gender equality (marker),Biodiversity (marker),0.046397734471075015,0
Gender equality (marker),Indigenous issues (marker),0.042317617689157365,0
Gender equality (marker),Section ID,0.027558370642098047,0
Gender equality (marker),Regional program (marker),0.04119350388189433,0
Gender equality (marker),Climate change mitigation (marker),0.040682053634336926,0
Gender equality (marker),Desertification (marker),0.043210143235201844,0
Gender equality (marker),Trade development (marker),0.04384766148237648,0
Gender equality (marker),Urban issues (marker),0.04129758849367795,0
Gender equality (marker),Children issues (marker),0.041616347617265265,0
Gender equality (marker),Knowledge for development (marker),0.04332006017436989,0
Gender equality (marker),Organisation ID,0.030616150470175466,0
Gender equality (marker),Organisation name,0.03386952689102912,0
Gender equality (marker),Organisation sub-class,0.03078672391423557,0
Gender equality (marker),CountryRegion ID,0.030370951144339076,0
Gender equality (marker),Sector ID,0.027851749098722067,0
Gender equality (marker),Sector name,0.03392283852145488,0
Gender equality (marker),Sector percent,0.0328161409750465,0
Project Browser country ID,Fiscal year,0.02916267783056887,0
Project Browser country ID,Continent ID,0.03694071833719472,0
Project Browser country ID,Division ID,0.033297931325755675,0
Project Browser country ID,Disability issues (marker),0.029662169928156408,0
Project Browser country ID,Youth issues (marker),0.032228937339039546,0
Project Browser country ID,Branch ID,0.03400683192493056,0
Project Browser country ID,Gender equality (marker),0.033075344543799054,0
Project Browser country ID,Project Browser country ID,0.05914326567067319,1
Project Browser country ID,Organisation class,0.0295856014834857,0
Project Browser country ID,Continent name,0.032367499289338644,0
Project Browser country ID,CountryRegion percent,0.03536924209714288,0
Project Browser country ID,Division name,0.028738549266959967,0
Project Browser country ID,Status,0.025673557694005002,0
Project Browser country ID,Participatory development and good governance,0.03268744611734914,0
Project Browser country ID,CFLI (marker),0.028681372624810825,0
Project Browser country ID,Organisation type,0.031566894978933294,0
Project Browser country ID,CountryRegion name,0.033062973740801874,0
Project Browser country ID,Amount spent,0.03481239525190636,0
Project Browser country ID,Bilateral aid (international marker),0.030706244476879134,0
Project Browser country ID,Project number,0.04001771825543423,0
Project Browser country ID,ICT as a tool for development (marker),0.03159311461911804,0
Project Browser country ID,Biodiversity (marker),0.032228937339039546,0
Project Browser country ID,Indigenous issues (marker),0.029662169928156408,0
Project Browser country ID,Section ID,0.03789265743151878,0
Project Browser country ID,Regional program (marker),0.031335294739745945,0
Project Browser country ID,Climate change mitigation (marker),0.02976024965849097,0
Project Browser country ID,Desertification (marker),0.033075344543799054,0
Project Browser country ID,Trade development (marker),0.03260456183819318,0
Project Browser country ID,Urban issues (marker),0.030601231176040484,0
Project Browser country ID,Children issues (marker),0.03154530075057994,0
Project Browser country ID,Knowledge for development (marker),0.03358535914153876,0
Project Browser country ID,Organisation ID,0.033953520294504796,0
Project Browser country ID,Organisation name,0.02978777428914362,0
Project Browser country ID,Organisation sub-class,0.028861148929878164,0
Project Browser country ID,CountryRegion ID,0.037285497196114376,0
Project Browser country ID,Sector ID,0.03832120897769317,0
Project Browser country ID,Sector name,0.03536555807334907,0
Project Browser country ID,Sector percent,0.03793287930386641,0
Organisation class,Fiscal year,0.03408220354036007,0
Organisation class,Continent ID,0.03358535914153876,0
Organisation class,Division ID,0.03672021008039303,0
Organisation class,Disability issues (marker),0.033005797098652735,0
Organisation class,Youth issues (marker),0.028681372624810825,0
Organisation class,Branch ID,0.03222582856774428,0
Organisation class,Gender equality (marker),0.03176387843532553,0
Organisation class,Project Browser country ID,0.0295856014834857,0
Organisation class,Organisation class,0.05914326567067319,1
Organisation class,Continent name,0.035236331401624486,0
Organisation class,CountryRegion percent,0.03445104887698956,0
Organisation class,Division name,0.038166858828153044,0
Organisation class,Status,0.030454944547814743,0
Organisation class,Participatory development and good governance,0.030549557964516704,0
Organisation class,CFLI (marker),0.02577061933746263,0
Organisation class,Organisation type,0.04930726985712173,0
Organisation class,CountryRegion name,0.03576759660760334,0
Organisation class,Amount spent,0.030920178584945453,0
Organisation class,Bilateral aid (international marker),0.03500206635748239,0
Organisation class,Project number,0.028064251120909874,0
Organisation class,ICT as a tool for development (marker),0.03176387843532553,0
Organisation class,Biodiversity (marker),0.030642967231501998,0
Organisation class,Indigenous issues (marker),0.03126711096999464,0
Organisation class,Section ID,0.03455327613679452,0
Organisation class,Regional program (marker),0.031509718336784155,0
Organisation class,Climate change mitigation (marker),0.03554695374822994,0
Organisation class,Desertification (marker),0.03722832055396524,0
Organisation class,Trade development (marker),0.03126711096999464,0
Organisation class,Urban issues (marker),0.03456615644488435,0
Organisation class,Children issues (marker),0.03176387843532553,0
Organisation class,Knowledge for development (marker),0.02819097397313803,0
Organisation class,Organisation ID,0.05102939707026878,0
Organisation class,Organisation name,0.05149304670457761,0
Organisation class,Organisation sub-class,0.0553181561876254,0
Organisation class,CountryRegion ID,0.03439255725095218,0
Organisation class,Sector ID,0.029335237493707884,0
Organisation class,Sector name,0.031444197000327107,0
Organisation class,Sector percent,0.030282660337770818,0
Continent name,Fiscal year,0.03007243359950997,0
Continent name,Continent ID,0.050258913298413754,0
Continent name,Division ID,0.03007243359950997,0
Continent name,Disability issues (marker),0.032310322647189506,0
Continent name,Youth issues (marker),0.036135432130237295,0
Continent name,Branch ID,0.02754453515853925,0
Continent name,Gender equality (marker),0.03291428730240757,0
Continent name,Project Browser country ID,0.032367499289338644,0
Continent name,Organisation class,0.035236331401624486,0
Continent name,Continent name,0.05914326567067319,1
Continent name,CountryRegion percent,0.040391878257254266,0
Continent name,Division name,0.040726071863406044,0
Continent name,Status,0.028542389806290844,0
Continent name,Participatory development and good governance,0.03250481973954786,0
Continent name,CFLI (marker),0.032168651925595135,0
Continent name,Organisation type,0.035699046258444785,0
Continent name,CountryRegion name,0.04718979853614884,0
Continent name,Amount spent,0.038374238090371916,0
Continent name,Bilateral aid (international marker),0.036135432130237295,0
Continent name,Project number,0.04001771825543423,0
Continent name,ICT as a tool for development (marker),0.03260456183819318,0
Continent name,Biodiversity (marker),0.036135432130237295,0
Continent name,Indigenous issues (marker),0.034222877388713394,0
Continent name,Section ID,0.03364253578368791,0
Continent name,Regional program (marker),0.03260456183819318,0
Continent name,Climate change mitigation (marker),0.03358535914153876,0
Continent name,Desertification (marker),0.03291428730240757,0
Continent name,Trade development (marker),0.034222877388713394,0
Continent name,Urban issues (marker),0.03394965528278141,0
Continent name,Children issues (marker),0.03492750281980115,0
Continent name,Knowledge for development (marker),0.03199156352360218,0
Continent name,Organisation ID,0.03408220354036007,0
Continent name,Organisation name,0.04310248396756954,0
Continent name,Organisation sub-class,0.03364253578368791,0
Continent name,CountryRegion ID,0.03874268176108496,0
Continent name,Sector ID,0.030813540675562107,0
Continent name,Sector name,0.042312783945262895,0
Continent name,Sector percent,0.031648770867430745,0
CountryRegion percent,Fiscal year,0.030316751734878734,0
CountryRegion percent,Continent ID,0.04162294965206609,0
CountryRegion percent,Division ID,0.030316751734878734,0
CountryRegion percent,Disability issues (marker),0.030524953086163403,0
CountryRegion percent,Youth issues (marker),0.033509081051661685,0
CountryRegion percent,Branch ID,0.02840419699335484,0
CountryRegion percent,Gender equality (marker),0.03265905672209551,0
CountryRegion percent,Project Browser country ID,0.0354033334942508,0
CountryRegion percent,Organisation class,0.034485140274097485,0
CountryRegion percent,Continent name,0.04042596965436219,0
CountryRegion percent,CountryRegion percent,0.05918179806245782,1
CountryRegion percent,Division name,0.03200430003622335,0
CountryRegion percent,Status,0.026420806891033762,0
CountryRegion percent,Participatory development and good governance,0.033509081051661685,0
CountryRegion percent,CFLI (marker),0.02975897371534032,0
CountryRegion percent,Organisation type,0.03685970216640786,0
CountryRegion percent,CountryRegion name,0.050177897127626894,0
CountryRegion percent,Amount spent,0.041794936775876944,0
CountryRegion percent,Bilateral aid (international marker),0.03283800921253049,0
CountryRegion percent,Project number,0.03168286226453866,0
CountryRegion percent,ICT as a tool for development (marker),0.03242854164967078,0
CountryRegion percent,Biodiversity (marker),0.031687600345448444,0
CountryRegion percent,Indigenous issues (marker),0.03215265924916246,0
CountryRegion percent,Section ID,0.033093040875800527,0
CountryRegion percent,Regional program (marker),0.03738962690402901,0
CountryRegion percent,Climate change mitigation (marker),0.03466820513743374,0
CountryRegion percent,Desertification (marker),0.03265905672209551,0
CountryRegion percent,Trade development (marker),0.03215265924916246,0
CountryRegion percent,Urban issues (marker),0.031687600345448444,0
CountryRegion percent,Children issues (marker),0.03435910538122786,0
CountryRegion percent,Knowledge for development (marker),0.033277256234507266,0
CountryRegion percent,Organisation ID,0.0335043429707519,0
CountryRegion percent,Organisation name,0.03484648664901428,0
CountryRegion percent,Organisation sub-class,0.03320782285578695,0
CountryRegion percent,CountryRegion ID,0.049700752493566897,0
CountryRegion percent,Sector ID,0.028408935074264622,0
CountryRegion percent,Sector name,0.030316751734878734,0
CountryRegion percent,Sector percent,0.042788471706538704,0
Division name,Fiscal year,0.03364253578368791,0
Division name,Continent ID,0.033075344543799054,0
Division name,Division ID,0.04958049196305372,0
Division name,Disability issues (marker),0.03456615644488435,0
Division name,Youth issues (marker),0.03208531620701022,0
Division name,Branch ID,0.02784691535482761,0
Division name,Gender equality (marker),0.03117312793601313,0
Division name,Project Browser country ID,0.028738549266959967,0
Division name,Organisation class,0.038166858828153044,0
Division name,Continent name,0.040726071863406044,0
Division name,CountryRegion percent,0.031970208639115434,0
Division name,Division name,0.05914326567067319,1
Division name,Status,0.02491860187498241,0
Division name,Participatory development and good governance,0.03138702035817797,0
Division name,CFLI (marker),0.029662169928156408,0
Division name,Organisation type,0.03874268176108496,0
Division name,CountryRegion name,0.04063467139786129,0
Division name,Amount spent,0.03296023697590427,0
Division name,Bilateral aid (international marker),0.033325147612079734,0
Division name,Project number,0.035059242999631535,0
Division name,ICT as a tool for development (marker),0.0298352518052174,0
Division name,Biodiversity (marker),0.03658544501059585,0
Division name,Indigenous issues (marker),0.03260456183819318,0
Division name,Section ID,0.03419689947688324,0
Division name,Regional program (marker),0.03492750281980115,0
Division name,Climate change mitigation (marker),0.03385664350203861,0
Division name,Desertification (marker),0.03944363492638674,0
Division name,Trade development (marker),0.03260456183819318,0
Division name,Urban issues (marker),0.03208531620701022,0
Division name,Children issues (marker),0.03324075468360654,0
Division name,Knowledge for development (marker),0.030601231176040484,0
Division name,Organisation ID,0.037285497196114376,0
Division name,Organisation name,0.04639290072718056,0
Division name,Organisation sub-class,0.036192608772386434,0
Division name,CountryRegion ID,0.031444197000327107,0
Division name,Sector ID,0.02778973871267847,0
Division name,Sector name,0.04001771825543423,0
Division name,Sector percent,0.029220129925813094,0
Status,Fiscal year,0.0253922996437809,0
Status,Continent ID,0.029335237493707884,0
Status,Division ID,0.0253922996437809,0
Status,Disability issues (marker),0.030397767905665604,0
Status,Youth issues (marker),0.029335237493707884,0
Status,Branch ID,0.025992316817592318,0
Status,Gender equality (marker),0.025935140175443176,0
Status,Project Browser country ID,0.025673557694005002,0
Status,Organisation class,0.030454944547814743,0
Status,Continent name,0.028542389806290844,0
Status,CountryRegion percent,0.026386715493925843,0
Status,Division name,0.02491860187498241,0
Status,Status,0.05914326567067319,1
Status,Participatory development and good governance,0.02533512300163176,0
Status,CFLI (marker),0.02486142523283327,0
Status,Organisation type,0.02754453515853925,0
Status,CountryRegion name,0.02726735331194158,0
Status,Amount spent,0.029220129925813094,0
Status,Bilateral aid (international marker),0.026299436316685826,0
Status,Project number,0.028542389806290844,0
Status,ICT as a tool for development (marker),0.0243123664553623,0
Status,Biodiversity (marker),0.02650182306182063,0
Status,Indigenous issues (marker),0.02561638105185586,0
Status,Section ID,0.030454944547814743,0
Status,Regional program (marker),0.023302806767754376,0
Status,Climate change mitigation (marker),0.026572658422617808,0
Status,Desertification (marker),0.028485213164141703,0
Status,Trade development (marker),0.02561638105185586,0
Status,Urban issues (marker),0.029335237493707884,0
Status,Children issues (marker),0.025935140175443176,0
Status,Knowledge for development (marker),0.024660103681093913,0
Status,Organisation ID,0.028178093665048205,0
Status,Organisation name,0.02754453515853925,0
Status,Organisation sub-class,0.03182105507747467,0
Status,CountryRegion ID,0.02436954309751144,0
Status,Sector ID,0.03103528615284024,0
Status,Sector name,0.03439255725095218,0
Status,Sector percent,0.032195215079294716,0
Participatory development and good governance,Fiscal year,0.030370951144339076,0
Participatory development and good governance,Continent ID,0.02894986665366402,0
Participatory development and good governance,Division ID,0.027638730085019218,0
Participatory development and good governance,Disability issues (marker),0.03274945650339275,0
Participatory development and good governance,Youth issues (marker),0.029010873184494128,0
Participatory development and good governance,Branch ID,0.026475006300494097,0
Participatory development and good governance,Gender equality (marker),0.030875551061605708,0
Participatory development and good governance,Project Browser country ID,0.03266062935602261,0
Participatory development and good governance,Organisation class,0.030522741203190172,0
Participatory development and good governance,Continent name,0.03247800297822133,0
Participatory development and good governance,CountryRegion percent,0.0334872128141777,0
Participatory development and good governance,Division name,0.03136020359685143,0
Participatory development and good governance,Status,0.02530830624030523,0
Participatory development and good governance,Participatory development and good governance,0.05914809941456765,1
Participatory development and good governance,CFLI (marker),0.027492020934172124,0
Participatory development and good governance,Organisation type,0.030679427715552605,0
Participatory development and good governance,CountryRegion name,0.03295138214480782,0
Participatory development and good governance,Amount spent,0.028789709940259353,0
Participatory development and good governance,Bilateral aid (international marker),0.03506407674352599,0
Participatory development and good governance,Project number,0.03247800297822133,0
Participatory development and good governance,ICT as a tool for development (marker),0.040252980281440004,0
Participatory development and good governance,Biodiversity (marker),0.03248824544181031,0
Participatory development and good governance,Indigenous issues (marker),0.0295169696163101,0
Participatory development and good governance,Section ID,0.02776292195135194,0
Participatory development and good governance,Regional program (marker),0.03182588882136913,0
Participatory development and good governance,Climate change mitigation (marker),0.03445435465058823,0
Participatory development and good governance,Desertification (marker),0.0342017332207777,0
Participatory development and good governance,Trade development (marker),0.04029192590658558,0
Participatory development and good governance,Urban issues (marker),0.03016999727026619,0
Participatory development and good governance,Children issues (marker),0.029766823675215038,0
Participatory development and good governance,Knowledge for development (marker),0.03832788324101637,0
Participatory development and good governance,Organisation ID,0.029733432897164437,0
Participatory development and good governance,Organisation name,0.03314724028526086,0
Participatory development and good governance,Organisation sub-class,0.029942767246982974,0
Participatory development and good governance,CountryRegion ID,0.029587117233878458,0
Participatory development and good governance,Sector ID,0.027980540663807858,0
Participatory development and good governance,Sector name,0.031737061673999,0
Participatory development and good governance,Sector percent,0.03370332069457588,0
CFLI (marker),Fiscal year,0.03355854238021223,0
CFLI (marker),Continent ID,0.02701717975696619,0
CFLI (marker),Division ID,0.02399576867259275,0
CFLI (marker),Disability issues (marker),0.03855135604431031,0
CFLI (marker),Youth issues (marker),0.041147584200225094,0
CFLI (marker),Branch ID,0.024285549694035766,0
CFLI (marker),Gender equality (marker),0.03950564531243033,0
CFLI (marker),Project Browser country ID,0.028654555863484293,0
CFLI (marker),Organisation class,0.025743802576136093,0
CFLI (marker),Continent name,0.032141835164268606,0
CFLI (marker),CountryRegion percent,0.02973710547785633,0
CFLI (marker),Division name,0.02963535316682988,0
CFLI (marker),Status,0.024834608471506738,0
CFLI (marker),Participatory development and good governance,0.027492020934172124,0
CFLI (marker),CFLI (marker),0.05914809941456765,1
CFLI (marker),Organisation type,0.025908323414116648,0
CFLI (marker),CountryRegion name,0.030679427715552605,0
CFLI (marker),Amount spent,0.026857023043561523,0
CFLI (marker),Bilateral aid (international marker),0.03494842717487753,0
CFLI (marker),Project number,0.032141835164268606,0
CFLI (marker),ICT as a tool for development (marker),0.03589743392937519,0
CFLI (marker),Biodiversity (marker),0.041147584200225094,0
CFLI (marker),Indigenous issues (marker),0.04051295065100148,0
CFLI (marker),Section ID,0.024134359595891584,0
CFLI (marker),Regional program (marker),0.03901594424063191,0
CFLI (marker),Climate change mitigation (marker),0.03717406621408033,0
CFLI (marker),Desertification (marker),0.03950564531243033,0
CFLI (marker),Trade development (marker),0.03855135604431031,0
CFLI (marker),Urban issues (marker),0.041147584200225094,0
CFLI (marker),Children issues (marker),0.04157327206002374,0
CFLI (marker),Knowledge for development (marker),0.03554636005108127,0
CFLI (marker),Organisation ID,0.02354039849603944,0
CFLI (marker),Organisation name,0.02845839640281517,0
CFLI (marker),Organisation sub-class,0.025179731131631352,0
CFLI (marker),CountryRegion ID,0.02872219705681847,0
CFLI (marker),Sector ID,0.027851749098722067,0
CFLI (marker),Sector name,0.030370951144339076,0
CFLI (marker),Sector percent,0.029237091166346815,0
Organisation type,Fiscal year,0.037285497196114376,0
Organisation type,Continent ID,0.03402502689821092,0
Organisation type,Division ID,0.037285497196114376,0
Organisation type,Disability issues (marker),0.03328883902657382,0
Organisation type,Youth issues (marker),0.028887856267620422,0
Organisation type,Branch ID,0.03266173848034232,0
Organisation type,Gender equality (marker),0.032030436587454296,0
Organisation type,Project Browser country ID,0.031566894978933294,0
Organisation type,Organisation class,0.04930726985712173,0
Organisation type,Continent name,0.035699046258444785,0
Organisation type,CountryRegion percent,0.03682561076929994,0
Organisation type,Division name,0.03874268176108496,0
Organisation type,Status,0.02754453515853925,0
Organisation type,Participatory development and good governance,0.030706244476879134,0
Organisation type,CFLI (marker),0.025935140175443176,0
Organisation type,Organisation type,0.05914326567067319,1
Organisation type,CountryRegion name,0.036192608772386434,0
Organisation type,Amount spent,0.03390991933031614,0
Organisation type,Bilateral aid (international marker),0.03526936960577364,0
Organisation type,Project number,0.030763421119028276,0
Organisation type,ICT as a tool for development (marker),0.03196258542145788,0
Organisation type,Biodiversity (marker),0.03291428730240757,0
Organisation type,Indigenous issues (marker),0.031509718336784155,0
Organisation type,Section ID,0.035059242999631535,0
Organisation type,Regional program (marker),0.03358535914153876,0
Organisation type,Climate change mitigation (marker),0.035835423543331586,0
Organisation type,Desertification (marker),0.03762815778215838,0
Organisation type,Trade development (marker),0.031509718336784155,0
Organisation type,Urban issues (marker),0.03492750281980115,0
Organisation type,Children issues (marker),0.032030436587454296,0
Organisation type,Knowledge for development (marker),0.02833520887068885,0
Organisation type,Organisation ID,0.05197118538995858,0
Organisation type,Organisation name,0.05239307246529473,0
Organisation type,Organisation sub-class,0.04639290072718056,0
Organisation type,CountryRegion ID,0.03480165986945996,0
Organisation type,Sector ID,0.029662169928156408,0
Organisation type,Sector name,0.03182105507747467,0
Organisation type,Sector percent,0.033058949478692604,0
CountryRegion name,Fiscal year,0.02880619046029414,0
CountryRegion name,Continent ID,0.03868550511893582,0
CountryRegion name,Division ID,0.031444197000327107,0
CountryRegion name,Disability issues (marker),0.03126711096999464,0
CountryRegion name,Youth issues (marker),0.03456615644488435,0
CountryRegion name,Branch ID,0.029392414135857026,0
CountryRegion name,Gender equality (marker),0.03358535914153876,0
CountryRegion name,Project Browser country ID,0.033062973740801874,0
CountryRegion name,Organisation class,0.03576759660760334,0
CountryRegion name,Continent name,0.04718979853614884,0
CountryRegion name,CountryRegion percent,0.05014380573051897,0
CountryRegion name,Division name,0.04063467139786129,0
CountryRegion name,Status,0.02726735331194158,0
CountryRegion name,Participatory development and good governance,0.032978198906134355,0
CountryRegion name,CFLI (marker),0.030706244476879134,0
CountryRegion name,Organisation type,0.036192608772386434,0
CountryRegion name,CountryRegion name,0.05914326567067319,1
CountryRegion name,Amount spent,0.036020324562342505,0
CountryRegion name,Bilateral aid (international marker),0.03358535914153876,0
CountryRegion name,Project number,0.035236331401624486,0
CountryRegion name,ICT as a tool for development (marker),0.03312998896498545,0
CountryRegion name,Biodiversity (marker),0.03260456183819318,0
CountryRegion name,Indigenous issues (marker),0.03126711096999464,0
CountryRegion name,Section ID,0.03455327613679452,0
CountryRegion name,Regional program (marker),0.038626201095942836,0
CountryRegion name,Climate change mitigation (marker),0.03554695374822994,0
CountryRegion name,Desertification (marker),0.03358535914153876,0
CountryRegion name,Trade development (marker),0.033005797098652735,0
CountryRegion name,Urban issues (marker),0.030642967231501998,0
CountryRegion name,Children issues (marker),0.03358535914153876,0
CountryRegion name,Knowledge for development (marker),0.03260456183819318,0
CountryRegion name,Organisation ID,0.03480165986945996,0
CountryRegion name,Organisation name,0.04274993931475408,0
CountryRegion name,Organisation sub-class,0.03428005403086254,0
CountryRegion name,CountryRegion ID,0.05239307246529473,0
CountryRegion name,Sector ID,0.029335237493707884,0
CountryRegion name,Sector name,0.03935821662042598,0
CountryRegion name,Sector percent,0.030282660337770818,0
Amount spent,Fiscal year,0.027406342345603244,0
Amount spent,Continent ID,0.039884263523408,0
Amount spent,Division ID,0.03073252450477524,0
Amount spent,Disability issues (marker),0.028811578177743335,0
Amount spent,Youth issues (marker),0.03466820513743374,0
Amount spent,Branch ID,0.028039900852112196,0
Amount spent,Gender equality (marker),0.0292589594038308,0
Amount spent,Project Browser country ID,0.03484648664901428,0
Amount spent,Organisation class,0.030954269982053372,0
Amount spent,Continent name,0.038408329487479846,0
Amount spent,CountryRegion percent,0.04179493677587694,0
Amount spent,Division name,0.03299432837301219,0
Amount spent,Status,0.029254221322921017,0
Amount spent,Participatory development and good governance,0.028811578177743335,0
Amount spent,CFLI (marker),0.02687889128104551,0
Amount spent,Organisation type,0.03394401072742406,0
Amount spent,CountryRegion name,0.03605441595945043,0
Amount spent,Amount spent,0.05918179806245782,1
Amount spent,Bilateral aid (international marker),0.02872769419785194,0
Amount spent,Project number,0.03252354566740631,0
Amount spent,ICT as a tool for development (marker),0.02993897886748374,0
Amount spent,Biodiversity (marker),0.030031708794345503,0
Amount spent,Indigenous issues (marker),0.030824793695136916,0
Amount spent,Section ID,0.03118609479920778,0
Amount spent,Regional program (marker),0.031096849846136043,0
Amount spent,Climate change mitigation (marker),0.029074171506099023,0
Amount spent,Desertification (marker),0.0292589594038308,0
Amount spent,Trade development (marker),0.030824793695136916,0
Amount spent,Urban issues (marker),0.030031708794345503,0
Amount spent,Children issues (marker),0.0292589594038308,0
Amount spent,Knowledge for development (marker),0.030737262585685023,0
Amount spent,Organisation ID,0.029254221322921017,0
Amount spent,Organisation name,0.0313060041873911,0
Amount spent,Organisation sub-class,0.029754235634430533,0
Amount spent,CountryRegion ID,0.03714730438317837,0
Amount spent,Sector ID,0.028044638933021976,0
Amount spent,Sector name,0.03073252450477524,0
Amount spent,Sector percent,0.03858505469220048,0
Bilateral aid (international marker),Fiscal year,0.03220212057771302,0
Bilateral aid (international marker),Continent ID,0.032053573909645784,0
Bilateral aid (international marker),Division ID,0.03057441441471396,0
Bilateral aid (international marker),Disability issues (marker),0.03940559885690162,0
Bilateral aid (international marker),Youth issues (marker),0.03700272872323832,0
Bilateral aid (international marker),Branch ID,0.029308420732381348,0
Bilateral aid (international marker),Gender equality (marker),0.03874751550497942,0
Bilateral aid (international marker),Project Browser country ID,0.030679427715552605,0
Bilateral aid (international marker),Organisation class,0.03497524959615586,0
Bilateral aid (international marker),Continent name,0.03610861536891076,0
Bilateral aid (international marker),CountryRegion percent,0.0328161409750465,0
Bilateral aid (international marker),Division name,0.0332983308507532,0
Bilateral aid (international marker),Status,0.026272619555359294,0
Bilateral aid (international marker),Participatory development and good governance,0.03506407674352599,0
Bilateral aid (international marker),CFLI (marker),0.03494842717487753,0
Bilateral aid (international marker),Organisation type,0.03524255284444711,0
Bilateral aid (international marker),CountryRegion name,0.03355854238021223,0
Bilateral aid (international marker),Amount spent,0.028705825960367953,0
Bilateral aid (international marker),Bilateral aid (international marker),0.05914809941456765,1
Bilateral aid (international marker),Project number,0.03151848398925341,0
Bilateral aid (international marker),ICT as a tool for development (marker),0.03743801856483694,0
Bilateral aid (international marker),Biodiversity (marker),0.04102915975802548,0
Bilateral aid (international marker),Indigenous issues (marker),0.03693778628719337,0
Bilateral aid (international marker),Section ID,0.03078672391423557,0
Bilateral aid (international marker),Regional program (marker),0.03970901843514444,0
Bilateral aid (international marker),Climate change mitigation (marker),0.044940549906104424,0
Bilateral aid (international marker),Desertification (marker),0.04257262498802721,0
Bilateral aid (international marker),Trade development (marker),0.03940559885690162,0
Bilateral aid (international marker),Urban issues (marker),0.03834487240150071,0
Bilateral aid (international marker),Children issues (marker),0.03874751550497942,0
Bilateral aid (international marker),Knowledge for development (marker),0.03838321936373678,0
Bilateral aid (international marker),Organisation ID,0.034308563847476506,0
Bilateral aid (international marker),Organisation name,0.036685990385219865,0
Bilateral aid (international marker),Organisation sub-class,0.033998210136884394,0
Bilateral aid (international marker),CountryRegion ID,0.031106549121848265,0
Bilateral aid (international marker),Sector ID,0.02769719922061913,0
Bilateral aid (international marker),Sector name,0.03220212057771302,0
Bilateral aid (international marker),Sector percent,0.03144715442321887,0
Project number,Fiscal year,0.0331325211859482,0
Project number,Continent ID,0.03260456183819318,0
Project number,Division ID,0.027012346013071734,0
Project number,Disability issues (marker),0.032310322647189506,0
Project number,Youth issues (marker),0.036135432130237295,0
Project number,Branch ID,0.03087071731771125,0
Project number,Gender equality (marker),0.03492750281980115,0
Project number,Project Browser country ID,0.04001771825543423,0
Project number,Organisation class,0.028064251120909874,0
Project number,Continent name,0.04001771825543423,0
Project number,CountryRegion percent,0.031648770867430745,0
Project number,Division name,0.035059242999631535,0
Project number,Status,0.028542389806290844,0
Project number,Participatory development and good governance,0.03250481973954786,0
Project number,CFLI (marker),0.032168651925595135,0
Project number,Organisation type,0.030763421119028276,0
Project number,CountryRegion name,0.035236331401624486,0
Project number,Amount spent,0.03248945427029839,0
Project number,Bilateral aid (international marker),0.03154530075057994,0
Project number,Project number,0.05914326567067319,1
Project number,ICT as a tool for development (marker),0.03260456183819318,0
Project number,Biodiversity (marker),0.036135432130237295,0
Project number,Indigenous issues (marker),0.032310322647189506,0
Project number,Section ID,0.03364253578368791,0
Project number,Regional program (marker),0.03260456183819318,0
Project number,Climate change mitigation (marker),0.03199156352360218,0
Project number,Desertification (marker),0.03492750281980115,0
Project number,Trade development (marker),0.036135432130237295,0
Project number,Urban issues (marker),0.03394965528278141,0
Project number,Children issues (marker),0.03492750281980115,0
Project number,Knowledge for development (marker),0.03358535914153876,0
Project number,Organisation ID,0.02880619046029414,0
Project number,Organisation name,0.035699046258444785,0
Project number,Organisation sub-class,0.03151747495977247,0
Project number,CountryRegion ID,0.028542389806290844,0
Project number,Sector ID,0.03413972283473409,0
Project number,Sector name,0.042312783945262895,0
Project number,Sector percent,0.03711321298607045,0
ICT as a tool for development (marker),Fiscal year,0.031737061673999,0
ICT as a tool for development (marker),Continent ID,0.03007726734340442,0
ICT as a tool for development (marker),Division ID,0.027053254143736393,0
ICT as a tool for development (marker),Disability issues (marker),0.03763185857242382,0
ICT as a tool for development (marker),Youth issues (marker),0.036456771972758706,0
ICT as a tool for development (marker),Branch ID,0.025691295925716767,0
ICT as a tool for development (marker),Gender equality (marker),0.0381716925720475,0
ICT as a tool for development (marker),Project Browser country ID,0.031566297857791505,0
ICT as a tool for development (marker),Organisation class,0.031737061673999,0
ICT as a tool for development (marker),Continent name,0.03257774507686664,0
ICT as a tool for development (marker),CountryRegion percent,0.03240667341218679,0
ICT as a tool for development (marker),Division name,0.029808435043890868,0
ICT as a tool for development (marker),Status,0.024285549694035766,0
ICT as a tool for development (marker),Participatory development and good governance,0.040252980281440004,0
ICT as a tool for development (marker),CFLI (marker),0.03589743392937519,0
ICT as a tool for development (marker),Organisation type,0.031935768660131356,0
ICT as a tool for development (marker),CountryRegion name,0.03310317220365892,0
ICT as a tool for development (marker),Amount spent,0.029917110629999757,0
ICT as a tool for development (marker),Bilateral aid (international marker),0.03743801856483694,0
ICT as a tool for development (marker),Project number,0.03257774507686664,0
ICT as a tool for development (marker),ICT as a tool for development (marker),0.05914809941456765,1
ICT as a tool for development (marker),Biodiversity (marker),0.03905006653753688,0
ICT as a tool for development (marker),Indigenous issues (marker),0.03763185857242382,0
ICT as a tool for development (marker),Section ID,0.02718335990846591,0
ICT as a tool for development (marker),Regional program (marker),0.03911181164622207,0
ICT as a tool for development (marker),Climate change mitigation (marker),0.03896002158737097,0
ICT as a tool for development (marker),Desertification (marker),0.0381716925720475,0
ICT as a tool for development (marker),Trade development (marker),0.048389978993495744,0
ICT as a tool for development (marker),Urban issues (marker),0.036456771972758706,0
ICT as a tool for development (marker),Children issues (marker),0.0381716925720475,0
ICT as a tool for development (marker),Knowledge for development (marker),0.04958532570694817,0
ICT as a tool for development (marker),Organisation ID,0.030912240222128854,0
ICT as a tool for development (marker),Organisation name,0.03332671756305782,0
ICT as a tool for development (marker),Organisation sub-class,0.031008469391513704,0
ICT as a tool for development (marker),CountryRegion ID,0.030725127948324982,0
ICT as a tool for development (marker),Sector ID,0.027407829236085965,0
ICT as a tool for development (marker),Sector name,0.031737061673999,0
ICT as a tool for development (marker),Sector percent,0.03250641551083211,0
Biodiversity (marker),Fiscal year,0.03276164457124395,0
Biodiversity (marker),Continent ID,0.03248824544181031,0
Biodiversity (marker),Division ID,0.03276164457124395,0
Biodiversity (marker),Disability issues (marker),0.043684890866076576,0
Biodiversity (marker),Youth issues (marker),0.04457625376486178,0
Biodiversity (marker),Branch ID,0.02845839640281517,0
Biodiversity (marker),Gender equality (marker),0.046397734471075015,0
Biodiversity (marker),Project Browser country ID,0.03220212057771302,0
Biodiversity (marker),Organisation class,0.030616150470175466,0
Biodiversity (marker),Continent name,0.03610861536891076,0
Biodiversity (marker),CountryRegion percent,0.03166573210796446,0
Biodiversity (marker),Division name,0.03655862824926932,0
Biodiversity (marker),Status,0.026475006300494097,0
Biodiversity (marker),Participatory development and good governance,0.03248824544181031,0
Biodiversity (marker),CFLI (marker),0.041147584200225094,0
Biodiversity (marker),Organisation type,0.032887470541081036,0
Biodiversity (marker),CountryRegion name,0.03257774507686664,0
Biodiversity (marker),Amount spent,0.030009840556861518,0
Biodiversity (marker),Bilateral aid (international marker),0.04102915975802548,0
Biodiversity (marker),Project number,0.03610861536891076,0
Biodiversity (marker),ICT as a tool for development (marker),0.03905006653753688,0
Biodiversity (marker),Biodiversity (marker),0.05914809941456765,1
Biodiversity (marker),Indigenous issues (marker),0.043684890866076576,0
Biodiversity (marker),Section ID,0.028211615145844353,0
Biodiversity (marker),Regional program (marker),0.040854097539121684,0
Biodiversity (marker),Climate change mitigation (marker),0.038979340322133835,0
Biodiversity (marker),Desertification (marker),0.042997637152810304,0
Biodiversity (marker),Trade development (marker),0.04205718470307752,0
Biodiversity (marker),Urban issues (marker),0.04275477305864854,0
Biodiversity (marker),Children issues (marker),0.04469768581194265,0
Biodiversity (marker),Knowledge for development (marker),0.0403702892250603,0
Biodiversity (marker),Organisation ID,0.029308420732381348,0
Biodiversity (marker),Organisation name,0.032887470541081036,0
Biodiversity (marker),Organisation sub-class,0.029703780885667944,0
Biodiversity (marker),CountryRegion ID,0.029078684427093198,0
Biodiversity (marker),Sector ID,0.028547223550185307,0
Biodiversity (marker),Sector name,0.03276164457124395,0
Biodiversity (marker),Sector percent,0.03166573210796446,0
Indigenous issues (marker),Fiscal year,0.03321393792228,0
Indigenous issues (marker),Continent ID,0.030963082171057598,0
Indigenous issues (marker),Division ID,0.029078684427093198,0
Indigenous issues (marker),Disability issues (marker),0.04737853177442059,0
Indigenous issues (marker),Youth issues (marker),0.050195715518072816,0
Indigenous issues (marker),Branch ID,0.025179731131631352,0
Indigenous issues (marker),Gender equality (marker),0.042317617689157365,0
Indigenous issues (marker),Project Browser country ID,0.02963535316682988,0
Indigenous issues (marker),Organisation class,0.031240294208668112,0
Indigenous issues (marker),Continent name,0.034196060627386865,0
Indigenous issues (marker),CountryRegion percent,0.032130791011678476,0
Indigenous issues (marker),Division name,0.03257774507686664,0
Indigenous issues (marker),Status,0.02558956429052933,0
Indigenous issues (marker),Participatory development and good governance,0.0295169696163101,0
Indigenous issues (marker),CFLI (marker),0.04051295065100148,0
Indigenous issues (marker),Organisation type,0.03148290157545762,0
Indigenous issues (marker),CountryRegion name,0.031240294208668112,0
Indigenous issues (marker),Amount spent,0.030802925457652924,0
Indigenous issues (marker),Bilateral aid (international marker),0.03693778628719337,0
Indigenous issues (marker),Project number,0.03228350588586297,0
Indigenous issues (marker),ICT as a tool for development (marker),0.03763185857242382,0
Indigenous issues (marker),Biodiversity (marker),0.043684890866076576,0
Indigenous issues (marker),Indigenous issues (marker),0.05914809941456765,1
Indigenous issues (marker),Section ID,0.02718335990846591,0
Indigenous issues (marker),Regional program (marker),0.03889751979843228,0
Indigenous issues (marker),Climate change mitigation (marker),0.03874751550497942,0
Indigenous issues (marker),Desertification (marker),0.039257530102719124,0
Indigenous issues (marker),Trade development (marker),0.040022551999328686,0
Indigenous issues (marker),Urban issues (marker),0.04856800935507376,0
Indigenous issues (marker),Children issues (marker),0.04996783665525295,0
Indigenous issues (marker),Knowledge for development (marker),0.04129758849367795,0
Indigenous issues (marker),Organisation ID,0.030137712761226402,0
Indigenous issues (marker),Organisation name,0.033262022265247285,0
Indigenous issues (marker),Organisation sub-class,0.03196474676227565,0
Indigenous issues (marker),CountryRegion ID,0.028094100261572528,0
Indigenous issues (marker),Sector ID,0.027454335126457365,0
Indigenous issues (marker),Sector name,0.0311463111746866,0
Indigenous issues (marker),Sector percent,0.03221217631982844,0
Section ID,Fiscal year,0.028178093665048205,0
Section ID,Continent ID,0.04169922774194317,0
Section ID,Division ID,0.04274993931475408,0
Section ID,Disability issues (marker),0.02721017666979244,0
Section ID,Youth issues (marker),0.02823843190717088,0
Section ID,Branch ID,0.036997894979343866,0
Section ID,Gender equality (marker),0.02758518740342458,0
Section ID,Project Browser country ID,0.03789265743151878,0
Section ID,Organisation class,0.03455327613679452,0
Section ID,Continent name,0.03364253578368791,0
Section ID,CountryRegion percent,0.033058949478692604,0
Section ID,Division name,0.03419689947688324,0
Section ID,Status,0.030454944547814743,0
Section ID,Participatory development and good governance,0.02778973871267847,0
Section ID,CFLI (marker),0.024161176357218116,0
Section ID,Organisation type,0.035059242999631535,0
Section ID,CountryRegion name,0.03455327613679452,0
Section ID,Amount spent,0.031152003402099858,0
Section ID,Bilateral aid (international marker),0.030813540675562107,0
Section ID,Project number,0.03364253578368791,0
Section ID,ICT as a tool for development (marker),0.02721017666979244,0
Section ID,Biodiversity (marker),0.02823843190717088,0
Section ID,Indigenous issues (marker),0.02721017666979244,0
Section ID,Section ID,0.05914326567067319,1
Section ID,Regional program (marker),0.03176387843532553,0
Section ID,Climate change mitigation (marker),0.033005797098652735,0
Section ID,Desertification (marker),0.03658544501059585,0
Section ID,Trade development (marker),0.029335237493707884,0
Section ID,Urban issues (marker),0.02577061933746263,0
Section ID,Children issues (marker),0.02758518740342458,0
Section ID,Knowledge for development (marker),0.02778973871267847,0
Section ID,Organisation ID,0.042312783945262895,0
Section ID,Organisation name,0.035059242999631535,0
Section ID,Organisation sub-class,0.032845637974719614,0
Section ID,CountryRegion ID,0.0414889142104526,0
Section ID,Sector ID,0.053046442476343325,0
Section ID,Sector name,0.04274993931475408,0
Section ID,Sector percent,0.0398454340453903,0
Regional program (marker),Fiscal year,0.03355854238021223,0
Regional program (marker),Continent ID,0.027099884826869928,0
Regional program (marker),Division ID,0.029308420732381348,0
Regional program (marker),Disability issues (marker),0.040397562732960815,0
Regional program (marker),Youth issues (marker),0.039191006459535695,0
Regional program (marker),Branch ID,0.027558370642098047,0
Regional program (marker),Gender equality (marker),0.04119350388189433,0
Regional program (marker),Project Browser country ID,0.03130847797841941,0
Regional program (marker),Organisation class,0.03148290157545762,0
Regional program (marker),Continent name,0.03257774507686664,0
Regional program (marker),CountryRegion percent,0.03736775866654502,0
Regional program (marker),Division name,0.034900686058474614,0
Regional program (marker),Status,0.02327599000642784,0
Regional program (marker),Participatory development and good governance,0.03182588882136913,0
Regional program (marker),CFLI (marker),0.03901594424063191,0
Regional program (marker),Organisation type,0.03355854238021223,0
Regional program (marker),CountryRegion name,0.0385993843346163,0
Regional program (marker),Amount spent,0.031074981608652057,0
Regional program (marker),Bilateral aid (international marker),0.03970901843514444,0
Regional program (marker),Project number,0.03257774507686664,0
Regional program (marker),ICT as a tool for development (marker),0.03911181164622207,0
Regional program (marker),Biodiversity (marker),0.040854097539121684,0
Regional program (marker),Indigenous issues (marker),0.03889751979843228,0
Regional program (marker),Section ID,0.031737061673999,0
Regional program (marker),Regional program (marker),0.05914809941456765,1
Regional program (marker),Climate change mitigation (marker),0.03905006653753688,0
Regional program (marker),Desertification (marker),0.04119350388189433,0
Regional program (marker),Trade development (marker),0.040397562732960815,0
Regional program (marker),Urban issues (marker),0.039191006459535695,0
Regional program (marker),Children issues (marker),0.03963223470514014,0
