source,target,conf,realConf
Fiscal year,FiY,0.03539791269484087,1
Fiscal year,UrIs,0.028851612893464437,0
Fiscal year,SecID,0.028496988095341777,0
Fiscal year,ICTAAToFoDeve,0.03027011208595506,0
Fiscal year,OrganiSu,0.02771881932195928,0
Fiscal year,SecNa,0.03387809213145806,0
Fiscal year,FCeID,0.033816360067181625,0
Fiscal year,IRTCPerc,0.032034631945344276,0
Fiscal year,Dese,0.034525609663426944,0
Fiscal year,DivN,0.028913344957740866,0
Fiscal year,OrgCl,0.028558720159618207,0
Fiscal year,BilaAMar,0.04109550066022564,0
Fiscal year,GenEqua,0.03263427740677278,0
Fiscal year,TraDevel,0.03213655839186378,0
Fiscal year,SecPerc,0.037260681601888695,0
Fiscal year,Sta,0.029318630441309616,0
Fiscal year,ProjNu,0.02824581592598057,0
Fiscal year,IndIss,0.02818408386170414,0
Fiscal year,RegProg,0.03263427740677278,0
Fiscal year,ProBroCouID,0.027107982349116436,0
Fiscal year,ClChaAdap,0.03168861127844569,0
Fiscal year,BrID,0.028913344957740866,0
Fiscal year,SeN,0.029318630441309616,0
Fiscal year,FuCenN,0.03325228366418278,0
Fiscal year,SeID,0.028913344957740866,0
Fiscal year,ChIss,0.028496988095341777,0
Fiscal year,YouIss,0.02818408386170414,0
Fiscal year,DisabIss,0.03661602952604471,0
Fiscal year,KnowlFDeve,0.031283325794876936,0
Fiscal year,OrgaID,0.02824581592598057,0
Fiscal year,OrganiN,0.027967678829413783,0
Fiscal year,OrganiTy,0.03219829045614021,0
Fiscal year,ContID,0.023177616123501926,0
Fiscal year,ConN,0.02323934818777836,0
Fiscal year,CouRegID,0.02771881932195928,0
Fiscal year,CouReNa,0.032696009471049205,0
Fiscal year,CounRegPerc,0.030812957999658566,0
Fiscal year,AmSp,0.02307568967698242,0
Urban issues (marker),FiY,0.02671461768682761,0
Urban issues (marker),UrIs,0.03343489787189939,1
Urban issues (marker),SecID,0.026495163360945245,0
Urban issues (marker),ICTAAToFoDeve,0.02822817142416909,0
Urban issues (marker),OrganiSu,0.03784249928309029,0
Urban issues (marker),SecNa,0.029715289055557783,0
Urban issues (marker),FCeID,0.026495163360945245,0
Urban issues (marker),IRTCPerc,0.028953501511588674,0
Urban issues (marker),Dese,0.03343489787189939,0
Urban issues (marker),DivN,0.02657276776757854,0
Urban issues (marker),OrgCl,0.02644182938057941,0
Urban issues (marker),BilaAMar,0.03202618143246042,0
Urban issues (marker),GenEqua,0.03234062706626376,0
Urban issues (marker),TraDevel,0.034961007347958276,0
Urban issues (marker),SecPerc,0.03220277306088987,0
Urban issues (marker),Sta,0.02671461768682761,0
Urban issues (marker),ProjNu,0.029472810561114938,0
Urban issues (marker),IndIss,0.032678364969237726,0
Urban issues (marker),RegProg,0.029300985939498137,0
Urban issues (marker),ProBroCouID,0.02848774167744089,0
Urban issues (marker),ClChaAdap,0.028895700455929377,0
Urban issues (marker),BrID,0.02657276776757854,0
Urban issues (marker),SeN,0.02671461768682761,0
Urban issues (marker),FuCenN,0.029472810561114938,0
Urban issues (marker),SeID,0.02657276776757854,0
Urban issues (marker),ChIss,0.02976862303592362,0
Urban issues (marker),YouIss,0.029526144541480774,0
Urban issues (marker),DisabIss,0.034961007347958276,0
Urban issues (marker),KnowlFDeve,0.031458150610106,0
Urban issues (marker),OrgaID,0.029472810561114938,0
Urban issues (marker),OrganiN,0.03532693421266356,0
Urban issues (marker),OrganiTy,0.034907673367592436,0
Urban issues (marker),ContID,0.026373924113723822,0
Urban issues (marker),ConN,0.02657276776757854,0
Urban issues (marker),CouRegID,0.02903802153659674,0
Urban issues (marker),CouReNa,0.03228729308589793,0
Urban issues (marker),CounRegPerc,0.03372259362427268,0
Urban issues (marker),AmSp,0.02648824774257048,0
Sector ID,FiY,0.023168369705601044,0
Sector ID,UrIs,0.036315542385880355,0
Sector ID,SecID,0.05361811495362317,1
Sector ID,ICTAAToFoDeve,0.03095897200864302,0
Sector ID,OrganiSu,0.028174837443803256,0
Sector ID,SecNa,0.04140621646619482,0
Sector ID,FCeID,0.041459550446560654,0
Sector ID,IRTCPerc,0.033096785156997405,0
Sector ID,Dese,0.029768623035923616,0
Sector ID,DivN,0.029715289055557776,0
Sector ID,OrgCl,0.029247651959132304,0
Sector ID,BilaAMar,0.02822817142416909,0
Sector ID,GenEqua,0.02854107565780672,0
Sector ID,TraDevel,0.03323463916237131,0
Sector ID,SecPerc,0.04436133756795238,0
Sector ID,Sta,0.03735336163050731,0
Sector ID,ProjNu,0.028842366475563545,0
Sector ID,IndIss,0.02889570045592938,0
Sector ID,RegProg,0.03386044762964657,0
Sector ID,ProBroCouID,0.04019036001548856,0
Sector ID,ClChaAdap,0.023221703685966877,0
Sector ID,BrID,0.042809127755471264,0
Sector ID,SeN,0.03735336163050731,0
Sector ID,FuCenN,0.028842366475563545,0
Sector ID,SeID,0.04935604710542801,0
Sector ID,ChIss,0.029300985939498134,0
Sector ID,YouIss,0.03456969722589189,0
Sector ID,DisabIss,0.02822817142416909,0
Sector ID,KnowlFDeve,0.032180645954328735,0
Sector ID,OrgaID,0.04019036001548856,0
Sector ID,OrganiN,0.028487741677440895,0
Sector ID,OrganiTy,0.028174837443803256,0
Sector ID,ContID,0.0402436939958544,0
Sector ID,ConN,0.029715289055557776,0
Sector ID,CouRegID,0.038187772920207676,0
Sector ID,CouReNa,0.028487741677440895,0
Sector ID,CounRegPerc,0.031594844835536734,0
Sector ID,AmSp,0.02963076903054972,0
ICT as a tool for development (marker),FiY,0.023168369705601044,0
ICT as a tool for development (marker),UrIs,0.02727455852165438,0
ICT as a tool for development (marker),SecID,0.02520100488479101,0
ICT as a tool for development (marker),ICTAAToFoDeve,0.03657228432117277,1
ICT as a tool for development (marker),OrganiSu,0.02686880238166355,0
ICT as a tool for development (marker),SecNa,0.027126972103249304,0
ICT as a tool for development (marker),FCeID,0.027180306083615137,0
ICT as a tool for development (marker),IRTCPerc,0.030484715032717987,0
ICT as a tool for development (marker),Dese,0.02727455852165438,0
ICT as a tool for development (marker),DivN,0.025194797123444797,0
ICT as a tool for development (marker),OrgCl,0.027126972103249304,0
ICT as a tool for development (marker),BilaAMar,0.028772352700060635,0
ICT as a tool for development (marker),GenEqua,0.02889570045592938,0
ICT as a tool for development (marker),TraDevel,0.03432300171415439,0
ICT as a tool for development (marker),SecPerc,0.028757846450555482,0
ICT as a tool for development (marker),Sta,0.027320074659232144,0
ICT as a tool for development (marker),ProjNu,0.027037003866939115,0
ICT as a tool for development (marker),IndIss,0.027090337847304947,0
ICT as a tool for development (marker),RegProg,0.027004368199275215,0
ICT as a tool for development (marker),ProBroCouID,0.02837918306577069,0
ICT as a tool for development (marker),ClChaAdap,0.030465103817833905,0
ICT as a tool for development (marker),BrID,0.025194797123444797,0
ICT as a tool for development (marker),SeN,0.025244222182416592,0
ICT as a tool for development (marker),FuCenN,0.02897132094760815,0
ICT as a tool for development (marker),SeID,0.025194797123444797,0
ICT as a tool for development (marker),ChIss,0.027180306083615137,0
ICT as a tool for development (marker),YouIss,0.027090337847304947,0
ICT as a tool for development (marker),DisabIss,0.02692213636202938,0
ICT as a tool for development (marker),KnowlFDeve,0.0320873236390333,0
ICT as a tool for development (marker),OrgaID,0.027037003866939115,0
ICT as a tool for development (marker),OrganiN,0.02695103421890938,0
ICT as a tool for development (marker),OrganiTy,0.02686880238166355,0
ICT as a tool for development (marker),ContID,0.03095897200864302,0
ICT as a tool for development (marker),ConN,0.029247651959132304,0
ICT as a tool for development (marker),CouRegID,0.0287190187196948,0
ICT as a tool for development (marker),CouReNa,0.030733698732217717,0
ICT as a tool for development (marker),CounRegPerc,0.031768538614209064,0
ICT as a tool for development (marker),AmSp,0.025110277098436735,0
Organisation sub-class,FiY,0.026643746249755858,0
Organisation sub-class,UrIs,0.029724535473458668,0
Organisation sub-class,SecID,0.02632983655125888,0
Organisation sub-class,ICTAAToFoDeve,0.025609329024914435,0
Organisation sub-class,OrganiSu,0.04309833688264714,1
Organisation sub-class,SecNa,0.029543789043292253,0
Organisation sub-class,FCeID,0.023177616123501926,0
Organisation sub-class,IRTCPerc,0.028749686446944926,0
Organisation sub-class,Dese,0.026451075798480297,0
Organisation sub-class,DivN,0.026512807862756727,0
Organisation sub-class,OrgCl,0.03584822989880615,0
Organisation sub-class,BilaAMar,0.03168861127844569,0
Organisation sub-class,GenEqua,0.031982093869995475,0
Organisation sub-class,TraDevel,0.03168861127844569,0
Organisation sub-class,SecPerc,0.02894534150797812,0
Organisation sub-class,Sta,0.030048144311733367,0
Organisation sub-class,ProjNu,0.03235827156807525,0
Organisation sub-class,IndIss,0.032296539503798814,0
Organisation sub-class,RegProg,0.029047267954497625,0
Organisation sub-class,ProBroCouID,0.030976616510454504,0
Organisation sub-class,ClChaAdap,0.02866858073959468,0
Organisation sub-class,BrID,0.026512807862756727,0
Organisation sub-class,SeN,0.02323934818777836,0
Organisation sub-class,FuCenN,0.02627898931454399,0
Organisation sub-class,SeID,0.02323934818777836,0
Organisation sub-class,ChIss,0.029482056979015823,0
Organisation sub-class,YouIss,0.03533618063056444,0
Organisation sub-class,DisabIss,0.040199606433389455,0
Organisation sub-class,KnowlFDeve,0.031156674081261708,0
Organisation sub-class,OrgaID,0.03539791269484087,0
Organisation sub-class,OrganiN,0.04084830368076545,0
Organisation sub-class,OrganiTy,0.04026133849766588,0
Organisation sub-class,ContID,0.029256898377033186,0
Organisation sub-class,ConN,0.0297862675377351,0
Organisation sub-class,CouRegID,0.028913344957740866,0
Organisation sub-class,CouReNa,0.0320438259342719,0
Organisation sub-class,CounRegPerc,0.030812957999658566,0
Organisation sub-class,AmSp,0.02307568967698242,0
Sector name,FiY,0.02323934818777836,0
Sector name,UrIs,0.028851612893464437,0
Sector name,SecID,0.03913573203902149,0
Sector name,ICTAAToFoDeve,0.03027011208595506,0
Sector name,OrganiSu,0.03219829045614021,0
Sector name,SecNa,0.04451683607513776,1
Sector name,FCeID,0.028496988095341777,0
Sector name,IRTCPerc,0.032034631945344276,0
Sector name,Dese,0.034525609663426944,0
Sector name,DivN,0.02323934818777836,0
Sector name,OrgCl,0.028558720159618207,0
Sector name,BilaAMar,0.02765708725768285,0
Sector name,GenEqua,0.0373626080484082,0
Sector name,TraDevel,0.03661602952604471,0
Sector name,SecPerc,0.04198901224352411,0
Sector name,Sta,0.04147719494837213,0
Sector name,ProjNu,0.02824581592598057,0
Sector name,IndIss,0.02818408386170414,0
Sector name,RegProg,0.03263427740677278,0
Sector name,ProBroCouID,0.030976616510454504,0
Sector name,ClChaAdap,0.027433113700973805,0
Sector name,BrID,0.028913344957740866,0
Sector name,SeN,0.03539791269484087,0
Sector name,FuCenN,0.03325228366418278,0
Sector name,SeID,0.03458734172770338,0
Sector name,ChIss,0.023177616123501926,0
Sector name,YouIss,0.02818408386170414,0
Sector name,DisabIss,0.02765708725768285,0
Sector name,KnowlFDeve,0.031283325794876936,0
Sector name,OrgaID,0.03325228366418278,0
Sector name,OrganiN,0.032696009471049205,0
Sector name,OrganiTy,0.03219829045614021,0
Sector name,ContID,0.03319055159990635,0
Sector name,ConN,0.03458734172770338,0
Sector name,CouRegID,0.03219829045614021,0
Sector name,CouReNa,0.032696009471049205,0
Sector name,CounRegPerc,0.034681592160996644,0
Sector name,AmSp,0.028749686446944926,0
Fund centre ID,FiY,0.028174837443803256,0
Fund centre ID,UrIs,0.032678364969237726,0
Fund centre ID,SecID,0.03666011708850966,0
Fund centre ID,ICTAAToFoDeve,0.032678364969237726,0
Fund centre ID,OrganiSu,0.027037003866939115,0
Fund centre ID,SecNa,0.027647840839781966,0
Fund centre ID,FCeID,0.04113958822269058,1
Fund centre ID,IRTCPerc,0.030821118003269123,0
Fund centre ID,Dese,0.032678364969237726,0
Fund centre ID,DivN,0.027896700347236465,0
Fund centre ID,OrgCl,0.027647840839781966,0
Fund centre ID,BilaAMar,0.027090337847304947,0
Fund centre ID,GenEqua,0.031327413357341884,0
Fund centre ID,TraDevel,0.03095897200864302,0
Fund centre ID,SecPerc,0.035242414187655495,0
Fund centre ID,Sta,0.028174837443803256,0
Fund centre ID,ProjNu,0.02742386728307292,0
Fund centre ID,IndIss,0.03598819641838252,0
Fund centre ID,RegProg,0.031327413357341884,0
Fund centre ID,ProBroCouID,0.03338156389153356,0
Fund centre ID,ClChaAdap,0.02692213636202938,0
Fund centre ID,BrID,0.03735336163050731,0
Fund centre ID,SeN,0.028174837443803256,0
Fund centre ID,FuCenN,0.04019036001548856,0
Fund centre ID,SeID,0.03735336163050731,0
Fund centre ID,ChIss,0.027701174820147802,0
Fund centre ID,YouIss,0.031732698840910636,0
Fund centre ID,DisabIss,0.027090337847304947,0
Fund centre ID,KnowlFDeve,0.03386044762964657,0
Fund centre ID,OrgaID,0.03593486243801668,0
Fund centre ID,OrganiN,0.027221224541288547,0
Fund centre ID,OrganiTy,0.027037003866939115,0
Fund centre ID,ContID,0.0402436939958544,0
Fund centre ID,ConN,0.027896700347236465,0
Fund centre ID,CouRegID,0.038642906350953334,0
Fund centre ID,CouReNa,0.03127407937697605,0
Fund centre ID,CounRegPerc,0.036701441928503,0
Fund centre ID,AmSp,0.023083849680592974,0
IRTC percent,FiY,0.023082549809492415,0
IRTC percent,UrIs,0.028415481853501796,0
IRTC percent,SecID,0.03310904535806637,0
IRTC percent,ICTAAToFoDeve,0.03671370212957196,0
IRTC percent,OrganiSu,0.03159354496443618,0
IRTC percent,SecNa,0.03309548528589685,0
IRTC percent,FCeID,0.03310904535806637,0
IRTC percent,IRTCPerc,0.053108226570432335,1
IRTC percent,Dese,0.03373485382534165,0
IRTC percent,DivN,0.023082549809492415,0
IRTC percent,OrgCl,0.02808901754769463,0
IRTC percent,BilaAMar,0.027351607459133825,0
IRTC percent,GenEqua,0.0320550521500238,0
IRTC percent,TraDevel,0.03586260261407759,0
IRTC percent,SecPerc,0.036758156930671956,0
IRTC percent,Sta,0.028756546579454926,0
IRTC percent,ProjNu,0.027810880451127843,0
IRTC percent,IndIss,0.03255277116493279,0
IRTC percent,RegProg,0.03653452328420473,0
IRTC percent,ProBroCouID,0.026782982485554923,0
IRTC percent,ClChaAdap,0.031201819553036955,0
IRTC percent,BrID,0.02840192178133227,0
IRTC percent,SeN,0.028756546579454926,0
IRTC percent,FuCenN,0.03726754173439869,0
IRTC percent,SeID,0.02840192178133227,0
IRTC percent,ChIss,0.02810257761986416,0
IRTC percent,YouIss,0.02782444052329737,0
IRTC percent,DisabIss,0.027351607459133825,0
IRTC percent,KnowlFDeve,0.03083337820433809,0
IRTC percent,OrgaID,0.027810880451127843,0
IRTC percent,OrganiN,0.03204149207785427,0
IRTC percent,OrganiTy,0.03159354496443618,0
IRTC percent,ContID,0.03728110180656822,0
IRTC percent,ConN,0.03372129375317212,0
IRTC percent,CouRegID,0.03159354496443618,0
IRTC percent,CouReNa,0.03204149207785427,0
IRTC percent,CounRegPerc,0.038121474232379195,0
IRTC percent,AmSp,0.02863911549996902,0
Desertification (marker),FiY,0.02632059013335799,0
Desertification (marker),UrIs,0.026261344812732505,0
Desertification (marker),SecID,0.029091355516962576,0
Desertification (marker),ICTAAToFoDeve,0.030122510568353713,0
Desertification (marker),OrganiSu,0.03114742766336082,0
Desertification (marker),SecNa,0.03197284745209459,0
Desertification (marker),FCeID,0.026156529601464727,0
Desertification (marker),IRTCPerc,0.031062907638352753,0
Desertification (marker),Dese,0.03538026819302939,1
Desertification (marker),DivN,0.029247651959132304,0
Desertification (marker),OrgCl,0.026103195621098894,0
Desertification (marker),BilaAMar,0.03386044762964657,0
Desertification (marker),GenEqua,0.031458150610106005,0
Desertification (marker),TraDevel,0.031200761643726652,0
Desertification (marker),SecPerc,0.034065778912778476,0
Desertification (marker),Sta,0.02947281056111494,0
Desertification (marker),ProjNu,0.028842366475563545,0
Desertification (marker),IndIss,0.026058702070948125,0
Desertification (marker),RegProg,0.031458150610106005,0
Desertification (marker),ProBroCouID,0.03046350840983855,0
Desertification (marker),ClChaAdap,0.02837988256775097,0
Desertification (marker),BrID,0.026208010832366666,0
Desertification (marker),SeN,0.02632059013335799,0
Desertification (marker),FuCenN,0.028842366475563545,0
Desertification (marker),SeID,0.026208010832366666,0
Desertification (marker),ChIss,0.026156529601464727,0
Desertification (marker),YouIss,0.026058702070948125,0
Desertification (marker),DisabIss,0.031200761643726652,0
Desertification (marker),KnowlFDeve,0.030731405293270193,0
Desertification (marker),OrgaID,0.028842366475563545,0
Desertification (marker),OrganiN,0.031404816629740165,0
Desertification (marker),OrganiTy,0.03114742766336082,0
Desertification (marker),ContID,0.02889570045592938,0
Desertification (marker),ConN,0.029247651959132304,0
Desertification (marker),CouRegID,0.028487741677440895,0
Desertification (marker),CouReNa,0.028659334321693795,0
Desertification (marker),CounRegPerc,0.032810701286242985,0
Desertification (marker),AmSp,0.026123490807358603,0
Division name,FiY,0.028558720159618207,0
Division name,UrIs,0.02818408386170414,0
Division name,SecID,0.027905946765137354,0
Division name,ICTAAToFoDeve,0.032997995148437036,0
Division name,OrganiSu,0.027292203023465862,0
Division name,SecNa,0.027967678829413783,0
Division name,FCeID,0.027905946765137354,0
Division name,IRTCPerc,0.027128544512669925,0
Division name,Dese,0.03819701933810857,0
Division name,DivN,0.038258751402384994,1
Division name,OrgCl,0.02323934818777836,0
Division name,BilaAMar,0.031283325794876936,0
Division name,GenEqua,0.03168861127844569,0
Division name,TraDevel,0.03533618063056444,0
Division name,SecPerc,0.027331187254454298,0
Division name,Sta,0.028558720159618207,0
Division name,ProjNu,0.02771881932195928,0
Division name,IndIss,0.02765708725768285,0
Division name,RegProg,0.027433113700973805,0
Division name,ProBroCouID,0.026785596169004926,0
Division name,ClChaAdap,0.027046250284840003,0
Division name,BrID,0.02824581592598057,0
Division name,SeN,0.028558720159618207,0
Division name,FuCenN,0.02771881932195928,0
Division name,SeID,0.02824581592598057,0
Division name,ChIss,0.027905946765137354,0
Division name,YouIss,0.02765708725768285,0
Division name,DisabIss,0.03938903546625195,0
Division name,KnowlFDeve,0.034278914151689446,0
Division name,OrgaID,0.02771881932195928,0
Division name,OrganiN,0.02749484576525023,0
Division name,OrganiTy,0.027292203023465862,0
Division name,ContID,0.03213655839186378,0
Division name,ConN,0.03325228366418278,0
Division name,CouRegID,0.03134505785915336,0
Division name,CouReNa,0.031750343342722115,0
Division name,CounRegPerc,0.03371443362066212,0
Division name,AmSp,0.028082157415184637,0
Organisation class,FiY,0.027292203023465862,0
Organisation class,UrIs,0.03091488444617807,0
Organisation class,SecID,0.026878048799564434,0
Organisation class,ICTAAToFoDeve,0.025923098431548306,0
Organisation class,OrganiSu,0.042880106237648576,0
Organisation class,SecNa,0.030640213539903368,0
Organisation class,FCeID,0.023177616123501926,0
Organisation class,IRTCPerc,0.029622609026939164,0
Organisation class,Dese,0.027046250284840003,0
Organisation class,DivN,0.027107982349116436,0
Organisation class,OrgCl,0.03804107889202838,1
Organisation class,BilaAMar,0.032997995148437036,0
Organisation class,GenEqua,0.02998641224745694,0
Organisation class,TraDevel,0.032997995148437036,0
Organisation class,SecPerc,0.02988448580093743,0
Organisation class,Sta,0.03134505785915336,0
Organisation class,ProjNu,0.030331844150231494,0
Organisation class,IndIss,0.033816360067181625,0
Organisation class,RegProg,0.02998641224745694,0
Organisation class,ProBroCouID,0.02910900001877405,0
Organisation class,ClChaAdap,0.029482056979015823,0
Organisation class,BrID,0.027107982349116436,0
Organisation class,SeN,0.02323934818777836,0
Organisation class,FuCenN,0.026785596169004926,0
Organisation class,SeID,0.02323934818777836,0
Organisation class,ChIss,0.030578481475626938,0
Organisation class,YouIss,0.033816360067181625,0
Organisation class,DisabIss,0.03954491449839378,0
Organisation class,KnowlFDeve,0.032296539503798814,0
Organisation class,OrgaID,0.037424340112684626,0
Organisation class,OrganiN,0.043665736559643384,0
Organisation class,OrganiTy,0.042880106237648576,0
Organisation class,ContID,0.03027011208595506,0
Organisation class,ConN,0.030976616510454504,0
Organisation class,CouRegID,0.026512807862756727,0
Organisation class,CouReNa,0.030048144311733367,0
Organisation class,CounRegPerc,0.031880167423475964,0
Organisation class,AmSp,0.02307568967698242,0
Bilateral aid (international marker),FiY,0.02535067615558662,0
Bilateral aid (international marker),UrIs,0.025349452474702817,0
Bilateral aid (international marker),SecID,0.025297556162782425,0
Bilateral aid (international marker),ICTAAToFoDeve,0.02669557925941331,0
Bilateral aid (international marker),OrganiSu,0.03090563802827719,0
Bilateral aid (international marker),SecNa,0.027320074659232144,0
Bilateral aid (international marker),FCeID,0.025297556162782425,0
Bilateral aid (international marker),IRTCPerc,0.026952483841931052,0
Bilateral aid (international marker),Dese,0.027477201263438753,0
Bilateral aid (international marker),DivN,0.025296118494336984,0
Bilateral aid (international marker),OrgCl,0.027320074659232144,0
Bilateral aid (international marker),BilaAMar,0.034827606169981096,1
Bilateral aid (international marker),GenEqua,0.029159607282439267,0
Bilateral aid (international marker),TraDevel,0.03095897200864302,0
Bilateral aid (international marker),SecPerc,0.02902175327706537,0
Bilateral aid (international marker),Sta,0.0275329826055722,0
Bilateral aid (international marker),ProjNu,0.027221224541288547,0
Bilateral aid (international marker),IndIss,0.02524813110381063,0
Bilateral aid (international marker),RegProg,0.029159607282439267,0
Bilateral aid (international marker),ProBroCouID,0.028600919804501312,0
Bilateral aid (international marker),ClChaAdap,0.030787032712583557,0
Bilateral aid (international marker),BrID,0.02742386728307292,0
Bilateral aid (international marker),SeN,0.02535067615558662,0
Bilateral aid (international marker),FuCenN,0.027221224541288547,0
Bilateral aid (international marker),SeID,0.025296118494336984,0
Bilateral aid (international marker),ChIss,0.023221703685966877,0
Bilateral aid (international marker),YouIss,0.02524813110381063,0
Bilateral aid (international marker),DisabIss,0.027090337847304947,0
Bilateral aid (international marker),KnowlFDeve,0.030622569038091886,0
Bilateral aid (international marker),OrgaID,0.027221224541288547,0
Bilateral aid (international marker),OrganiN,0.031085574500897564,0
Bilateral aid (international marker),OrganiTy,0.03090563802827719,0
Bilateral aid (international marker),ContID,0.02727455852165438,0
Bilateral aid (international marker),ConN,0.02742386728307292,0
Bilateral aid (international marker),CouRegID,0.027037003866939115,0
Bilateral aid (international marker),CouReNa,0.027126972103249304,0
Bilateral aid (international marker),CounRegPerc,0.030327249812460006,0
Bilateral aid (international marker),AmSp,0.025211598469328918,0
Gender equality (marker),FiY,0.02632059013335799,0
Gender equality (marker),UrIs,0.026261344812732505,0
Gender equality (marker),SecID,0.026156529601464727,0
Gender equality (marker),ICTAAToFoDeve,0.0278222416075581,0
Gender equality (marker),OrganiSu,0.03114742766336082,0
Gender equality (marker),SecNa,0.029038021536596736,0
Gender equality (marker),FCeID,0.026156529601464727,0
Gender equality (marker),IRTCPerc,0.028403221652432826,0
Gender equality (marker),Dese,0.029300985939498134,0
Gender equality (marker),DivN,0.026208010832366666,0
Gender equality (marker),OrgCl,0.029038021536596736,0
Gender equality (marker),BilaAMar,0.031200761643726652,0
Gender equality (marker),GenEqua,0.039694597534245125,1
Gender equality (marker),TraDevel,0.031200761643726652,0
Gender equality (marker),SecPerc,0.0313202966047321,0
Gender equality (marker),Sta,0.02947281056111494,0
Gender equality (marker),ProjNu,0.028842366475563545,0
Gender equality (marker),IndIss,0.02889570045592938,0
Gender equality (marker),RegProg,0.028712668302059628,0
Gender equality (marker),ProBroCouID,0.028031795508426046,0
Gender equality (marker),ClChaAdap,0.02837988256775097,0
Gender equality (marker),BrID,0.026208010832366666,0
Gender equality (marker),SeN,0.02632059013335799,0
Gender equality (marker),FuCenN,0.028842366475563545,0
Gender equality (marker),SeID,0.026208010832366666,0
Gender equality (marker),ChIss,0.023221703685966877,0
Gender equality (marker),YouIss,0.026058702070948125,0
Gender equality (marker),DisabIss,0.02854107565780672,0
Gender equality (marker),KnowlFDeve,0.030731405293270193,0
Gender equality (marker),OrgaID,0.028842366475563545,0
Gender equality (marker),OrganiN,0.031404816629740165,0
Gender equality (marker),OrganiTy,0.03380711364928074,0
Gender equality (marker),ContID,0.02889570045592938,0
Gender equality (marker),ConN,0.026208010832366666,0
Gender equality (marker),CouRegID,0.028487741677440895,0
Gender equality (marker),CouReNa,0.028659334321693795,0
Gender equality (marker),CounRegPerc,0.032810701286242985,0
Gender equality (marker),AmSp,0.026123490807358603,0
Trade development (marker),FiY,0.023168369705601044,0
Trade development (marker),UrIs,0.026058702070948125,0
Trade development (marker),SecID,0.02596718599401325,0
Trade development (marker),ICTAAToFoDeve,0.0319509294859092,0
Trade development (marker),OrganiSu,0.030678071312904363,0
Trade development (marker),SecNa,0.028659334321693795,0
Trade development (marker),FCeID,0.02596718599401325,0
Trade development (marker),IRTCPerc,0.030593551287896297,0
Trade development (marker),Dese,0.02889570045592938,0
Trade development (marker),DivN,0.026005368090582293,0
Trade development (marker),OrgCl,0.028659334321693795,0
Trade development (marker),BilaAMar,0.030731405293270193,0
Trade development (marker),GenEqua,0.03095897200864302,0
Trade development (marker),TraDevel,0.04074434076967462,1
Trade development (marker),SecPerc,0.030821118003269123,0
Trade development (marker),Sta,0.029038021536596736,0
Trade development (marker),ProjNu,0.028487741677440895,0
Trade development (marker),IndIss,0.0258813896718868,0
Trade development (marker),RegProg,0.02837988256775097,0
Trade development (marker),ProBroCouID,0.030069176587987877,0
Trade development (marker),ClChaAdap,0.030516842390204385,0
Trade development (marker),BrID,0.026005368090582293,0
Trade development (marker),SeN,0.026103195621098894,0
Trade development (marker),FuCenN,0.028487741677440895,0
Trade development (marker),SeID,0.026005368090582293,0
Trade development (marker),ChIss,0.023221703685966877,0
Trade development (marker),YouIss,0.0258813896718868,0
Trade development (marker),DisabIss,0.02572493755506798,0
Trade development (marker),KnowlFDeve,0.03031419964842001,0
Trade development (marker),OrgaID,0.028487741677440895,0
Trade development (marker),OrganiN,0.03090563802827719,0
Trade development (marker),OrganiTy,0.030678071312904363,0
Trade development (marker),ContID,0.031200761643726652,0
Trade development (marker),ConN,0.028842366475563545,0
Trade development (marker),CouRegID,0.028174837443803256,0
Trade development (marker),CouReNa,0.03090563802827719,0
Trade development (marker),CounRegPerc,0.03228492552377542,0
Trade development (marker),AmSp,0.02592084806557423,0
Sector percent,FiY,0.023082549809492415,0
Sector percent,UrIs,0.02782444052329737,0
Sector percent,SecID,0.03653452328420473,0
Sector percent,ICTAAToFoDeve,0.03255277116493279,0
Sector percent,OrganiSu,0.03081981813216856,0
Sector percent,SecNa,0.0365209632120352,0
Sector percent,FCeID,0.02757558101584287,0
Sector percent,IRTCPerc,0.034925646012143395,0
Sector percent,Dese,0.03255277116493279,0
Sector percent,DivN,0.023082549809492415,0
Sector percent,OrgCl,0.027562020943673347,0
Sector percent,BilaAMar,0.02696474404300002,0
Sector percent,GenEqua,0.031201819553036955,0
Sector percent,TraDevel,0.03470201236567616,0
Sector percent,SecPerc,0.047636872542254204,1
Sector percent,Sta,0.03309548528589685,0
Sector percent,ProjNu,0.027338047386964298,0
Sector percent,IndIss,0.027351607459133825,0
Sector percent,RegProg,0.031201819553036955,0
Sector percent,ProBroCouID,0.02989134593344743,0
Sector percent,ClChaAdap,0.026796542557724453,0
Sector percent,BrID,0.027810880451127843,0
Sector percent,SeN,0.03309548528589685,0
Sector percent,FuCenN,0.03159354496443618,0
Sector percent,SeID,0.03253921109276326,0
Sector percent,ChIss,0.023096109881661945,0
Sector percent,YouIss,0.027351607459133825,0
Sector percent,DisabIss,0.023096109881661945,0
Sector percent,KnowlFDeve,0.03373485382534165,0
Sector percent,OrgaID,0.027338047386964298,0
Sector percent,OrganiN,0.03118825948086743,0
Sector percent,OrganiTy,0.03081981813216856,0
Sector percent,ContID,0.03586260261407759,0
Sector percent,ConN,0.03253921109276326,0
Sector percent,CouRegID,0.03081981813216856,0
Sector percent,CouReNa,0.03118825948086743,0
Sector percent,CounRegPerc,0.03693733577603919,0
Sector percent,AmSp,0.03277640481140002,0
Status,FiY,0.02323934818777836,0
Status,UrIs,0.03168861127844569,0
Status,SecID,0.03091488444617807,0
Status,ICTAAToFoDeve,0.023177616123501926,0
Status,OrganiSu,0.03539791269484087,0
Status,SecNa,0.03871388483313065,0
Status,FCeID,0.023177616123501926,0
Status,IRTCPerc,0.02307568967698242,0
Status,Dese,0.03168861127844569,0
Status,DivN,0.02323934818777836,0
Status,OrgCl,0.02323934818777836,0
Status,BilaAMar,0.029256898377033186,0
Status,GenEqua,0.029724535473458668,0
Status,TraDevel,0.029256898377033186,0
Status,SecPerc,0.029622609026939164,0
Status,Sta,0.051609332037590896,1
Status,ProjNu,0.030331844150231494,0
Status,IndIss,0.03027011208595506,0
Status,RegProg,0.023177616123501926,0
Status,ProBroCouID,0.02824581592598057,0
Status,ClChaAdap,0.028851612893464437,0
Status,BrID,0.02323934818777836,0
Status,SeN,0.032696009471049205,0
Status,FuCenN,0.030331844150231494,0
Status,SeID,0.031750343342722115,0
Status,ChIss,0.03091488444617807,0
Status,YouIss,0.0373626080484082,0
Status,DisabIss,0.03533618063056444,0
Status,KnowlFDeve,0.023177616123501926,0
Status,OrgaID,0.030331844150231494,0
Status,OrganiN,0.0297862675377351,0
Status,OrganiTy,0.029318630441309616,0
Status,ContID,0.03027011208595506,0
Status,ConN,0.02323934818777836,0
Status,CouRegID,0.029318630441309616,0
Status,CouReNa,0.0297862675377351,0
Status,CounRegPerc,0.028082157415184637,0
Status,AmSp,0.031586684831926184,0
Project number,FiY,0.02323934818777836,0
Project number,UrIs,0.027905946765137354,0
Project number,SecID,0.03213655839186378,0
Project number,ICTAAToFoDeve,0.03263427740677278,0
Project number,OrganiSu,0.03484525067179258,0
Project number,SecNa,0.03219829045614021,0
Project number,FCeID,0.02765708725768285,0
Project number,IRTCPerc,0.034681592160996644,0
Project number,Dese,0.03263427740677278,0
Project number,DivN,0.02323934818777836,0
Project number,OrgCl,0.02771881932195928,0
Project number,BilaAMar,0.027046250284840003,0
Project number,GenEqua,0.03533618063056444,0
Project number,TraDevel,0.03478351860751615,0
Project number,SecPerc,0.03928710901973244,0
Project number,Sta,0.02824581592598057,0
Project number,ProjNu,0.04451683607513776,1
Project number,IndIss,0.027433113700973805,0
Project number,RegProg,0.03533618063056444,0
Project number,ProBroCouID,0.03685694043568837,0
Project number,ClChaAdap,0.023177616123501926,0
Project number,BrID,0.027967678829413783,0
Project number,SeN,0.02824581592598057,0
Project number,FuCenN,0.031750343342722115,0
Project number,SeID,0.027967678829413783,0
Project number,ChIss,0.023177616123501926,0
Project number,YouIss,0.03168861127844569,0
Project number,DisabIss,0.027046250284840003,0
Project number,KnowlFDeve,0.033816360067181625,0
Project number,OrgaID,0.02749484576525023,0
Project number,OrganiN,0.03134505785915336,0
Project number,OrganiTy,0.030976616510454504,0
Project number,ContID,0.03168861127844569,0
Project number,ConN,0.032696009471049205,0
Project number,CouRegID,0.03484525067179258,0
Project number,CouReNa,0.03539791269484087,0
Project number,CounRegPerc,0.036693281924892435,0
Project number,AmSp,0.027804020318617846,0
Indigenous issues (marker),FiY,0.026103195621098894,0
Indigenous issues (marker),UrIs,0.02889570045592938,0
Indigenous issues (marker),SecID,0.02596718599401325,0
Indigenous issues (marker),ICTAAToFoDeve,0.0319509294859092,0
Indigenous issues (marker),OrganiSu,0.03318130518200547,0
Indigenous issues (marker),SecNa,0.028659334321693795,0
Indigenous issues (marker),FCeID,0.02596718599401325,0
Indigenous issues (marker),IRTCPerc,0.030593551287896297,0
Indigenous issues (marker),Dese,0.031732698840910636,0
Indigenous issues (marker),DivN,0.026005368090582293,0
Indigenous issues (marker),OrgCl,0.025913852013647418,0
Indigenous issues (marker),BilaAMar,0.030731405293270193,0
Indigenous issues (marker),GenEqua,0.03353806144953507,0
Indigenous issues (marker),TraDevel,0.02822817142416909,0
Indigenous issues (marker),SecPerc,0.030821118003269123,0
Indigenous issues (marker),Sta,0.026103195621098894,0
Indigenous issues (marker),ProjNu,0.028487741677440895,0
Indigenous issues (marker),IndIss,0.0365201336155665,1
Indigenous issues (marker),RegProg,0.02837988256775097,0
Indigenous issues (marker),ProBroCouID,0.02776890762719226,0
Indigenous issues (marker),ClChaAdap,0.028085129488791882,0
Indigenous issues (marker),BrID,0.026005368090582293,0
Indigenous issues (marker),SeN,0.026103195621098894,0
Indigenous issues (marker),FuCenN,0.028487741677440895,0
Indigenous issues (marker),SeID,0.026005368090582293,0
Indigenous issues (marker),ChIss,0.031458150610106005,0
Indigenous issues (marker),YouIss,0.03386044762964657,0
Indigenous issues (marker),DisabIss,0.03323463916237131,0
Indigenous issues (marker),KnowlFDeve,0.032678364969237726,0
Indigenous issues (marker),OrgaID,0.028487741677440895,0
Indigenous issues (marker),OrganiN,0.03090563802827719,0
Indigenous issues (marker),OrganiTy,0.030678071312904363,0
Indigenous issues (marker),ContID,0.0258813896718868,0
Indigenous issues (marker),ConN,0.026005368090582293,0
Indigenous issues (marker),CouRegID,0.030678071312904363,0
Indigenous issues (marker),CouReNa,0.03348472746916924,0
Indigenous issues (marker),CounRegPerc,0.034585194484571036,0
Indigenous issues (marker),AmSp,0.02592084806557423,0
Regional program (marker),FiY,0.026208010832366666,0
Regional program (marker),UrIs,0.026156529601464727,0
Regional program (marker),SecID,0.026058702070948125,0
Regional program (marker),ICTAAToFoDeve,0.029940910387238263,0
Regional program (marker),OrganiSu,0.03090563802827719,0
Regional program (marker),SecNa,0.028842366475563545,0
Regional program (marker),FCeID,0.026058702070948125,0
Regional program (marker),IRTCPerc,0.030821118003269123,0
Regional program (marker),Dese,0.029091355516962576,0
Regional program (marker),DivN,0.026103195621098894,0
Regional program (marker),OrgCl,0.028842366475563545,0
Regional program (marker),BilaAMar,0.036117150890427115,0
Regional program (marker),GenEqua,0.031200761643726652,0
Regional program (marker),TraDevel,0.03095897200864302,0
Regional program (marker),SecPerc,0.031062907638352753,0
Regional program (marker),Sta,0.026208010832366666,0
Regional program (marker),ProjNu,0.028659334321693795,0
Regional program (marker),IndIss,0.02596718599401325,0
Regional program (marker),RegProg,0.03917981960148643,1
Regional program (marker),ProBroCouID,0.030260865668054176,0
Regional program (marker),ClChaAdap,0.030731405293270193,0
Regional program (marker),BrID,0.026103195621098894,0
Regional program (marker),SeN,0.026208010832366666,0
Regional program (marker),FuCenN,0.028659334321693795,0
Regional program (marker),SeID,0.026103195621098894,0
Regional program (marker),ChIss,0.023221703685966877,0
Regional program (marker),YouIss,0.02596718599401325,0
Regional program (marker),DisabIss,0.02837988256775097,0
Regional program (marker),KnowlFDeve,0.030516842390204385,0
Regional program (marker),OrgaID,0.031404816629740165,0
Regional program (marker),OrganiN,0.03114742766336082,0
Regional program (marker),OrganiTy,0.03090563802827719,0
Regional program (marker),ContID,0.028712668302059628,0
Regional program (marker),ConN,0.029038021536596736,0
Regional program (marker),CouRegID,0.03090563802827719,0
Regional program (marker),CouReNa,0.03114742766336082,0
Regional program (marker),CounRegPerc,0.03490467628468153,0
Regional program (marker),AmSp,0.026018675596090828,0
Project Browser country ID,FiY,0.02323934818777836,0
Project Browser country ID,UrIs,0.028851612893464437,0
Project Browser country ID,SecID,0.03415954535568742,0
Project Browser country ID,ICTAAToFoDeve,0.029724535473458668,0
Project Browser country ID,OrganiSu,0.02824581592598057,0
Project Browser country ID,SecNa,0.02873031280387111,0
Project Browser country ID,FCeID,0.03141406304764106,0
Project Browser country ID,IRTCPerc,0.03308862515338685,0
Project Browser country ID,Dese,0.03168861127844569,0
Project Browser country ID,DivN,0.02607634657275961,0
Project Browser country ID,OrgCl,0.025984830495824732,0
Project Browser country ID,BilaAMar,0.02818408386170414,0
Project Browser country ID,GenEqua,0.028335795005286026,0
Project Browser country ID,TraDevel,0.03068731773080525,0
Project Browser country ID,SecPerc,0.03597113688144266,0
Project Browser country ID,Sta,0.026174174103276212,0
Project Browser country ID,ProjNu,0.03653777811737798,0
Project Browser country ID,IndIss,0.028496988095341777,0
Project Browser country ID,RegProg,0.03091488444617807,0
Project Browser country ID,ProBroCouID,0.046242037795734464,1
Project Browser country ID,ClChaAdap,0.023177616123501926,0
Project Browser country ID,BrID,0.03458734172770338,0
Project Browser country ID,SeN,0.026174174103276212,0
Project Browser country ID,FuCenN,0.028558720159618207,0
Project Browser country ID,SeID,0.031750343342722115,0
Project Browser country ID,ChIss,0.025923098431548306,0
Project Browser country ID,YouIss,0.031156674081261708,0
Project Browser country ID,DisabIss,0.02818408386170414,0
Project Browser country ID,KnowlFDeve,0.03027011208595506,0
Project Browser country ID,OrgaID,0.031218406145538134,0
Project Browser country ID,OrganiN,0.028397527069562455,0
Project Browser country ID,OrganiTy,0.030749049795081675,0
Project Browser country ID,ContID,0.036476046053101556,0
Project Browser country ID,ConN,0.028913344957740866,0
Project Browser country ID,CouRegID,0.03325228366418278,0
Project Browser country ID,CouReNa,0.028397527069562455,0
Project Browser country ID,CounRegPerc,0.03457703448096048,0
Project Browser country ID,AmSp,0.02307568967698242,0
Climate change adaptation (marker),FiY,0.02546863866639665,0
Climate change adaptation (marker),UrIs,0.02546143925305734,0
Climate change adaptation (marker),SecID,0.027586316585938034,0
Climate change adaptation (marker),ICTAAToFoDeve,0.028654253784867148,0
Climate change adaptation (marker),OrganiSu,0.029247651959132304,0
Climate change adaptation (marker),SecNa,0.029715289055557776,0
Climate change adaptation (marker),FCeID,0.027586316585938034,0
Climate change adaptation (marker),IRTCPerc,0.029163131934124238,0
Climate change adaptation (marker),Dese,0.027701174820147802,0
Climate change adaptation (marker),DivN,0.02540810527269151,0
Climate change adaptation (marker),OrgCl,0.0275329826055722,0
Climate change adaptation (marker),BilaAMar,0.031327413357341884,0
Climate change adaptation (marker),GenEqua,0.02944926111641353,0
Climate change adaptation (marker),TraDevel,0.029300985939498134,0
Climate change adaptation (marker),SecPerc,0.031387259587855175,0
Climate change adaptation (marker),Sta,0.02776890762719226,0
Climate change adaptation (marker),ProjNu,0.025296118494336984,0
Climate change adaptation (marker),IndIss,0.027477201263438753,0
Climate change adaptation (marker),RegProg,0.02944926111641353,0
Climate change adaptation (marker),ProBroCouID,0.02695103421890938,0
Climate change adaptation (marker),ClChaAdap,0.03707681207773579,1
Climate change adaptation (marker),BrID,0.02540810527269151,0
Climate change adaptation (marker),SeN,0.02546863866639665,0
Climate change adaptation (marker),FuCenN,0.029551616071808864,0
Climate change adaptation (marker),SeID,0.02540810527269151,0
Climate change adaptation (marker),ChIss,0.027586316585938034,0
Climate change adaptation (marker),YouIss,0.025349452474702817,0
Climate change adaptation (marker),DisabIss,0.02727455852165438,0
Climate change adaptation (marker),KnowlFDeve,0.029024654927973986,0
Climate change adaptation (marker),OrgaID,0.02742386728307292,0
Climate change adaptation (marker),OrganiN,0.029395927136047696,0
Climate change adaptation (marker),OrganiTy,0.029247651959132304,0
Climate change adaptation (marker),ContID,0.029604950052174697,0
Climate change adaptation (marker),ConN,0.029887576406872434,0
Climate change adaptation (marker),CouRegID,0.029247651959132304,0
Climate change adaptation (marker),CouReNa,0.029395927136047696,0
Climate change adaptation (marker),CounRegPerc,0.032540510963863824,0
Climate change adaptation (marker),AmSp,0.027563320814773903,0
Branch ID,FiY,0.02323934818777836,0
Branch ID,UrIs,0.03627145482341541,0
Branch ID,SecID,0.0414154628840957,0
Branch ID,ICTAAToFoDeve,0.03091488444617807,0
Branch ID,OrganiSu,0.038258751402384994,0
Branch ID,SecNa,0.029318630441309616,0
Branch ID,FCeID,0.03533618063056444,0
Branch ID,IRTCPerc,0.03308862515338685,0
Branch ID,Dese,0.029724535473458668,0
Branch ID,DivN,0.0297862675377351,0
Branch ID,OrgCl,0.029318630441309616,0
Branch ID,BilaAMar,0.03319055159990635,0
Branch ID,GenEqua,0.028496988095341777,0
Branch ID,TraDevel,0.03819701933810857,0
Branch ID,SecPerc,0.03371443362066212,0
Branch ID,Sta,0.030331844150231494,0
Branch ID,ProjNu,0.028913344957740866,0
Branch ID,IndIss,0.034525609663426944,0
Branch ID,RegProg,0.028496988095341777,0
Branch ID,ProBroCouID,0.04026133849766588,0
Branch ID,ClChaAdap,0.027905946765137354,0
Branch ID,BrID,0.04942702558760531,1
Branch ID,SeN,0.02323934818777836,0
Branch ID,FuCenN,0.028913344957740866,0
Branch ID,SeID,0.03633318688769183,0
Branch ID,ChIss,0.03533618063056444,0
Branch ID,YouIss,0.028851612893464437,0
Branch ID,DisabIss,0.03319055159990635,0
Branch ID,KnowlFDeve,0.03213655839186378,0
Branch ID,OrgaID,0.045935335267628385,0
Branch ID,OrganiN,0.03919746410329791,0
Branch ID,OrganiTy,0.038258751402384994,0
Branch ID,ContID,0.040199606433389455,0
Branch ID,ConN,0.0297862675377351,0
Branch ID,CouRegID,0.03325228366418278,0
Branch ID,CouReNa,0.028558720159618207,0
Branch ID,CounRegPerc,0.031586684831926184,0
Branch ID,AmSp,0.02307568967698242,0
Section name,FiY,0.028913344957740866,0
Section name,UrIs,0.023177616123501926,0
Section name,SecID,0.03819701933810857,0
Section name,ICTAAToFoDeve,0.02998641224745694,0
Section name,OrganiSu,0.02749484576525023,0
Section name,SecNa,0.0432652191405872,0
Section name,FCeID,0.02818408386170414,0
Section name,IRTCPerc,0.031586684831926184,0
Section name,Dese,0.033816360067181625,0
Section name,DivN,0.028558720159618207,0
Section name,OrgCl,0.02323934818777836,0
Section name,BilaAMar,0.03168861127844569,0
Section name,GenEqua,0.03661602952604471,0
Section name,TraDevel,0.03168861127844569,0
Section name,SecPerc,0.04099357421370613,0
Section name,Sta,0.04026133849766588,0
Section name,ProjNu,0.027967678829413783,0
Section name,IndIss,0.027905946765137354,0
Section name,RegProg,0.03213655839186378,0
Section name,ProBroCouID,0.026939780863840863,0
Section name,ClChaAdap,0.027230470959189432,0
Section name,BrID,0.02323934818777836,0
Section name,SeN,0.03458734172770338,1
Section name,FuCenN,0.032696009471049205,0
Section name,SeID,0.03387809213145806,0
Section name,ChIss,0.023177616123501926,0
Section name,YouIss,0.027905946765137354,0
Section name,DisabIss,0.03168861127844569,0
Section name,KnowlFDeve,0.03091488444617807,0
Section name,OrgaID,0.027967678829413783,0
Section name,OrganiN,0.02771881932195928,0
Section name,OrganiTy,0.02749484576525023,0
Section name,ContID,0.03263427740677278,0
Section name,ConN,0.03387809213145806,0
Section name,CouRegID,0.031750343342722115,0
Section name,CouReNa,0.03219829045614021,0
Section name,CounRegPerc,0.034176987705169935,0
Section name,AmSp,0.028395061648822273,0
Fund centre name,FiY,0.02771881932195928,0
Fund centre name,UrIs,0.027433113700973805,0
Fund centre name,SecID,0.027230470959189432,0
Fund centre name,ICTAAToFoDeve,0.031982093869995475,0
Fund centre name,OrganiSu,0.030331844150231494,0
Fund centre name,SecNa,0.03134505785915336,0
Fund centre name,FCeID,0.031283325794876936,0
Fund centre name,IRTCPerc,0.030168185639435553,0
Fund centre name,Dese,0.03168861127844569,0
Fund centre name,DivN,0.02323934818777836,0
Fund centre name,OrgCl,0.027292203023465862,0
Fund centre name,BilaAMar,0.026723864104728493,0
Fund centre name,GenEqua,0.034278914151689446,0
Fund centre name,TraDevel,0.033816360067181625,0
Fund centre name,SecPerc,0.034176987705169935,0
Fund centre name,Sta,0.03219829045614021,0
Fund centre name,ProjNu,0.027107982349116436,0
Fund centre name,IndIss,0.03091488444617807,0
Fund centre name,RegProg,0.030578481475626938,0
Fund centre name,ProBroCouID,0.026391568615535307,0
Fund centre name,ClChaAdap,0.02998641224745694,0
Fund centre name,BrID,0.02749484576525023,0
Fund centre name,SeN,0.02771881932195928,0
Fund centre name,FuCenN,0.03871388483313065,1
Fund centre name,SeID,0.02749484576525023,0
Fund centre name,ChIss,0.023177616123501926,0
Fund centre name,YouIss,0.027046250284840003,0
Fund centre name,DisabIss,0.026723864104728493,0
Fund centre name,KnowlFDeve,0.032997995148437036,0
Fund centre name,OrgaID,0.030976616510454504,0
Fund centre name,OrganiN,0.030640213539903368,0
Fund centre name,OrganiTy,0.030331844150231494,0
Fund centre name,ContID,0.03091488444617807,0
Fund centre name,ConN,0.02749484576525023,0
Fund centre name,CouRegID,0.030331844150231494,0
Fund centre name,CouReNa,0.03434064621596587,0
Fund centre name,CounRegPerc,0.03568457138801021,0
Fund centre name,AmSp,0.027331187254454298,0
Section ID,FiY,0.0297862675377351,0
Section ID,UrIs,0.029256898377033186,0
Section ID,SecID,0.05154759997331448,0
Section ID,ICTAAToFoDeve,0.030578481475626938,0
Section ID,OrganiSu,0.027967678829413783,0
Section ID,SecNa,0.04026133849766588,0
Section ID,FCeID,0.040199606433389455,0
Section ID,IRTCPerc,0.03253235096025327,0
Section ID,Dese,0.029256898377033186,0
Section ID,DivN,0.029318630441309616,0
Section ID,OrgCl,0.02323934818777836,0
Section ID,BilaAMar,0.027905946765137354,0
Section ID,GenEqua,0.03319055159990635,0
Section ID,TraDevel,0.027905946765137354,0
Section ID,SecPerc,0.03809509289158906,0
Section ID,Sta,0.03633318688769183,0
Section ID,ProjNu,0.028558720159618207,0
Section ID,IndIss,0.033816360067181625,0
Section ID,RegProg,0.03319055159990635,0
Section ID,ProBroCouID,0.03539791269484087,0
Section ID,ClChaAdap,0.023177616123501926,0
Section ID,BrID,0.03539791269484087,0
Section ID,SeN,0.03633318688769183,0
Section ID,FuCenN,0.03387809213145806,0
Section ID,SeID,0.04755647720190338,1
Section ID,ChIss,0.028851612893464437,0
Section ID,YouIss,0.033816360067181625,0
Section ID,DisabIss,0.03263427740677278,0
Section ID,KnowlFDeve,0.03168861127844569,0
Section ID,OrgaID,0.03387809213145806,0
Section ID,OrganiN,0.02824581592598057,0
Section ID,OrganiTy,0.027967678829413783,0
Section ID,ContID,0.04445510401086133,0
Section ID,ConN,0.03539791269484087,0
Section ID,CouRegID,0.037424340112684626,0
Section ID,CouReNa,0.02824581592598057,0
Section ID,CounRegPerc,0.03118139934835743,0
Section ID,AmSp,0.029154971930513682,0
Maximum CIDA contribution (project-level),FiY,0.025016866890161454,0
Maximum CIDA contribution (project-level),UrIs,0.024987442138316114,0
Maximum CIDA contribution (project-level),SecID,0.026796542557724453,0
Maximum CIDA contribution (project-level),ICTAAToFoDeve,0.03412888137881126,0
Maximum CIDA contribution (project-level),OrganiSu,0.030030300956385283,0
Maximum CIDA contribution (project-level),SecNa,0.026782982485554923,0
Maximum CIDA contribution (project-level),FCeID,0.0286467588957557,0
Maximum CIDA contribution (project-level),IRTCPerc,0.028530556888298822,0
Maximum CIDA contribution (project-level),Dese,0.028770106651624452,0
Maximum CIDA contribution (project-level),DivN,0.028756546579454926,0
Maximum CIDA contribution (project-level),OrgCl,0.026782982485554923,0
Maximum CIDA contribution (project-level),BilaAMar,0.028306923241831598,0
Maximum CIDA contribution (project-level),GenEqua,0.02664235786288851,0
Maximum CIDA contribution (project-level),TraDevel,0.03351773660200125,0
Maximum CIDA contribution (project-level),SecPerc,0.028639115499969024,0
Maximum CIDA contribution (project-level),Sta,0.025016866890161454,0
Maximum CIDA contribution (project-level),ProjNu,0.028515099908392696,0
Maximum CIDA contribution (project-level),IndIss,0.02671780994759546,0
Maximum CIDA contribution (project-level),RegProg,0.02664235786288851,0
Maximum CIDA contribution (project-level),ProBroCouID,0.029629469159449157,0
Maximum CIDA contribution (project-level),ClChaAdap,0.0282027069746282,0
Maximum CIDA contribution (project-level),BrID,0.026865214322800757,0
Maximum CIDA contribution (project-level),SeN,0.025016866890161454,0
Maximum CIDA contribution (project-level),FuCenN,0.028515099908392696,0
Maximum CIDA contribution (project-level),SeID,0.026865214322800757,0
Maximum CIDA contribution (project-level),ChIss,0.026796542557724453,0
Maximum CIDA contribution (project-level),YouIss,0.02671780994759546,0
Maximum CIDA contribution (project-level),DisabIss,0.028306923241831598,0
Maximum CIDA contribution (project-level),KnowlFDeve,0.03310904535806637,0
Maximum CIDA contribution (project-level),OrgaID,0.028515099908392696,0
Maximum CIDA contribution (project-level),OrganiN,0.02840192178133227,0
Maximum CIDA contribution (project-level),OrganiTy,0.02829336316966207,0
Maximum CIDA contribution (project-level),ContID,0.030339510013528977,0
Maximum CIDA contribution (project-level),ConN,0.028756546579454926,0
Maximum CIDA contribution (project-level),CouRegID,0.030030300956385283,0
Maximum CIDA contribution (project-level),CouReNa,0.030175045771945554,0
Maximum CIDA contribution (project-level),CounRegPerc,0.03314012255306428,0
Maximum CIDA contribution (project-level),AmSp,0.02710240804143751,0
Branch name,FiY,0.02323934818777836,0
Branch name,UrIs,0.028851612893464437,0
Branch name,SecID,0.028496988095341777,0
Branch name,ICTAAToFoDeve,0.026723864104728493,0
Branch name,OrganiSu,0.036677761590321135,0
Branch name,SecNa,0.03387809213145806,0
Branch name,FCeID,0.028496988095341777,0
Branch name,IRTCPerc,0.032034631945344276,0
Branch name,Dese,0.028851612893464437,0
Branch name,DivN,0.02323934818777836,0
Branch name,OrgCl,0.028558720159618207,0
Branch name,BilaAMar,0.03661602952604471,0
Branch name,GenEqua,0.03263427740677278,0
Branch name,TraDevel,0.03661602952604471,0
Branch name,SecPerc,0.03253235096025327,0
Branch name,Sta,0.029318630441309616,0
Branch name,ProjNu,0.02824581592598057,0
Branch name,IndIss,0.02818408386170414,0
Branch name,RegProg,0.027905946765137354,0
Branch name,ProBroCouID,0.030976616510454504,0
Branch name,ClChaAdap,0.03168861127844569,0
Branch name,BrID,0.03458734172770338,0
Branch name,SeN,0.029318630441309616,0
Branch name,FuCenN,0.02824581592598057,0
Branch name,SeID,0.028913344957740866,0
Branch name,ChIss,0.028496988095341777,0
Branch name,YouIss,0.023177616123501926,0
Branch name,DisabIss,0.02765708725768285,0
Branch name,KnowlFDeve,0.031283325794876936,0
Branch name,OrgaID,0.03325228366418278,0
Branch name,OrganiN,0.037424340112684626,0
Branch name,OrganiTy,0.036677761590321135,0
Branch name,ContID,0.02818408386170414,0
Branch name,ConN,0.028913344957740866,0
Branch name,CouRegID,0.02771881932195928,0
Branch name,CouReNa,0.027967678829413783,0
Branch name,CounRegPerc,0.030812957999658566,0
Branch name,AmSp,0.028749686446944926,0
Division ID,FiY,0.029318630441309616,0
Division ID,UrIs,0.028851612893464437,0
Division ID,SecID,0.033816360067181625,0
Division ID,ICTAAToFoDeve,0.03027011208595506,0
Division ID,OrganiSu,0.02771881932195928,0
Division ID,SecNa,0.02323934818777836,0
Division ID,FCeID,0.033816360067181625,0
Division ID,IRTCPerc,0.027555160811163347,0
Division ID,Dese,0.034525609663426944,0
Division ID,DivN,0.04026133849766588,0
Division ID,OrgCl,0.02323934818777836,0
Division ID,BilaAMar,0.02765708725768285,0
Division ID,GenEqua,0.027905946765137354,0
Division ID,TraDevel,0.03213655839186378,0
Division ID,SecPerc,0.02307568967698242,0
Division ID,Sta,0.02323934818777836,0
Division ID,ProjNu,0.02824581592598057,0
Division ID,IndIss,0.03319055159990635,0
Division ID,RegProg,0.027905946765137354,0
Division ID,ProBroCouID,0.03484525067179258,0
Division ID,ClChaAdap,0.023177616123501926,0
Division ID,BrID,0.03458734172770338,0
Division ID,SeN,0.02323934818777836,0
Division ID,FuCenN,0.02824581592598057,0
Division ID,SeID,0.03458734172770338,0
Division ID,ChIss,0.028496988095341777,0
Division ID,YouIss,0.03319055159990635,0
Division ID,DisabIss,0.04109550066022564,0
Division ID,KnowlFDeve,0.031283325794876936,0
Division ID,OrgaID,0.03325228366418278,0
Division ID,OrganiN,0.027967678829413783,0
Division ID,OrganiTy,0.02771881932195928,0
Division ID,ContID,0.043203487076310776,0
Division ID,ConN,0.03458734172770338,0
Division ID,CouRegID,0.036677761590321135,0
Division ID,CouReNa,0.027967678829413783,0
Division ID,CounRegPerc,0.030812957999658566,0
Division ID,AmSp,0.02307568967698242,0
Untied amount(Project-level budget),FiY,0.025322285376582886,0
Untied amount(Project-level budget),UrIs,0.027460722781633105,0
Untied amount(Project-level budget),SecID,0.027351607459133825,0
Untied amount(Project-level budget),ICTAAToFoDeve,0.031961729834728364,0
Untied amount(Project-level budget),OrganiSu,0.029020453405964812,0
Untied amount(Project-level budget),SecNa,0.027338047386964298,0
Untied amount(Project-level budget),FCeID,0.025223858670397885,0
Untied amount(Project-level budget),IRTCPerc,0.029257647124601566,0
Untied amount(Project-level budget),Dese,0.027460722781633105,0
Untied amount(Project-level budget),DivN,0.02744716270946358,0
Untied amount(Project-level budget),OrgCl,0.027338047386964298,0
Untied amount(Project-level budget),BilaAMar,0.029034013478134335,0
Untied amount(Project-level budget),GenEqua,0.029175392135193205,0
Untied amount(Project-level budget),TraDevel,0.032992615875782595,0
Untied amount(Project-level budget),SecPerc,0.03142545319950418,0
Untied amount(Project-level budget),Sta,0.027562020943673347,0
Untied amount(Project-level budget),ProjNu,0.03346181219357018,0
Untied amount(Project-level budget),IndIss,0.02724781483529305,0
Untied amount(Project-level budget),RegProg,0.03322824697088071,0
Untied amount(Project-level budget),ProBroCouID,0.030483415161617424,0
Untied amount(Project-level budget),ClChaAdap,0.02696474404300002,0
Untied amount(Project-level budget),BrID,0.025264856259478,0
Untied amount(Project-level budget),SeN,0.025322285376582886,0
Untied amount(Project-level budget),FuCenN,0.027234254763123522,0
Untied amount(Project-level budget),SeID,0.025264856259478,0
Untied amount(Project-level budget),ChIss,0.023096109881661945,0
Untied amount(Project-level budget),YouIss,0.02724781483529305,0
Untied amount(Project-level budget),DisabIss,0.029034013478134335,0
Untied amount(Project-level budget),KnowlFDeve,0.034444103421586963,0
Untied amount(Project-level budget),OrgaID,0.027234254763123522,0
Untied amount(Project-level budget),OrganiN,0.027135404645179922,0
Untied amount(Project-level budget),OrganiTy,0.027041152207140682,0
Untied amount(Project-level budget),ContID,0.029323667312108604,0
Untied amount(Project-level budget),ConN,0.02744716270946358,0
Untied amount(Project-level budget),CouRegID,0.03099975460478894,0
Untied amount(Project-level budget),CouReNa,0.029161832063023682,0
Untied amount(Project-level budget),CounRegPerc,0.034421041556316694,0
Untied amount(Project-level budget),AmSp,0.025502049978114755,0
FSTC percent,FiY,0.028756546579454926,0
FSTC percent,UrIs,0.028415481853501796,0
FSTC percent,SecID,0.03811551309626858,0
FSTC percent,ICTAAToFoDeve,0.03330930406759446,0
FSTC percent,OrganiSu,0.03159354496443618,0
FSTC percent,SecNa,0.03810195302409906,0
FSTC percent,FCeID,0.03811551309626858,0
FSTC percent,IRTCPerc,0.04459723141548858,0
FSTC percent,Dese,0.03373485382534165,0
FSTC percent,DivN,0.023082549809492415,0
FSTC percent,OrgCl,0.02808901754769463,0
FSTC percent,BilaAMar,0.027351607459133825,0
FSTC percent,GenEqua,0.0320550521500238,0
FSTC percent,TraDevel,0.03586260261407759,0
FSTC percent,SecPerc,0.04123762806485288,0
FSTC percent,Sta,0.03443054334941743,0
FSTC percent,ProjNu,0.027810880451127843,0
FSTC percent,IndIss,0.02782444052329737,0
FSTC percent,RegProg,0.0320550521500238,0
FSTC percent,ProBroCouID,0.026782982485554923,0
FSTC percent,ClChaAdap,0.031201819553036955,0
FSTC percent,BrID,0.02840192178133227,0
FSTC percent,SeN,0.03443054334941743,0
FSTC percent,FuCenN,0.0419958723760341,0
FSTC percent,SeID,0.03372129375317212,0
FSTC percent,ChIss,0.02810257761986416,0
FSTC percent,YouIss,0.023096109881661945,0
FSTC percent,DisabIss,0.023096109881661945,0
FSTC percent,KnowlFDeve,0.03470201236567616,0
FSTC percent,OrgaID,0.027810880451127843,0
FSTC percent,OrganiN,0.03204149207785427,0
FSTC percent,OrganiTy,0.03159354496443618,0
FSTC percent,ContID,0.03728110180656822,0
FSTC percent,ConN,0.03372129375317212,0
FSTC percent,CouRegID,0.03159354496443618,0
FSTC percent,CouReNa,0.03204149207785427,0
FSTC percent,CounRegPerc,0.038121474232379195,0
FSTC percent,AmSp,0.03395848747180887,0
CFLI (marker),FiY,0.028487741677440895,0
CFLI (marker),UrIs,0.02822817142416909,0
CFLI (marker),SecID,0.0279500343276023,0
CFLI (marker),ICTAAToFoDeve,0.033042082710901984,0
CFLI (marker),OrganiSu,0.027221224541288547,0
CFLI (marker),SecNa,0.027896700347236465,0
CFLI (marker),FCeID,0.032678364969237726,0
CFLI (marker),IRTCPerc,0.035242414187655495,0
CFLI (marker),Dese,0.02822817142416909,0
CFLI (marker),DivN,0.023168369705601044,0
CFLI (marker),OrgCl,0.027896700347236465,0
CFLI (marker),BilaAMar,0.031327413357341884,0
CFLI (marker),GenEqua,0.027477201263438753,0
CFLI (marker),TraDevel,0.031327413357341884,0
CFLI (marker),SecPerc,0.031594844835536734,0
CFLI (marker),Sta,0.028487741677440895,0
CFLI (marker),ProjNu,0.027647840839781966,0
CFLI (marker),IndIss,0.027701174820147802,0
CFLI (marker),RegProg,0.031732698840910636,0
CFLI (marker),ProBroCouID,0.030260865668054176,0
CFLI (marker),ClChaAdap,0.03095897200864302,0
CFLI (marker),BrID,0.028174837443803256,0
CFLI (marker),SeN,0.028487741677440895,0
CFLI (marker),FuCenN,0.032127311973962895,0
CFLI (marker),SeID,0.028174837443803256,0
CFLI (marker),ChIss,0.032678364969237726,0
CFLI (marker),YouIss,0.027701174820147802,0
CFLI (marker),DisabIss,0.02727455852165438,0
CFLI (marker),KnowlFDeve,0.030622569038091886,0
CFLI (marker),OrgaID,0.027647840839781966,0
CFLI (marker),OrganiN,0.02742386728307292,0
CFLI (marker),OrganiTy,0.027221224541288547,0
CFLI (marker),ContID,0.032180645954328735,0
CFLI (marker),ConN,0.028174837443803256,0
CFLI (marker),CouRegID,0.03127407937697605,0
CFLI (marker),CouReNa,0.0316793648605448,0
CFLI (marker),CounRegPerc,0.03372259362427268,0
CFLI (marker),AmSp,0.028090317418795193,0
CIDA business delivery model (old),FiY,0.025539617148573966,0
CIDA business delivery model (old),UrIs,0.02765708725768285,0
CIDA business delivery model (old),SecID,0.027542229023473086,0
CIDA business delivery model (old),ICTAAToFoDeve,0.032231866288335714,0
CIDA business delivery model (old),OrganiSu,0.027292203023465862,0
CIDA business delivery model (old),SecNa,0.02542165463776394,0
CIDA business delivery model (old),FCeID,0.029724535473458668,0
CIDA business delivery model (old),IRTCPerc,0.029154971930513682,0
CIDA business delivery model (old),Dese,0.03213655839186378,0
CIDA business delivery model (old),DivN,0.02995855488904975,0
CIDA business delivery model (old),OrgCl,0.027603961087749516,0
CIDA business delivery model (old),BilaAMar,0.029256898377033186,0
CIDA business delivery model (old),GenEqua,0.025253468600317484,0
CIDA business delivery model (old),TraDevel,0.03330975321272069,0
CIDA business delivery model (old),SecPerc,0.029303247107429077,0
