source,target,conf,realConf
Fiscal year,FisY,0.04624165272316438,1
Fiscal year,SePer,0.038807044772914745,0
Fiscal year,CFLI,0.03320471725022333,0
Fiscal year,Deser,0.044931709106140034,0
Fiscal year,SeNa,0.03977158825093447,0
Fiscal year,KnowFDeve,0.03643974948633828,0
Fiscal year,CIDABuDeliMo,0.03105106657097242,0
Fiscal year,ChIs,0.03320471725022333,0
Fiscal year,UntAmoProBu,0.03108708148218588,0
Fiscal year,ProjNu,0.0325403397231481,0
Fiscal year,ClChAdap,0.036950544049935384,0
Fiscal year,FSTCPer,0.04285083506805844,0
Fiscal year,AmoSp,0.02667567388748367,0
Fiscal year,IRTCPer,0.037459114674533514,0
Fiscal year,PBAT,0.026831459306474657,0
Fiscal year,UrbIss,0.032443533194666876,0
Fiscal year,YouIs,0.03280033822070896,0
Fiscal year,IndigIs,0.03751809356504327,0
Fiscal year,DisIs,0.0388660236634245,0
Fiscal year,ICTAAToFDevelo,0.03449873014466931,0
Fiscal year,GenEqua,0.03751809356504327,0
Fiscal year,OrganID,0.03222317969999958,0
Fiscal year,OrgaNa,0.03824922013982155,0
Fiscal year,OrganiTy,0.03704735057841661,0
Fiscal year,OrganiCl,0.03704735057841661,0
Fiscal year,OrganS,0.0325403397231481,0
Fiscal year,ContID,0.026734652777993424,0
Fiscal year,ContNa,0.0325403397231481,0
Fiscal year,ProjBroCounID,0.030875249601618346,0
Fiscal year,CoRegID,0.03222317969999958,0
Fiscal year,CoRegN,0.0325403397231481,0
Fiscal year,CounRePe,0.03178361952345465,0
Fiscal year,SecID,0.03280033822070896,0
Sector percent,FisY,0.026668981286564527,0
Sector percent,SePer,0.047299295838225015,1
Sector percent,CFLI,0.026681690885727246,0
Sector percent,Deser,0.042005527793640175,0
Sector percent,SeNa,0.03745242207361437,0
Sector percent,KnowFDeve,0.03934051267922054,0
Sector percent,CIDABuDeliMo,0.034134440292983646,0
Sector percent,ChIs,0.026681690885727246,0
Sector percent,UntAmoProBu,0.03851362934435494,0
Sector percent,ProjNu,0.031521529640736956,0
Sector percent,ClChAdap,0.031093098480429456,0
Sector percent,FSTCPer,0.040731937163405195,0
Sector percent,AmoSp,0.03708340456628306,0
Sector percent,IRTCPer,0.036110462540383824,0
Sector percent,PBAT,0.026668981286564527,0
Sector percent,UrbIss,0.031534239239899675,0
Sector percent,YouIs,0.03178963652169822,0
Sector percent,IndigIs,0.03130316550874861,0
Sector percent,DisIs,0.026681690885727246,0
Sector percent,ICTAAToFDevelo,0.037080008787525306,0
Sector percent,GenEqua,0.035924640131769964,0
Sector percent,OrganID,0.03591193053260725,0
Sector percent,OrgaNa,0.031521529640736956,0
Sector percent,OrganiTy,0.03549179647596895,0
Sector percent,OrganiCl,0.03549179647596895,0
Sector percent,OrganS,0.03637407799490939,0
Sector percent,ContID,0.04123933594824454,0
Sector percent,ContNa,0.04122662634908182,0
Sector percent,ProjBroCounID,0.03745242207361437,0
Sector percent,CoRegID,0.03591193053260725,0
Sector percent,CoRegN,0.03637407799490939,0
Sector percent,CounRePe,0.04010173607844773,0
Sector percent,SecID,0.042005527793640175,0
CFLI (marker),FisY,0.03243336677677256,0
CFLI (marker),SePer,0.03746528450127274,0
CFLI (marker),CFLI,0.049642431283384345,1
CFLI (marker),Deser,0.03759035040374042,0
CFLI (marker),SeNa,0.03243336677677256,0
CFLI (marker),KnowFDeve,0.035629724806094984,0
CFLI (marker),CIDABuDeliMo,0.03837060241011294,0
CFLI (marker),ChIs,0.03822467045003747,0
CFLI (marker),UntAmoProBu,0.03476942430451027,0
CFLI (marker),ProjNu,0.03183243199607009,0
CFLI (marker),ClChAdap,0.0360498588627333,0
CFLI (marker),FSTCPer,0.041239488776740184,0
CFLI (marker),AmoSp,0.032073564107747816,0
CFLI (marker),IRTCPer,0.041239488776740184,0
CFLI (marker),PBAT,0.026724486360099112,0
CFLI (marker),UrbIss,0.03191485525266155,0
CFLI (marker),YouIs,0.032198630010215494,0
CFLI (marker),IndigIs,0.031659457970863,0
CFLI (marker),DisIs,0.032198630010215494,0
CFLI (marker),ICTAAToFDevelo,0.03759035040374042,0
CFLI (marker),GenEqua,0.031659457970863,0
CFLI (marker),OrganID,0.031577034714271535,0
CFLI (marker),OrgaNa,0.03183243199607009,0
CFLI (marker),OrganiTy,0.03134596098312047,0
CFLI (marker),OrganiCl,0.03134596098312047,0
CFLI (marker),OrganS,0.03183243199607009,0
CFLI (marker),ContID,0.03702280088863252,0
CFLI (marker),ContNa,0.03694037763204107,0
CFLI (marker),ProjBroCounID,0.03418994536651823,0
CFLI (marker),CoRegID,0.03642958306844397,0
CFLI (marker),CoRegN,0.03694037763204107,0
CFLI (marker),CounRePe,0.035924792960265614,0
CFLI (marker),SecID,0.032198630010215494,0
Desertification (marker),FisY,0.03019059232736513,0
Desertification (marker),SePer,0.036721598929752054,0
Desertification (marker),CFLI,0.026806909616690574,0
Desertification (marker),Deser,0.04353983497590585,1
Desertification (marker),SeNa,0.03365669829463116,0
Desertification (marker),KnowFDeve,0.03562972480609499,0
Desertification (marker),CIDABuDeliMo,0.03750792714714895,0
Desertification (marker),ChIs,0.030273015583956592,0
Desertification (marker),UntAmoProBu,0.03500049803566134,0
Desertification (marker),ProjNu,0.033194550832329014,0
Desertification (marker),ClChAdap,0.029839752338048343,0
Desertification (marker),FSTCPer,0.03294319642928409,0
Desertification (marker),AmoSp,0.030028428786065948,0
Desertification (marker),IRTCPer,0.03294319642928409,0
Desertification (marker),PBAT,0.026724486360099112,0
Desertification (marker),UrbIss,0.030041941852805523,0
Desertification (marker),YouIs,0.03015349468853363,0
Desertification (marker),IndigIs,0.02993758597422117,0
Desertification (marker),DisIs,0.03350007976037668,0
Desertification (marker),ICTAAToFDevelo,0.03702280088863252,0
Desertification (marker),GenEqua,0.036198938689282374,0
Desertification (marker),OrganID,0.03611651543269091,0
Desertification (marker),OrgaNa,0.03642958306844397,0
Desertification (marker),OrganiTy,0.03582301452417242,0
Desertification (marker),OrganiCl,0.03582301452417242,0
Desertification (marker),OrganS,0.03642958306844397,0
Desertification (marker),ContID,0.033276974088920476,0
Desertification (marker),ContNa,0.03642958306844397,0
Desertification (marker),ProjBroCounID,0.03459348369118954,0
Desertification (marker),CoRegID,0.03298583907516031,0
Desertification (marker),CoRegN,0.033194550832329014,0
Desertification (marker),CounRePe,0.0357803718782962,0
Desertification (marker),SecID,0.03350007976037668,0
Sector name,FisY,0.026831459306474657,0
Sector name,SePer,0.044872730215630284,0
Sector name,CFLI,0.026734652777993424,0
Sector name,Deser,0.0388660236634245,0
Sector name,SeNa,0.04624165272316438,1
Sector name,KnowFDeve,0.03643974948633828,0
Sector name,CIDABuDeliMo,0.03527067383547018,0
Sector name,ChIs,0.026734652777993424,0
Sector name,UntAmoProBu,0.0399098966715903,0
Sector name,ProjNu,0.0325403397231481,0
Sector name,ClChAdap,0.0318425984139644,0
Sector name,FSTCPer,0.04285083506805844,0
Sector name,AmoSp,0.032741359330199206,0
Sector name,IRTCPer,0.037459114674533514,0
Sector name,PBAT,0.026831459306474657,0
Sector name,UrbIss,0.032443533194666876,0
Sector name,YouIs,0.032800338220708956,0
Sector name,IndigIs,0.03212637317151835,0
Sector name,DisIs,0.026734652777993424,0
Sector name,ICTAAToFDevelo,0.034498730144669316,0
Sector name,GenEqua,0.04290981395856819,0
Sector name,OrganID,0.03761490009352449,0
Sector name,OrgaNa,0.038249220139821544,0
Sector name,OrganiTy,0.03704735057841661,0
Sector name,OrganiCl,0.03704735057841661,0
Sector name,OrganS,0.038249220139821544,0
Sector name,ContID,0.03815241361134032,0
Sector name,ContNa,0.04395810055649499,0
Sector name,ProjBroCounID,0.03896283019190573,0
Sector name,CoRegID,0.03761490009352449,0
Sector name,CoRegN,0.038249220139821544,0
Sector name,CounRePe,0.04199951079539661,0
Sector name,SecID,0.044931709106140034,0
Knowledge for development (marker),FisY,0.026724486360099112,0
Knowledge for development (marker),SePer,0.034147302720642016,0
Knowledge for development (marker),CFLI,0.026806909616690574,0
Knowledge for development (marker),Deser,0.03427236862310969,0
Knowledge for development (marker),SeNa,0.03183243199607009,0
Knowledge for development (marker),KnowFDeve,0.042605904258182205,1
Knowledge for development (marker),CIDABuDeliMo,0.03305389725684576,0
Knowledge for development (marker),ChIs,0.026806909616690574,0
Knowledge for development (marker),UntAmoProBu,0.03530859634386276,0
Knowledge for development (marker),ProjNu,0.031577034714271535,0
Knowledge for development (marker),ClChAdap,0.03373912155122261,0
Knowledge for development (marker),FSTCPer,0.03141603723048868,0
Knowledge for development (marker),AmoSp,0.031658816385168966,0
Knowledge for development (marker),IRTCPer,0.03141603723048868,0
Knowledge for development (marker),PBAT,0.026724486360099112,0
Knowledge for development (marker),UrbIss,0.02923318379377679,0
Knowledge for development (marker),YouIs,0.029295395952163614,0
Knowledge for development (marker),IndigIs,0.03390819989108925,0
Knowledge for development (marker),DisIs,0.026806909616690574,0
Knowledge for development (marker),ICTAAToFDevelo,0.03893828050212165,0
Knowledge for development (marker),GenEqua,0.03390819989108925,0
Knowledge for development (marker),OrganID,0.031458679876364894,0
Knowledge for development (marker),OrgaNa,0.031577034714271535,0
Knowledge for development (marker),OrganiTy,0.03134596098312047,0
Knowledge for development (marker),OrganiCl,0.03134596098312047,0
Knowledge for development (marker),OrganS,0.031577034714271535,0
Knowledge for development (marker),ContID,0.034085732147949216,0
Knowledge for development (marker),ContNa,0.03642958306844397,0
Knowledge for development (marker),ProjBroCounID,0.03498414313315856,0
Knowledge for development (marker),CoRegID,0.03382577663449779,0
Knowledge for development (marker),CoRegN,0.03400330889135776,0
Knowledge for development (marker),CounRePe,0.033614055648754936,0
Knowledge for development (marker),SecID,0.029295395952163614,0
CIDA business delivery model (old),FisY,0.03193940494244563,0
CIDA business delivery model (old),SePer,0.0341411328939028,0
CIDA business delivery model (old),CFLI,0.0318425984139644,0
CIDA business delivery model (old),Deser,0.03917708445535863,0
CIDA business delivery model (old),SeNa,0.029385432124460147,0
CIDA business delivery model (old),KnowFDeve,0.035762649715988644,0
CIDA business delivery model (old),CIDABuDeliMo,0.045819691996714595,1
CIDA business delivery model (old),ChIs,0.0343965712319499,0
CIDA business delivery model (old),UntAmoProBu,0.03530242651712354,0
CIDA business delivery model (old),ProjNu,0.03168400766064708,0
CIDA business delivery model (old),ClChAdap,0.033666864712525474,0
CIDA business delivery model (old),FSTCPer,0.03377696416188235,0
CIDA business delivery model (old),AmoSp,0.0341411328939028,0
CIDA business delivery model (old),IRTCPer,0.03377696416188235,0
CIDA business delivery model (old),PBAT,0.029385432124460147,0
CIDA business delivery model (old),UrbIss,0.03401347530925207,0
CIDA business delivery model (old),YouIs,0.031711625448939504,0
CIDA business delivery model (old),IndigIs,0.03620303981052499,0
CIDA business delivery model (old),DisIs,0.03668859811988559,0
CIDA business delivery model (old),ICTAAToFDevelo,0.04088791881099634,0
CIDA business delivery model (old),GenEqua,0.029101749536126317,0
CIDA business delivery model (old),OrganID,0.03156565282274044,0
CIDA business delivery model (old),OrgaNa,0.029257733483560873,0
CIDA business delivery model (old),OrganiTy,0.0337636712410067,0
CIDA business delivery model (old),OrganiCl,0.0337636712410067,0
CIDA business delivery model (old),OrganS,0.029257733483560873,0
CIDA business delivery model (old),ContID,0.03401347530925207,0
CIDA business delivery model (old),ContNa,0.03168400766064708,0
CIDA business delivery model (old),ProjBroCounID,0.033026201886269244,0
CIDA business delivery model (old),CoRegID,0.033932749580873334,0
CIDA business delivery model (old),CoRegN,0.034110281837733306,0
CIDA business delivery model (old),CounRePe,0.038229360445037074,0
CIDA business delivery model (old),SecID,0.031711625448939504,0
Children issues (marker),FisY,0.03365669829463116,0
Children issues (marker),SePer,0.036721598929752054,0
Children issues (marker),CFLI,0.030273015583956592,0
Children issues (marker),Deser,0.04019324990406279,0
Children issues (marker),SeNa,0.03365669829463116,0
Children issues (marker),KnowFDeve,0.03562972480609499,0
Children issues (marker),CIDABuDeliMo,0.034812066950386494,0
Children issues (marker),ChIs,0.037205227518488634,1
Children issues (marker),UntAmoProBu,0.03500049803566134,0
Children issues (marker),ProjNu,0.033194550832329014,0
Children issues (marker),ClChAdap,0.03893828050212165,0
Children issues (marker),FSTCPer,0.0360738727868147,0
Children issues (marker),AmoSp,0.030028428786065948,0
Children issues (marker),IRTCPer,0.0360738727868147,0
Children issues (marker),PBAT,0.026724486360099112,0
Children issues (marker),UrbIss,0.03651200632503543,0
Children issues (marker),YouIs,0.03350007976037668,0
Children issues (marker),IndigIs,0.036198938689282374,0
Children issues (marker),DisIs,0.03684666483221974,0
Children issues (marker),ICTAAToFDevelo,0.034468828070647044,0
Children issues (marker),GenEqua,0.03932961504681297,0
Children issues (marker),OrganID,0.03298583907516031,0
Children issues (marker),OrgaNa,0.033194550832329014,0
Children issues (marker),OrganiTy,0.03582301452417242,0
Children issues (marker),OrganiCl,0.03582301452417242,0
Children issues (marker),OrganS,0.033194550832329014,0
Children issues (marker),ContID,0.033276974088920476,0
Children issues (marker),ContNa,0.03642958306844397,0
Children issues (marker),ProjBroCounID,0.03197048458082606,0
Children issues (marker),CoRegID,0.03298583907516031,0
Children issues (marker),CoRegN,0.033194550832329014,0
Children issues (marker),CounRePe,0.03881321459965397,0
Children issues (marker),SecID,0.03015349468853363,0
Untied amount(Project-level budget),FisY,0.029157467622037574,0
Untied amount(Project-level budget),SePer,0.034146335825599755,0
Untied amount(Project-level budget),CFLI,0.026681690885727246,0
Untied amount(Project-level budget),Deser,0.031534239239899675,0
Untied amount(Project-level budget),SeNa,0.03164595395751061,0
Untied amount(Project-level budget),KnowFDeve,0.03771020987248276,0
Untied amount(Project-level budget),CIDABuDeliMo,0.032863723866359114,0
Untied amount(Project-level budget),ChIs,0.026681690885727246,0
Untied amount(Project-level budget),UntAmoProBu,0.045855745984581045,1
Untied amount(Project-level budget),ProjNu,0.03850446507722899,0
Untied amount(Project-level budget),ClChAdap,0.031195689354724856,0
Untied amount(Project-level budget),FSTCPer,0.03148898791736247,0
Untied amount(Project-level budget),AmoSp,0.031720061648513535,0
Untied amount(Project-level budget),IRTCPer,0.03148898791736247,0
Untied amount(Project-level budget),PBAT,0.029157467622037574,0
Untied amount(Project-level budget),UrbIss,0.03378298116012592,0
Untied amount(Project-level budget),YouIs,0.031534239239899675,0
Untied amount(Project-level budget),IndigIs,0.03361390282025929,0
Untied amount(Project-level budget),DisIs,0.029107965062813462,0
Untied amount(Project-level budget),ICTAAToFDevelo,0.03658485079220159,0
Untied amount(Project-level budget),GenEqua,0.03361390282025929,0
Untied amount(Project-level budget),OrganID,0.03129045590958589,0
Untied amount(Project-level budget),OrgaNa,0.03140317480283031,0
Untied amount(Project-level budget),OrganiTy,0.031182979755562144,0
Untied amount(Project-level budget),OrganiCl,0.033439978990060945,0
Untied amount(Project-level budget),OrganS,0.03140317480283031,0
Untied amount(Project-level budget),ContID,0.03378298116012592,0
Untied amount(Project-level budget),ContNa,0.03377027156096321,0
Untied amount(Project-level budget),ProjBroCounID,0.03677845702442376,0
Untied amount(Project-level budget),CoRegID,0.03360119322109657,0
Untied amount(Project-level budget),CoRegN,0.03377027156096321,0
Untied amount(Project-level budget),CounRePe,0.03815250946683513,0
Untied amount(Project-level budget),SecID,0.031534239239899675,0
Project number,FisY,0.026831459306474657,0
Project number,SePer,0.04199951079539661,0
Project number,CFLI,0.026734652777993424,0
Project number,Deser,0.04205848968590636,0
Project number,SeNa,0.03222317969999958,0
Project number,KnowFDeve,0.039393474571486724,0
Project number,CIDABuDeliMo,0.034296918312893776,0
Project number,ChIs,0.026734652777993424,0
Project number,UntAmoProBu,0.042203828620835444,0
Project number,ProjNu,0.0510942010773368,1
Project number,ClChAdap,0.026734652777993424,0
Project number,FSTCPer,0.04054009775654775,0
Project number,AmoSp,0.03178361952345465,0
Project number,IRTCPer,0.04054009775654775,0
Project number,PBAT,0.03222317969999958,0
Project number,UrbIss,0.03643974948633828,0
Project number,YouIs,0.036950544049935384,0
Project number,IndigIs,0.03135612740101479,0
Project number,DisIs,0.026734652777993424,0
Project number,ICTAAToFDevelo,0.03713297067979149,0
Project number,GenEqua,0.0405990766470575,0
Project number,OrganID,0.036074408552517374,0
Project number,OrgaNa,0.03168400766064708,0
Project number,OrganiTy,0.03565427449587907,0
Project number,OrganiCl,0.03565427449587907,0
Project number,OrganS,0.03653655601481951,0
Project number,ContID,0.03643974948633828,0
Project number,ContNa,0.03653655601481951,0
Project number,ProjBroCounID,0.044803860618224396,0
Project number,CoRegID,0.036074408552517374,0
Project number,CoRegN,0.03653655601481951,0
Project number,CounRePe,0.0399098966715903,0
Project number,SecID,0.036950544049935384,0
Climate change adaptation (marker),FisY,0.029278459178084602,0
Climate change adaptation (marker),SePer,0.034147302720642016,0
Climate change adaptation (marker),CFLI,0.029360882434676064,0
Climate change adaptation (marker),Deser,0.03427236862310969,0
Climate change adaptation (marker),SeNa,0.03183243199607009,0
Climate change adaptation (marker),KnowFDeve,0.033577907320186985,0
Climate change adaptation (marker),CIDABuDeliMo,0.03516370088909464,0
Climate change adaptation (marker),ChIs,0.03191485525266155,0
Climate change adaptation (marker),UntAmoProBu,0.03530859634386276,0
Climate change adaptation (marker),ProjNu,0.02915076053718533,0
Climate change adaptation (marker),ClChAdap,0.040671333485754656,1
Climate change adaptation (marker),FSTCPer,0.03378313398862157,0
Climate change adaptation (marker),AmoSp,0.031658816385168966,0
Climate change adaptation (marker),IRTCPer,0.03378313398862157,0
Climate change adaptation (marker),PBAT,0.026724486360099112,0
Climate change adaptation (marker),UrbIss,0.02923318379377679,0
Climate change adaptation (marker),YouIs,0.029295395952163614,0
Climate change adaptation (marker),IndigIs,0.03390819989108925,0
Climate change adaptation (marker),DisIs,0.029295395952163614,0
Climate change adaptation (marker),ICTAAToFDevelo,0.034894490206977956,0
Climate change adaptation (marker),GenEqua,0.03390819989108925,0
Climate change adaptation (marker),OrganID,0.03382577663449779,0
Climate change adaptation (marker),OrgaNa,0.03400330889135776,0
Climate change adaptation (marker),OrganiTy,0.03365669829463116,0
Climate change adaptation (marker),OrganiCl,0.03365669829463116,0
Climate change adaptation (marker),OrganS,0.03400330889135776,0
Climate change adaptation (marker),ContID,0.034085732147949216,0
Climate change adaptation (marker),ContNa,0.03642958306844397,0
Climate change adaptation (marker),ProjBroCounID,0.0329192289398937,0
Climate change adaptation (marker),CoRegID,0.03382577663449779,0
Climate change adaptation (marker),CoRegN,0.03400330889135776,0
Climate change adaptation (marker),CounRePe,0.035924792960265614,0
Climate change adaptation (marker),SecID,0.03178388228763665,0
FSTC percent,FisY,0.03273466672928007,0
FSTC percent,SePer,0.043994154544361445,0
FSTC percent,CFLI,0.03274737632844279,0
FSTC percent,Deser,0.03809945171907414,0
FSTC percent,SeNa,0.0388003521719956,0
FSTC percent,KnowFDeve,0.04054611475479133,0
FSTC percent,CIDABuDeliMo,0.03475656187685191,0
FSTC percent,ChIs,0.03274737632844279,0
FSTC percent,UntAmoProBu,0.03530672782333664,0
FSTC percent,ProjNu,0.032060701680089454,0
FSTC percent,ClChAdap,0.0363867875940721,0
FSTC percent,FSTCPer,0.05751518711016697,1
FSTC percent,AmoSp,0.038285274127688,0
FSTC percent,IRTCPer,0.047299295838225015,0
FSTC percent,PBAT,0.03273466672928007,0
FSTC percent,UrbIss,0.032073411279252166,0
FSTC percent,YouIs,0.026681690885727246,0
FSTC percent,IndigIs,0.03178963652169822,0
FSTC percent,DisIs,0.026681690885727246,0
FSTC percent,ICTAAToFDevelo,0.03787987939535593,0
FSTC percent,GenEqua,0.0368975821576692,0
FSTC percent,OrganID,0.03688487255850648,0
FSTC percent,OrgaNa,0.032060701680089454,0
FSTC percent,OrganiTy,0.03637407799490939,0
FSTC percent,OrganiCl,0.03637407799490939,0
FSTC percent,OrganS,0.03745242207361437,0
FSTC percent,ContID,0.042856852066302006,0
FSTC percent,ContNa,0.042844142467139294,0
FSTC percent,ProjBroCounID,0.034433058653240416,0
FSTC percent,CoRegID,0.03688487255850648,0
FSTC percent,CoRegN,0.03745242207361437,0
FSTC percent,CounRePe,0.041425158356858394,0
FSTC percent,SecID,0.04380833213574758,0
Amount spent,FisY,0.03273466672928007,0
Amount spent,SePer,0.032576393711014555,0
Amount spent,CFLI,0.026681690885727246,0
Amount spent,Deser,0.03809945171907414,0
Amount spent,SeNa,0.03273466672928007,0
Amount spent,KnowFDeve,0.03592464013176997,0
Amount spent,CIDABuDeliMo,0.0388003521719956,0
Amount spent,ChIs,0.03274737632844279,0
Amount spent,UntAmoProBu,0.04374594235233216,0
Amount spent,ProjNu,0.03745242207361437,0
Amount spent,ClChAdap,0.0363867875940721,0
Amount spent,FSTCPer,0.03197545893031209,0
Amount spent,AmoSp,0.0497030349610349,1
Amount spent,IRTCPer,0.03197545893031209,0
Amount spent,PBAT,0.03273466672928007,0
Amount spent,UrbIss,0.032073411279252166,0
Amount spent,YouIs,0.04380833213574758,0
Amount spent,IndigIs,0.0368975821576692,0
Amount spent,DisIs,0.0323905713024007,0
Amount spent,ICTAAToFDevelo,0.03787987939535593,0
Amount spent,GenEqua,0.0368975821576692,0
Amount spent,OrganID,0.03177692692253551,0
Amount spent,OrgaNa,0.026668981286564527,0
Amount spent,OrganiTy,0.031521529640736956,0
Amount spent,OrganiCl,0.031521529640736956,0
Amount spent,OrganS,0.032060701680089454,0
Amount spent,ContID,0.042856852066302006,0
Amount spent,ContNa,0.042844142467139294,0
Amount spent,ProjBroCounID,0.03831509733657836,0
Amount spent,CoRegID,0.03688487255850648,0
Amount spent,CoRegN,0.03745242207361437,0
Amount spent,CounRePe,0.046277706711030826,0
Amount spent,SecID,0.0323905713024007,0
IRTC percent,FisY,0.026668981286564527,0
IRTC percent,SePer,0.038285274127688,0
IRTC percent,CFLI,0.03274737632844279,0
IRTC percent,Deser,0.03809945171907414,0
IRTC percent,SeNa,0.03273466672928007,0
IRTC percent,KnowFDeve,0.03592464013176997,0
IRTC percent,CIDABuDeliMo,0.03475656187685191,0
IRTC percent,ChIs,0.03274737632844279,0
IRTC percent,UntAmoProBu,0.03530672782333664,0
IRTC percent,ProjNu,0.032060701680089454,0
IRTC percent,ClChAdap,0.0363867875940721,0
IRTC percent,FSTCPer,0.047299295838225015,0
IRTC percent,AmoSp,0.032576393711014555,0
IRTC percent,IRTCPer,0.05751518711016697,1
IRTC percent,PBAT,0.03273466672928007,0
IRTC percent,UrbIss,0.032073411279252166,0
IRTC percent,YouIs,0.0323905713024007,0
IRTC percent,IndigIs,0.0368975821576692,0
IRTC percent,DisIs,0.0323905713024007,0
IRTC percent,ICTAAToFDevelo,0.04161260889856549,0
IRTC percent,GenEqua,0.0368975821576692,0
IRTC percent,OrganID,0.03688487255850648,0
IRTC percent,OrgaNa,0.032060701680089454,0
IRTC percent,OrganiTy,0.03637407799490939,0
IRTC percent,OrganiCl,0.03637407799490939,0
IRTC percent,OrganS,0.03745242207361437,0
IRTC percent,ContID,0.042856852066302006,0
IRTC percent,ContNa,0.042844142467139294,0
IRTC percent,ProjBroCounID,0.034433058653240416,0
IRTC percent,CoRegID,0.03688487255850648,0
IRTC percent,CoRegN,0.03745242207361437,0
IRTC percent,CounRePe,0.041425158356858394,0
IRTC percent,SecID,0.03809945171907414,0
PBA type,FisY,0.026831459306474657,0
PBA type,SePer,0.04160659190032191,0
PBA type,CFLI,0.026734652777993424,0
PBA type,Deser,0.03420011178441255,0
PBA type,SeNa,0.03491903989676204,0
PBA type,KnowFDeve,0.032443533194666876,0
PBA type,CIDABuDeliMo,0.03653655601481951,0
PBA type,ChIs,0.026734652777993424,0
PBA type,UntAmoProBu,0.03689156515942563,0
PBA type,ProjNu,0.0337636712410067,0
PBA type,ClChAdap,0.0388660236634245,0
PBA type,FSTCPer,0.039615802831943485,0
PBA type,AmoSp,0.04160659190032191,0
PBA type,IRTCPer,0.039615802831943485,0
PBA type,PBAT,0.0510942010773368,1
PBA type,UrbIss,0.026734652777993424,0
PBA type,YouIs,0.026734652777993424,0
PBA type,IndigIs,0.026734652777993424,0
PBA type,DisIs,0.026734652777993424,0
PBA type,ICTAAToFDevelo,0.03555746796739784,0
PBA type,GenEqua,0.03320471725022333,0
PBA type,OrganID,0.026831459306474657,0
PBA type,OrgaNa,0.026831459306474657,0
PBA type,OrganiTy,0.03289714474919019,0
PBA type,OrganiCl,0.026831459306474657,0
PBA type,OrganS,0.026831459306474657,0
PBA type,ContID,0.033666864712525474,0
PBA type,ContNa,0.0337636712410067,0
PBA type,ProjBroCounID,0.036074408552517374,0
PBA type,CoRegID,0.033301523778704566,0
PBA type,CoRegN,0.0337636712410067,0
PBA type,CounRePe,0.038807044772914745,0
PBA type,SecID,0.03420011178441255,0
Status,FisY,0.03653655601481951,0
Status,SePer,0.03549848907688809,0
Status,CFLI,0.026734652777993424,0
Status,Deser,0.03555746796739784,0
Status,SeNa,0.04624165272316438,0
Status,KnowFDeve,0.026734652777993424,0
Status,CIDABuDeliMo,0.03222317969999958,0
Status,ChIs,0.03643974948633828,0
Status,UntAmoProBu,0.03809343472083057,0
Status,ProjNu,0.03491903989676204,0
Status,ClChAdap,0.033666864712525474,0
Status,FSTCPer,0.0341411328939028,0
Status,AmoSp,0.03549848907688809,0
Status,IRTCPer,0.02667567388748367,0
Status,PBAT,0.026831459306474657,0
Status,UrbIss,0.0348222333682808,0
Status,YouIs,0.04438028315680226,0
Status,IndigIs,0.03420011178441255,0
Status,DisIs,0.03555746796739784,0
Status,ICTAAToFDevelo,0.026734652777993424,0
Status,GenEqua,0.03420011178441255,0
Status,OrganID,0.034296918312893776,0
Status,OrgaNa,0.03491903989676204,0
Status,OrganiTy,0.0337636712410067,0
Status,OrganiCl,0.0337636712410067,0
Status,OrganS,0.03491903989676204,0
Status,ContID,0.0348222333682808,0
Status,ContNa,0.04300662048704942,0
Status,ProjBroCounID,0.03193940494244563,0
Status,CoRegID,0.026831459306474657,0
Status,CoRegN,0.026831459306474657,0
Status,CounRePe,0.033607885822015716,0
Status,SecID,0.03555746796739784,0
Maximum CIDA contribution (project-level),FisY,0.028825669443974494,0
Maximum CIDA contribution (project-level),SePer,0.03108712055883888,0
Maximum CIDA contribution (project-level),CFLI,0.030995067200547184,0
Maximum CIDA contribution (project-level),Deser,0.03301110178247389,0
Maximum CIDA contribution (project-level),SeNa,0.028825669443974494,0
Maximum CIDA contribution (project-level),KnowFDeve,0.0363867875940721,0
Maximum CIDA contribution (project-level),CIDABuDeliMo,0.03948703354286906,0
Maximum CIDA contribution (project-level),ChIs,0.030995067200547184,0
Maximum CIDA contribution (project-level),UntAmoProBu,0.03619933705236501,0
Maximum CIDA contribution (project-level),ProjNu,0.032863723866359114,0
Maximum CIDA contribution (project-level),ClChAdap,0.032623586829611854,0
Maximum CIDA contribution (project-level),FSTCPer,0.0309113035894848,0
Maximum CIDA contribution (project-level),AmoSp,0.03319692419108776,0
Maximum CIDA contribution (project-level),IRTCPer,0.0309113035894848,0
Maximum CIDA contribution (project-level),PBAT,0.028825669443974494,0
Maximum CIDA contribution (project-level),UrbIss,0.030811519272256976,0
Maximum CIDA contribution (project-level),YouIs,0.030901298150225014,0
Maximum CIDA contribution (project-level),IndigIs,0.03274737632844279,0
Maximum CIDA contribution (project-level),DisIs,0.030901298150225014,0
Maximum CIDA contribution (project-level),ICTAAToFDevelo,0.03903363215089343,0
Maximum CIDA contribution (project-level),GenEqua,0.030725481180870942,0
Maximum CIDA contribution (project-level),OrganID,0.03273466672928007,0
Maximum CIDA contribution (project-level),OrgaNa,0.02873389547982939,0
Maximum CIDA contribution (project-level),OrganiTy,0.032610877230449135,0
Maximum CIDA contribution (project-level),OrganiCl,0.03459150921174401,0
Maximum CIDA contribution (project-level),OrganS,0.030798809673094257,0
Maximum CIDA contribution (project-level),ContID,0.0349413476587867,0
Maximum CIDA contribution (project-level),ContNa,0.034928638059623984,0
Maximum CIDA contribution (project-level),ProjBroCounID,0.033857941811264426,0
Maximum CIDA contribution (project-level),CoRegID,0.03273466672928007,0
Maximum CIDA contribution (project-level),CoRegN,0.032863723866359114,0
Maximum CIDA contribution (project-level),CounRePe,0.03875130518211033,0
Maximum CIDA contribution (project-level),SecID,0.030901298150225014,0
Branch ID,FisY,0.026831459306474657,0
Branch ID,SePer,0.033607885822015716,0
Branch ID,CFLI,0.03420011178441255,0
Branch ID,Deser,0.033666864712525474,0
Branch ID,SeNa,0.034296918312893776,0
Branch ID,KnowFDeve,0.037518093565043265,0
Branch ID,CIDABuDeliMo,0.036074408552517374,0
Branch ID,ChIs,0.04166557079083167,0
Branch ID,UntAmoProBu,0.0315282222416561,0
Branch ID,ProjNu,0.033301523778704566,0
Branch ID,ClChAdap,0.032443533194666876,0
Branch ID,FSTCPer,0.032741359330199206,0
Branch ID,AmoSp,0.02667567388748367,0
Branch ID,IRTCPer,0.032741359330199206,0
Branch ID,PBAT,0.034296918312893776,0
Branch ID,UrbIss,0.03967478172245324,0
Branch ID,YouIs,0.033666864712525474,0
Branch ID,IndigIs,0.0388660236634245,0
Branch ID,DisIs,0.033666864712525474,0
Branch ID,ICTAAToFDevelo,0.03517386730698895,0
Branch ID,GenEqua,0.032800338220708956,0
Branch ID,OrganID,0.057159886520052335,0
Branch ID,OrgaNa,0.03977158825093447,0
Branch ID,OrganiTy,0.04395810055649499,0
Branch ID,OrganiCl,0.04395810055649499,0
Branch ID,OrganS,0.04624165272316438,0
Branch ID,ContID,0.04614484619468315,0
Branch ID,ContNa,0.033301523778704566,0
Branch ID,ProjBroCounID,0.0488884972799857,0
Branch ID,CoRegID,0.03896283019190573,0
Branch ID,CoRegN,0.026831459306474657,0
Branch ID,CounRePe,0.032384554304157126,0
Branch ID,SecID,0.04753128858158955,0
Branch name,FisY,0.026831459306474657,0
Branch name,SePer,0.032741359330199206,0
Branch name,CFLI,0.026734652777993424,0
Branch name,Deser,0.032800338220708956,0
Branch name,SeNa,0.033301523778704566,0
Branch name,KnowFDeve,0.03643974948633828,0
Branch name,CIDABuDeliMo,0.03527067383547018,0
Branch name,ChIs,0.03320471725022333,0
Branch name,UntAmoProBu,0.03549848907688809,0
Branch name,ProjNu,0.0325403397231481,0
Branch name,ClChAdap,0.036950544049935384,0
Branch name,FSTCPer,0.03206739428100859,0
Branch name,AmoSp,0.032741359330199206,0
Branch name,IRTCPer,0.03206739428100859,0
Branch name,PBAT,0.033301523778704566,0
Branch name,UrbIss,0.032443533194666876,0
Branch name,YouIs,0.026734652777993424,0
Branch name,IndigIs,0.03212637317151835,0
Branch name,DisIs,0.026734652777993424,0
Branch name,ICTAAToFDevelo,0.030616691461331367,0
Branch name,GenEqua,0.037518093565043265,0
Branch name,OrganID,0.04300662048704942,0
Branch name,OrgaNa,0.04395810055649499,0
Branch name,OrganiTy,0.04215529621438759,0
Branch name,OrganiCl,0.04215529621438759,0
Branch name,OrganS,0.04395810055649499,0
Branch name,ContID,0.032443533194666876,0
Branch name,ContNa,0.038249220139821544,0
Branch name,ProjBroCounID,0.03896283019190573,0
Branch name,CoRegID,0.03222317969999958,0
Branch name,CoRegN,0.0325403397231481,0
Branch name,CounRePe,0.03689156515942563,0
Branch name,SecID,0.032800338220708956,0
Division ID,FisY,0.03977158825093447,0
Division ID,SePer,0.02667567388748367,0
Division ID,CFLI,0.03320471725022333,0
Division ID,Deser,0.0388660236634245,0
Division ID,SeNa,0.026831459306474657,0
Division ID,KnowFDeve,0.03643974948633828,0
Division ID,CIDABuDeliMo,0.039490281099967946,0
Division ID,ChIs,0.03320471725022333,0
Division ID,UntAmoProBu,0.03108708148218588,0
Division ID,ProjNu,0.0325403397231481,0
Division ID,ClChAdap,0.026734652777993424,0
Division ID,FSTCPer,0.02667567388748367,0
Division ID,AmoSp,0.032741359330199206,0
Division ID,IRTCPer,0.03206739428100859,0
Division ID,PBAT,0.026831459306474657,0
Division ID,UrbIss,0.032443533194666876,0
Division ID,YouIs,0.0388660236634245,0
Division ID,IndigIs,0.037518093565043265,0
Division ID,DisIs,0.050997394548855574,0
Division ID,ICTAAToFDevelo,0.038380768828007256,0
Division ID,GenEqua,0.03212637317151835,0
Division ID,OrganID,0.04300662048704942,0
Division ID,OrgaNa,0.026831459306474657,0
Division ID,OrganiTy,0.03193940494244563,0
Division ID,OrganiCl,0.03193940494244563,0
Division ID,OrganS,0.0325403397231481,0
Division ID,ContID,0.049570174444687205,0
Division ID,ContNa,0.038249220139821544,0
Division ID,ProjBroCounID,0.04300662048704942,0
Division ID,CoRegID,0.04300662048704942,0
Division ID,CoRegN,0.0325403397231481,0
Division ID,CounRePe,0.03689156515942563,0
Division ID,SecID,0.0388660236634245,0
Division name,FisY,0.038249220139821544,0
Division name,SePer,0.03206739428100859,0
Division name,CFLI,0.026734652777993424,0
Division name,Deser,0.04290981395856819,0
Division name,SeNa,0.0325403397231481,0
Division name,KnowFDeve,0.03996887556210005,0
Division name,CIDABuDeliMo,0.038477575356488485,0
Division name,ChIs,0.032443533194666876,0
Division name,UntAmoProBu,0.03476325447777105,0
Division name,ProjNu,0.03193940494244563,0
Division name,ClChAdap,0.03135612740101479,0
Division name,FSTCPer,0.0315282222416561,0
Division name,AmoSp,0.03206739428100859,0
Division name,IRTCPer,0.0315282222416561,0
Division name,PBAT,0.026831459306474657,0
Division name,UrbIss,0.0318425984139644,0
Division name,YouIs,0.03212637317151835,0
Division name,IndigIs,0.03643974948633828,0
Division name,DisIs,0.04290981395856819,0
Division name,ICTAAToFDevelo,0.037518093565043265,0
Division name,GenEqua,0.03643974948633828,0
Division name,OrganID,0.03168400766064708,0
Division name,OrgaNa,0.03193940494244563,0
Division name,OrganiTy,0.03145293392949602,0
Division name,OrganiCl,0.03145293392949602,0
Division name,OrganS,0.03193940494244563,0
Division name,ContID,0.036950544049935384,0
Division name,ContNa,0.04215529621438759,0
Division name,ProjBroCounID,0.034296918312893776,0
Division name,CoRegID,0.03653655601481951,0
Division name,CoRegN,0.03704735057841661,0
Division name,CounRePe,0.04054009775654775,0
Division name,SecID,0.03212637317151835,0
Section ID,FisY,0.0337636712410067,0
Section ID,SePer,0.039615802831943485,0
Section ID,CFLI,0.033666864712525474,0
Section ID,Deser,0.03320471725022333,0
Section ID,SeNa,0.04069588317553874,0
Section ID,KnowFDeve,0.036950544049935384,0
Section ID,CIDABuDeliMo,0.040065682090581284,0
Section ID,ChIs,0.033666864712525474,0
Section ID,UntAmoProBu,0.03591862313352639,0
Section ID,ProjNu,0.03289714474919019,0
Section ID,ClChAdap,0.026734652777993424,0
Section ID,FSTCPer,0.03809343472083057,0
Section ID,AmoSp,0.03314573835971358,0
Section ID,IRTCPer,0.032384554304157126,0
Section ID,PBAT,0.026831459306474657,0
Section ID,UrbIss,0.032800338220708956,0
Section ID,YouIs,0.03967478172245324,0
Section ID,IndigIs,0.03815241361134032,0
Section ID,DisIs,0.03967478172245324,0
Section ID,ICTAAToFDevelo,0.0348222333682808,0
Section ID,GenEqua,0.03815241361134032,0
Section ID,OrganID,0.04395810055649499,0
Section ID,OrgaNa,0.026831459306474657,0
Section ID,OrganiTy,0.03222317969999958,0
Section ID,OrganiCl,0.03222317969999958,0
Section ID,OrganS,0.03289714474919019,0
Section ID,ContID,0.050997394548855574,0
Section ID,ContNa,0.03896283019190573,0
Section ID,ProjBroCounID,0.04370988836446572,0
Section ID,CoRegID,0.04395810055649499,0
Section ID,CoRegN,0.03289714474919019,0
Section ID,CounRePe,0.037459114674533514,0
Section ID,SecID,0.059084975139142966,0
Section name,FisY,0.03289714474919019,0
Section name,SePer,0.04380231513750401,0
Section name,CFLI,0.026734652777993424,0
Section name,Deser,0.03815241361134032,0
Section name,SeNa,0.04502851563462126,0
Section name,KnowFDeve,0.035977602024036145,0
Section name,CIDABuDeliMo,0.03896283019190573,0
Section name,ChIs,0.026734652777993424,0
Section name,UntAmoProBu,0.035114888416479195,0
Section name,ProjNu,0.03222317969999958,0
Section name,ClChAdap,0.03158720113216585,0
Section name,FSTCPer,0.03689156515942563,0
Section name,AmoSp,0.032384554304157126,0
Section name,IRTCPer,0.03178361952345465,0
Section name,PBAT,0.026831459306474657,0
Section name,UrbIss,0.026734652777993424,0
Section name,YouIs,0.032443533194666876,0
Section name,IndigIs,0.0318425984139644,0
Section name,DisIs,0.032443533194666876,0
Section name,ICTAAToFDevelo,0.03420011178441255,0
Section name,GenEqua,0.04205848968590636,0
Section name,OrganID,0.03193940494244563,0
Section name,OrgaNa,0.03222317969999958,0
Section name,OrganiTy,0.03168400766064708,0
Section name,OrganiCl,0.03168400766064708,0
Section name,OrganS,0.03222317969999958,0
Section name,ContID,0.037518093565043265,0
Section name,ContNa,0.04300662048704942,0
Section name,ProjBroCounID,0.034595536673150545,0
Section name,CoRegID,0.03704735057841661,0
Section name,CoRegN,0.03761490009352449,0
Section name,CounRePe,0.041233318950000965,0
Section name,SecID,0.04386129402801377,0
Regional program (marker),FisY,0.030071071431942167,0
Regional program (marker),SePer,0.03638694042256775,0
Regional program (marker),CFLI,0.026806909616690574,0
Regional program (marker),Deser,0.03651200632503543,0
Regional program (marker),SeNa,0.033417656503785226,0
Regional program (marker),KnowFDeve,0.035370230241700745,0
Regional program (marker),CIDABuDeliMo,0.03459348369118954,0
Regional program (marker),ChIs,0.026806909616690574,0
Regional program (marker),UntAmoProBu,0.03476942430451027,0
Regional program (marker),ProjNu,0.03298583907516031,0
Regional program (marker),ClChAdap,0.03268878640962685,0
Regional program (marker),FSTCPer,0.03274752915693843,0
Regional program (marker),AmoSp,0.0331519081864528,0
Regional program (marker),IRTCPer,0.0357803718782962,0
Regional program (marker),PBAT,0.026724486360099112,0
Regional program (marker),UrbIss,0.02993758597422117,0
Regional program (marker),YouIs,0.030041941852805523,0
Regional program (marker),IndigIs,0.03287259505940611,0
Regional program (marker),DisIs,0.030041941852805523,0
Regional program (marker),ICTAAToFDevelo,0.03427236862310969,0
Regional program (marker),GenEqua,0.03590543778076388,0
Regional program (marker),OrganID,0.03582301452417242,0
Regional program (marker),OrgaNa,0.03924719179022151,0
Regional program (marker),OrganiTy,0.03554730154950353,0
Regional program (marker),OrganiCl,0.03554730154950353,0
Regional program (marker),OrganS,0.03611651543269091,0
Regional program (marker),ContID,0.03306826233175177,0
Regional program (marker),ContNa,0.03611651543269091,0
Regional program (marker),ProjBroCounID,0.03438640481405558,0
Regional program (marker),CoRegID,0.03582301452417242,0
Regional program (marker),CoRegN,0.03611651543269091,0
Regional program (marker),CounRePe,0.035504658903627306,0
Regional program (marker),SecID,0.030041941852805523,0
Fund centre ID,FisY,0.03211620675362404,0
Fund centre ID,SePer,0.036897734986164846,0
Fund centre ID,CFLI,0.03759035040374041,0
Fund centre ID,Deser,0.03702280088863252,0
Fund centre ID,SeNa,0.03211620675362404,0
Fund centre ID,KnowFDeve,0.03946573141018386,0
Fund centre ID,CIDABuDeliMo,0.03418994536651823,0
Fund centre ID,ChIs,0.032198630010215494,0
Fund centre ID,UntAmoProBu,0.038327959764236724,0
Fund centre ID,ProjNu,0.031577034714271535,0
Fund centre ID,ClChAdap,0.031218317211392784,0
Fund centre ID,FSTCPer,0.04054626758328697,0
Fund centre ID,AmoSp,0.026681843714222893,0
Fund centre ID,IRTCPer,0.035924792960265614,0
Fund centre ID,PBAT,0.026724486360099112,0
Fund centre ID,UrbIss,0.03651200632503543,0
Fund centre ID,YouIs,0.03702280088863252,0
Fund centre ID,IndigIs,0.040671333485754656,0
Fund centre ID,DisIs,0.03191485525266155,0
Fund centre ID,ICTAAToFDevelo,0.037205227518488634,0
Fund centre ID,GenEqua,0.03604985886273329,0
Fund centre ID,OrganID,0.040588910229163194,0
Fund centre ID,OrgaNa,0.031577034714271535,0
Fund centre ID,OrganiTy,0.03113589395480132,0
Fund centre ID,OrganiCl,0.03113589395480132,0
Fund centre ID,OrganS,0.031577034714271535,0
Fund centre ID,ContID,0.046217103033380294,0
Fund centre ID,ContNa,0.03642958306844397,0
Fund centre ID,ProjBroCounID,0.04110240740949891,0
Fund centre ID,CoRegID,0.040588910229163194,0
Fund centre ID,CoRegN,0.031577034714271535,0
Fund centre ID,CounRePe,0.04432747409303173,0
Fund centre ID,SecID,0.04213074652460351,0
Fund centre name,FisY,0.03168400766064708,0
Fund centre name,SePer,0.03591862313352639,0
Fund centre name,CFLI,0.03158720113216585,0
Fund centre name,Deser,0.035977602024036145,0
Fund centre name,SeNa,0.03653655601481951,0
Fund centre name,KnowFDeve,0.038380768828007256,0
Fund centre name,CIDABuDeliMo,0.0337636712410067,0
Fund centre name,ChIs,0.026734652777993424,0
Fund centre name,UntAmoProBu,0.037459114674533514,0
Fund centre name,ProjNu,0.031242866901176867,0
Fund centre name,ClChAdap,0.0348222333682808,0
Fund centre name,FSTCPer,0.039334495680976966,0
Fund centre name,AmoSp,0.03129714851050503,0
Fund centre name,IRTCPer,0.035114888416479195,0
Fund centre name,PBAT,0.026831459306474657,0
Fund centre name,UrbIss,0.031146060372695634,0
Fund centre name,YouIs,0.03135612740101479,0
Fund centre name,IndigIs,0.03517386730698895,0
Fund centre name,DisIs,0.026734652777993424,0
Fund centre name,ICTAAToFDevelo,0.03643974948633828,0
Fund centre name,GenEqua,0.039393474571486724,0
Fund centre name,OrganID,0.03527067383547018,0
Fund centre name,OrgaNa,0.03565427449587907,0
Fund centre name,OrganiTy,0.03491903989676204,0
Fund centre name,OrganiCl,0.03491903989676204,0
Fund centre name,OrganS,0.03565427449587907,0
Fund centre name,ContID,0.03555746796739784,0
Fund centre name,ContNa,0.040065682090581284,0
Fund centre name,ProjBroCounID,0.03352462945016076,0
Fund centre name,CoRegID,0.03105106657097242,0
Fund centre name,CoRegN,0.031242866901176867,0
Fund centre name,CounRePe,0.04285083506805844,0
Fund centre name,SecID,0.03135612740101479,0
Programming process (new),FisY,0.03352462945016076,0
Programming process (new),SePer,0.03314573835971358,0
Programming process (new),CFLI,0.026734652777993424,0
Programming process (new),Deser,0.03643974948633828,0
Programming process (new),SeNa,0.03017804437831771,0
Programming process (new),KnowFDeve,0.03815241361134032,0
Programming process (new),CIDABuDeliMo,0.032077457527201605,0
Programming process (new),ChIs,0.030081237849836483,0
Programming process (new),UntAmoProBu,0.03476325447777105,0
Programming process (new),ProjNu,0.03622348837906646,0
Programming process (new),ClChAdap,0.032616529570929705,0
Programming process (new),FSTCPer,0.032741359330199206,0
Programming process (new),AmoSp,0.03314573835971358,0
Programming process (new),IRTCPer,0.032741359330199206,0
Programming process (new),PBAT,0.03017804437831771,0
Programming process (new),UrbIss,0.03612668185058523,0
Programming process (new),YouIs,0.03320471725022333,0
Programming process (new),IndigIs,0.03583318094206673,0
Programming process (new),DisIs,0.03643974948633828,0
Programming process (new),ICTAAToFDevelo,0.03420011178441255,0
Programming process (new),GenEqua,0.032800338220708956,0
Programming process (new),OrganID,0.03896283019190573,0
Programming process (new),OrgaNa,0.03622348837906646,0
Programming process (new),OrganiTy,0.03859521289234721,0
Programming process (new),OrganiCl,0.03859521289234721,0
Programming process (new),OrganS,0.03935416473659705,0
Programming process (new),ContID,0.03299600549305462,0
Programming process (new),ContNa,0.033092812021535856,0
Programming process (new),ProjBroCounID,0.04215529621438759,0
Programming process (new),CoRegID,0.03289714474919019,0
Programming process (new),CoRegN,0.033092812021535856,0
Programming process (new),CounRePe,0.03843942747335622,0
Programming process (new),SecID,0.02996968501410838,0
Bilateral aid (international marker),FisY,0.02915076053718533,0
Bilateral aid (international marker),SePer,0.03378313398862157,0
Bilateral aid (international marker),CFLI,0.026806909616690574,0
Bilateral aid (international marker),Deser,0.03390819989108925,0
Bilateral aid (international marker),SeNa,0.031577034714271535,0
Bilateral aid (international marker),KnowFDeve,0.033276974088920476,0
Bilateral aid (international marker),CIDABuDeliMo,0.03683396209795835,0
Bilateral aid (international marker),ChIs,0.026806909616690574,0
Bilateral aid (international marker),UntAmoProBu,0.03494150048728235,0
Bilateral aid (international marker),ProjNu,0.03134596098312047,0
Bilateral aid (international marker),ClChAdap,0.033424021008743886,0
Bilateral aid (international marker),FSTCPer,0.031195842183220503,0
Bilateral aid (international marker),AmoSp,0.02904894047235579,0
Bilateral aid (international marker),IRTCPer,0.031195842183220503,0
Bilateral aid (international marker),PBAT,0.02915076053718533,0
Bilateral aid (international marker),UrbIss,0.029117646928201252,0
Bilateral aid (international marker),YouIs,0.029174006374823466,0
Bilateral aid (international marker),IndigIs,0.03132090808568818,0
Bilateral aid (international marker),DisIs,0.029174006374823466,0
Bilateral aid (international marker),ICTAAToFDevelo,0.03262996764169749,0
Bilateral aid (international marker),GenEqua,0.033577907320186985,0
Bilateral aid (international marker),OrganID,0.03349548406359553,0
Bilateral aid (international marker),OrgaNa,0.03365669829463116,0
Bilateral aid (international marker),OrganiTy,0.03554730154950353,0
Bilateral aid (international marker),OrganiCl,0.037753005346854634,0
Bilateral aid (international marker),OrganS,0.03365669829463116,0
Bilateral aid (international marker),ContID,0.031428384239711935,0
Bilateral aid (international marker),ContNa,0.03365669829463116,0
Bilateral aid (international marker),ProjBroCounID,0.03464701428527858,0
Bilateral aid (international marker),CoRegID,0.03123848482909673,0
Bilateral aid (international marker),CoRegN,0.03134596098312047,0
Bilateral aid (international marker),CounRePe,0.0332989551062762,0
Bilateral aid (international marker),SecID,0.029174006374823466,0
Enviromental sustainability (marker),FisY,0.031577034714271535,0
Enviromental sustainability (marker),SePer,0.03378313398862157,0
Enviromental sustainability (marker),CFLI,0.026806909616690574,0
Enviromental sustainability (marker),Deser,0.03627529664922214,0
Enviromental sustainability (marker),SeNa,0.031577034714271535,0
Enviromental sustainability (marker),KnowFDeve,0.035433662246330454,0
Enviromental sustainability (marker),CIDABuDeliMo,0.03279017180281465,0
Enviromental sustainability (marker),ChIs,0.02923318379377679,0
Enviromental sustainability (marker),UntAmoProBu,0.03494150048728235,0
Enviromental sustainability (marker),ProjNu,0.03365669829463116,0
Enviromental sustainability (marker),ClChAdap,0.031218317211392784,0
Enviromental sustainability (marker),FSTCPer,0.031195842183220503,0
Enviromental sustainability (marker),AmoSp,0.02904894047235579,0
Enviromental sustainability (marker),IRTCPer,0.031195842183220503,0
Enviromental sustainability (marker),PBAT,0.026724486360099112,0
Enviromental sustainability (marker),UrbIss,0.03373912155122261,0
Enviromental sustainability (marker),YouIs,0.03390819989108925,0
Enviromental sustainability (marker),IndigIs,0.033577907320186985,0
Enviromental sustainability (marker),DisIs,0.03390819989108925,0
Enviromental sustainability (marker),ICTAAToFDevelo,0.03262996764169749,0
Enviromental sustainability (marker),GenEqua,0.03583490655468579,0
Enviromental sustainability (marker),OrganID,0.03349548406359553,0
Enviromental sustainability (marker),OrgaNa,0.03365669829463116,0
Enviromental sustainability (marker),OrganiTy,0.037753005346854634,0
Enviromental sustainability (marker),OrganiCl,0.037753005346854634,0
Enviromental sustainability (marker),OrganS,0.03365669829463116,0
Enviromental sustainability (marker),ContID,0.03373912155122261,0
Enviromental sustainability (marker),ContNa,0.03596743560614183,0
Enviromental sustainability (marker),ProjBroCounID,0.03464701428527858,0
Enviromental sustainability (marker),CoRegID,0.03123848482909673,0
Enviromental sustainability (marker),CoRegN,0.03134596098312047,0
Enviromental sustainability (marker),CounRePe,0.035504658903627306,0
Enviromental sustainability (marker),SecID,0.029174006374823466,0
Climate change mitigation (marker),FisY,0.029278459178084602,0
Climate change mitigation (marker),SePer,0.034147302720642016,0
Climate change mitigation (marker),CFLI,0.029360882434676064,0
Climate change mitigation (marker),Deser,0.03427236862310969,0
Climate change mitigation (marker),SeNa,0.03183243199607009,0
Climate change mitigation (marker),KnowFDeve,0.033577907320186985,0
Climate change mitigation (marker),CIDABuDeliMo,0.03516370088909464,0
Climate change mitigation (marker),ChIs,0.03191485525266155,0
Climate change mitigation (marker),UntAmoProBu,0.03530859634386276,0
Climate change mitigation (marker),ProjNu,0.02915076053718533,0
Climate change mitigation (marker),ClChAdap,0.03604985886273329,0
Climate change mitigation (marker),FSTCPer,0.03378313398862157,0
Climate change mitigation (marker),AmoSp,0.031658816385168966,0
Climate change mitigation (marker),IRTCPer,0.03378313398862157,0
Climate change mitigation (marker),PBAT,0.026724486360099112,0
Climate change mitigation (marker),UrbIss,0.02923318379377679,0
Climate change mitigation (marker),YouIs,0.029295395952163614,0
Climate change mitigation (marker),IndigIs,0.03390819989108925,0
Climate change mitigation (marker),DisIs,0.029295395952163614,0
Climate change mitigation (marker),ICTAAToFDevelo,0.034894490206977956,0
Climate change mitigation (marker),GenEqua,0.03390819989108925,0
Climate change mitigation (marker),OrganID,0.03382577663449779,0
Climate change mitigation (marker),OrgaNa,0.03400330889135776,0
Climate change mitigation (marker),OrganiTy,0.03365669829463116,0
Climate change mitigation (marker),OrganiCl,0.03365669829463116,0
Climate change mitigation (marker),OrganS,0.03400330889135776,0
Climate change mitigation (marker),ContID,0.034085732147949216,0
Climate change mitigation (marker),ContNa,0.03642958306844397,0
Climate change mitigation (marker),ProjBroCounID,0.0329192289398937,0
Climate change mitigation (marker),CoRegID,0.03382577663449779,0
Climate change mitigation (marker),CoRegN,0.03400330889135776,0
Climate change mitigation (marker),CounRePe,0.035924792960265614,0
Climate change mitigation (marker),SecID,0.03178388228763665,0
Participatory development and good governance,FisY,0.028705118341393984,0
Participatory development and good governance,SePer,0.032504901739229805,0
Participatory development and good governance,CFLI,0.026806909616690574,0
Participatory development and good governance,Deser,0.03262996764169749,0
Participatory development and good governance,SeNa,0.030685750322688853,0
Participatory development and good governance,KnowFDeve,0.033995870141390466,0
Participatory development and good governance,CIDABuDeliMo,0.03183243199607009,0
Participatory development and good governance,ChIs,0.026806909616690574,0
Participatory development and good governance,UntAmoProBu,0.033614055648754936,0
Participatory development and good governance,ProjNu,0.03243336677677256,0
Participatory development and good governance,ClChAdap,0.032300360583678224,0
Participatory development and good governance,FSTCPer,0.032280937969037235,0
Participatory development and good governance,AmoSp,0.030563882397560832,0
Participatory development and good governance,IRTCPer,0.032280937969037235,0
Participatory development and good governance,PBAT,0.028705118341393984,0
Participatory development and good governance,UrbIss,0.028709869755581718,0
Participatory development and good governance,YouIs,0.028747928958359543,0
Participatory development and good governance,IndigIs,0.03240600387150491,0
Participatory development and good governance,DisIs,0.028747928958359543,0
Participatory development and good governance,ICTAAToFDevelo,0.03667649948958365,0
Participatory development and good governance,GenEqua,0.03240600387150491,0
Participatory development and good governance,OrganID,0.03418994536651823,0
Participatory development and good governance,OrgaNa,0.03243336677677256,0
Participatory development and good governance,OrganiTy,0.03404908764941598,0
Participatory development and good governance,OrganiCl,0.03404908764941598,0
Participatory development and good governance,OrganS,0.034336326915663705,0
Participatory development and good governance,ContID,0.03251579003336402,0
Participatory development and good governance,ContNa,0.034336326915663705,0
Participatory development and good governance,ProjBroCounID,0.038437534111549806,0
Participatory development and good governance,CoRegID,0.03232358061491345,0
Participatory development and good governance,CoRegN,0.03243336677677256,0
Participatory development and good governance,CounRePe,0.03400644500353977,0
Participatory development and good governance,SecID,0.030688948300028517,0
Trade development (marker),FisY,0.026724486360099112,0
Trade development (marker),SePer,0.0360738727868147,0
Trade development (marker),CFLI,0.026806909616690574,0
Trade development (marker),Deser,0.036198938689282374,0
Trade development (marker),SeNa,0.033194550832329014,0
Trade development (marker),KnowFDeve,0.035125563938129024,0
Trade development (marker),CIDABuDeliMo,0.03438640481405558,0
Trade development (marker),ChIs,0.026806909616690574,0
Trade development (marker),UntAmoProBu,0.03717384015567679,0
Trade development (marker),ProjNu,0.03279017180281465,0
Trade development (marker),ClChAdap,0.03251579003336402,0
Trade development (marker),FSTCPer,0.035504658903627306,0
Trade development (marker),AmoSp,0.03294319642928409,0
Trade development (marker),IRTCPer,0.035504658903627306,0
Trade development (marker),PBAT,0.02995951859621407,0
Trade development (marker),UrbIss,0.029839752338048343,0
Trade development (marker),YouIs,0.02993758597422117,0
Trade development (marker),IndigIs,0.02974784801315871,0
Trade development (marker),DisIs,0.026806909616690574,0
Trade development (marker),ICTAAToFDevelo,0.04136455467920787,0
Trade development (marker),GenEqua,0.03562972480609499,0
Trade development (marker),OrganID,0.03554730154950353,0
Trade development (marker),OrgaNa,0.03582301452417242,0
Trade development (marker),OrganiTy,0.035287806985109284,0
Trade development (marker),OrganiCl,0.035287806985109284,0
Trade development (marker),OrganS,0.03582301452417242,0
Trade development (marker),ContID,0.03590543778076388,0
Trade development (marker),ContNa,0.03885585724553019,0
Trade development (marker),ProjBroCounID,0.03418994536651823,0
Trade development (marker),CoRegID,0.03260636315303539,0
Trade development (marker),CoRegN,0.03279017180281465,0
Trade development (marker),CounRePe,0.03524516433923306,0
Trade development (marker),SecID,0.02993758597422117,0
Biodiversity (marker),FisY,0.034488563726775,0
Biodiversity (marker),SePer,0.03788003222385157,0
Biodiversity (marker),CFLI,0.026806909616690574,0
Biodiversity (marker),Deser,0.041737827629528816,0
Biodiversity (marker),SeNa,0.034488563726775,0
Biodiversity (marker),KnowFDeve,0.03651200632503543,0
Biodiversity (marker),CIDABuDeliMo,0.03554730154950353,0
Biodiversity (marker),ChIs,0.030688948300028517,0
Biodiversity (marker),UntAmoProBu,0.0357803718782962,0
Biodiversity (marker),ProjNu,0.03031896662244906,0
Biodiversity (marker),ClChAdap,0.03350007976037668,0
Biodiversity (marker),FSTCPer,0.033614055648754936,0
Biodiversity (marker),AmoSp,0.03041457321743245,0
Biodiversity (marker),IRTCPer,0.033614055648754936,0
Biodiversity (marker),PBAT,0.03060652504343705,0
Biodiversity (marker),UrbIss,0.033995870141390466,0
Biodiversity (marker),YouIs,0.03427236862310969,0
Biodiversity (marker),IndigIs,0.037205227518488634,0
Biodiversity (marker),DisIs,0.03427236862310969,0
Biodiversity (marker),ICTAAToFDevelo,0.035125563938129024,0
Biodiversity (marker),GenEqua,0.03373912155122261,0
Biodiversity (marker),OrganID,0.03365669829463116,0
Biodiversity (marker),OrgaNa,0.033913446884799005,0
Biodiversity (marker),OrganiTy,0.03676424157562827,0
Biodiversity (marker),OrganiCl,0.033417656503785226,0
Biodiversity (marker),OrganS,0.033913446884799005,0
Biodiversity (marker),ContID,0.033995870141390466,0
Biodiversity (marker),ContNa,0.03750792714714895,0
Biodiversity (marker),ProjBroCounID,0.03243336677677256,0
Biodiversity (marker),CoRegID,0.03365669829463116,0
Biodiversity (marker),CoRegN,0.033913446884799005,0
Biodiversity (marker),CounRePe,0.036721598929752054,0
Biodiversity (marker),SecID,0.030539639119900132,0
