source,target,conf,realConf
Fiscal year,Fiscal year,0.06778718740655379,1
Fiscal year,FSTC percent,0.0391178396853615,0
Fiscal year,Section ID,0.03246084341321814,0
Fiscal year,Participatory development and good governance,0.034972870574984535,0
Fiscal year,CIDA business delivery model (old),0.033846190236486204,0
Fiscal year,CountryRegion ID,0.03061371431552739,0
Fiscal year,Organisation class,0.039196495209107694,0
Fiscal year,Sector ID,0.03279094932833732,0
Fiscal year,Enviromental sustainability (marker),0.03706194410900845,0
Fiscal year,Organisation name,0.03973391423537548,0
Fiscal year,CountryRegion name,0.033177402114908515,0
Fiscal year,Continent ID,0.03165255563443444,0
Fiscal year,Climate change adaptation (marker),0.03570017765720027,0
Fiscal year,Section name,0.03553269941263864,0
Fiscal year,Trade development (marker),0.03585743324254421,0
Fiscal year,Biodiversity (marker),0.037700272133293536,0
Fiscal year,Urban issues (marker),0.037700272133293536,0
Fiscal year,Children issues (marker),0.039025010033043615,0
Fiscal year,Youth issues (marker),0.037700272133293536,0
Fiscal year,Indigenous issues (marker),0.038216267022703344,0
Fiscal year,Disability issues (marker),0.04293393458302162,0
Fiscal year,ICT as a tool for development (marker),0.0365313857511611,0
Fiscal year,Knowledge for development (marker),0.03376069210462497,0
Fiscal year,Gender equality (marker),0.0365313857511611,0
Fiscal year,Organisation ID,0.03757597014528485,0
Fiscal year,Organisation type,0.04285094458772863,0
Fiscal year,Organisation sub-class,0.03737252760480491,0
Fiscal year,Continent name,0.03462198445751632,0
Fiscal year,Project Browser country ID,0.0335840975942463,0
Fiscal year,CountryRegion percent,0.03484886333322566,0
Fiscal year,Sector name,0.0360501510916854,0
Fiscal year,Sector percent,0.03790355307853175,0
Fiscal year,Amount spent,0.031528548392675576,0
FSTC percent,Fiscal year,0.039121696150809765,0
FSTC percent,FSTC percent,0.06787004293771734,1
FSTC percent,Section ID,0.03981163172287212,0
FSTC percent,Participatory development and good governance,0.03313529453555482,0
FSTC percent,CIDA business delivery model (old),0.033429727681295325,0
FSTC percent,CountryRegion ID,0.036411234974850507,0
FSTC percent,Organisation class,0.032670798552026724,0
FSTC percent,Sector ID,0.04057241958678338,0
FSTC percent,Enviromental sustainability (marker),0.031221328529723938,0
FSTC percent,Organisation name,0.03297175320673669,0
FSTC percent,CountryRegion name,0.03558002688088967,0
FSTC percent,Continent ID,0.03849439935188128,0
FSTC percent,Climate change adaptation (marker),0.033434871823424,0
FSTC percent,Section name,0.038489255209752604,0
FSTC percent,Trade development (marker),0.03772881294954893,0
FSTC percent,Biodiversity (marker),0.0318825167862837,0
FSTC percent,Urban issues (marker),0.03452726981252273,0
FSTC percent,Children issues (marker),0.03607004241116216,0
FSTC percent,Youth issues (marker),0.03452726981252273,0
FSTC percent,Indigenous issues (marker),0.03313529453555482,0
FSTC percent,Disability issues (marker),0.03313529453555482,0
FSTC percent,ICT as a tool for development (marker),0.03442147969147317,0
FSTC percent,Knowledge for development (marker),0.033434871823424,0
FSTC percent,Gender equality (marker),0.03364568547044305,0
FSTC percent,Organisation ID,0.03364054132831438,0
FSTC percent,Organisation type,0.03297175320673669,0
FSTC percent,Organisation sub-class,0.03164401208301629,0
FSTC percent,Continent name,0.037370321237113015,0
FSTC percent,Project Browser country ID,0.03772366880742025,0
FSTC percent,CountryRegion percent,0.04803439524092458,0
FSTC percent,Sector name,0.039121696150809765,0
FSTC percent,Sector percent,0.05444283526604224,0
FSTC percent,Amount spent,0.04241429506016664,0
Section ID,Fiscal year,0.03246084341321814,0
Section ID,FSTC percent,0.03980777525742386,0
Section ID,Section ID,0.06778718740655379,1
Section ID,Participatory development and good governance,0.031997523420465614,0
Section ID,CIDA business delivery model (old),0.03208302155232685,0
Section ID,CountryRegion ID,0.04764637589904116,0
Section ID,Organisation class,0.03973391423537548,0
Section ID,Sector ID,0.06081141165370139,0
Section ID,Enviromental sustainability (marker),0.03354987845760592,0
Section ID,Organisation name,0.04031114207840384,0
Section ID,CountryRegion name,0.03973391423537548,0
Section ID,Continent ID,0.047866041577899816,0
Section ID,Climate change adaptation (marker),0.03794821772950344,0
Section ID,Section name,0.055885798788478144,0
Section ID,Trade development (marker),0.03376069210462497,0
Section ID,Biodiversity (marker),0.0325094111029635,0
Section ID,Urban issues (marker),0.029694028849225167,0
Section ID,Children issues (marker),0.03176416285932688,0
Section ID,Youth issues (marker),0.0325094111029635,0
Section ID,Indigenous issues (marker),0.03133633516390586,0
Section ID,Disability issues (marker),0.03133633516390586,0
Section ID,ICT as a tool for development (marker),0.03133633516390586,0
Section ID,Knowledge for development (marker),0.031997523420465614,0
Section ID,Gender equality (marker),0.03176416285932688,0
Section ID,Organisation ID,0.048586280436058414,0
Section ID,Organisation type,0.04031114207840384,0
Section ID,Organisation sub-class,0.03778577026515476,0
Section ID,Continent name,0.038694904117924436,0
Section ID,Project Browser country ID,0.04354361799936266,0
Section ID,CountryRegion percent,0.03801616836868128,0
Section ID,Sector name,0.04908500529243492,0
Section ID,Sector percent,0.04575846956646168,0
Section ID,Amount spent,0.035840645718065306,0
Participatory development and good governance,Fiscal year,0.03494186443685105,0
Participatory development and good governance,FSTC percent,0.033151272805054754,0
Participatory development and good governance,Section ID,0.03196651728233213,0
Participatory development and good governance,Participatory development and good governance,0.06777320375204837,1
Participatory development and good governance,CIDA business delivery model (old),0.036184730969751354,0
Participatory development and good governance,CountryRegion ID,0.03404763441773334,0
Participatory development and good governance,Organisation class,0.035115032789759554,0
Participatory development and good governance,Sector ID,0.03221596862150137,0
Participatory development and good governance,Enviromental sustainability (marker),0.03814217447659254,0
Participatory development and good governance,Organisation name,0.038109169472306664,0
Participatory development and good governance,CountryRegion name,0.03788572643629569,0
Participatory development and good governance,Continent ID,0.03332181564709254,0
Participatory development and good governance,Climate change adaptation (marker),0.03849679208817452,0
Participatory development and good governance,Section name,0.03628164064093266,0
Participatory development and good governance,Trade development (marker),0.04626130413721679,0
Participatory development and good governance,Biodiversity (marker),0.037358543950299486,0
Participatory development and good governance,Urban issues (marker),0.034713790924060454,0
Participatory development and good governance,Children issues (marker),0.03425383387601889,0
Participatory development and good governance,Youth issues (marker),0.033391414410940935,0
Participatory development and good governance,Indigenous issues (marker),0.03396879007159876,0
Participatory development and good governance,Disability issues (marker),0.03765654429128417,0
Participatory development and good governance,ICT as a tool for development (marker),0.04621687336348565,0
Participatory development and good governance,Knowledge for development (marker),0.0440206433455092,0
Participatory development and good governance,Gender equality (marker),0.03551871575813321,0
Participatory development and good governance,Organisation ID,0.034214557354635314,0
Participatory development and good governance,Organisation type,0.03529378721856834,0
Participatory development and good governance,Organisation sub-class,0.03445337460551212,0
Participatory development and good governance,Continent name,0.03734567597976745,0
Participatory development and good governance,Project Browser country ID,0.037554023675794884,0
Participatory development and good governance,CountryRegion percent,0.038510377621381216,0
Participatory development and good governance,Sector name,0.03650037961302762,0
Participatory development and good governance,Sector percent,0.03875692239501367,0
Participatory development and good governance,Amount spent,0.033151272805054754,0
CIDA business delivery model (old),Fiscal year,0.03384619023648621,0
CIDA business delivery model (old),FSTC percent,0.03342587121584705,0
CIDA business delivery model (old),Section ID,0.03208302155232685,0
CIDA business delivery model (old),Participatory development and good governance,0.03621573710788484,0
CIDA business delivery model (old),CIDA business delivery model (old),0.06778718740655379,1
CIDA business delivery model (old),CountryRegion ID,0.03636752145483409,0
CIDA business delivery model (old),Organisation class,0.034219168227366065,0
CIDA business delivery model (old),Sector ID,0.030152346890531406,0
CIDA business delivery model (old),Enviromental sustainability (marker),0.039025010033043615,0
CIDA business delivery model (old),Organisation name,0.034416627163714235,0
CIDA business delivery model (old),CountryRegion name,0.03757597014528484,0
CIDA business delivery model (old),Continent ID,0.03354987845760592,0
CIDA business delivery model (old),Climate change adaptation (marker),0.03818157829064218,0
CIDA business delivery model (old),Section name,0.03363537658946715,0
CIDA business delivery model (old),Trade development (marker),0.04006402015049467,0
CIDA business delivery model (old),Biodiversity (marker),0.04151863431492614,0
CIDA business delivery model (old),Urban issues (marker),0.03834493068343929,0
CIDA business delivery model (old),Children issues (marker),0.03911099707724647,0
CIDA business delivery model (old),Youth issues (marker),0.03834493068343929,0
CIDA business delivery model (old),Indigenous issues (marker),0.04006402015049467,0
CIDA business delivery model (old),Disability issues (marker),0.04006402015049467,0
CIDA business delivery model (old),ICT as a tool for development (marker),0.03982158445642276,0
CIDA business delivery model (old),Knowledge for development (marker),0.03946506137690524,0
CIDA business delivery model (old),Gender equality (marker),0.040615770350796256,0
CIDA business delivery model (old),Organisation ID,0.033054563480333025,0
CIDA business delivery model (old),Organisation type,0.034416627163714235,0
CIDA business delivery model (old),Organisation sub-class,0.033499853530669185,0
CIDA business delivery model (old),Continent name,0.036876636412385096,0
CIDA business delivery model (old),Project Browser country ID,0.034331061624630024,0
CIDA business delivery model (old),CountryRegion percent,0.036634071625937015,0
CIDA business delivery model (old),Sector name,0.03384619023648621,0
CIDA business delivery model (old),Sector percent,0.033030595627686336,0
CIDA business delivery model (old),Amount spent,0.03342587121584705,0
CountryRegion ID,Fiscal year,0.030613714315527382,0
CountryRegion ID,FSTC percent,0.03640737850940224,0
CountryRegion ID,Section ID,0.04764637589904116,0
CountryRegion ID,Participatory development and good governance,0.034078640555866825,0
CountryRegion ID,CIDA business delivery model (old),0.03636752145483409,0
CountryRegion ID,CountryRegion ID,0.06778718740655379,1
CountryRegion ID,Organisation class,0.03955055950876647,0
CountryRegion ID,Sector ID,0.04151863431492614,0
CountryRegion ID,Enviromental sustainability (marker),0.03413367009550483,0
CountryRegion ID,Organisation name,0.04001728063104395,0
CountryRegion ID,CountryRegion name,0.060086288888975437,0
CountryRegion ID,Continent ID,0.05211653751292684,0
CountryRegion ID,Climate change adaptation (marker),0.03802756032029061,0
CountryRegion ID,Section name,0.03973391423537548,0
CountryRegion ID,Trade development (marker),0.03445336551625901,0
CountryRegion ID,Biodiversity (marker),0.03349859946238507,0
CountryRegion ID,Urban issues (marker),0.031139765682225932,0
CountryRegion ID,Children issues (marker),0.03497287057498453,0
CountryRegion ID,Youth issues (marker),0.03585743324254421,0
CountryRegion ID,Indigenous issues (marker),0.03237534528135691,0
CountryRegion ID,Disability issues (marker),0.03237534528135691,0
CountryRegion ID,ICT as a tool for development (marker),0.03537693006510439,0
CountryRegion ID,Knowledge for development (marker),0.03453648632565509,0
CountryRegion ID,Gender equality (marker),0.03497287057498453,0
CountryRegion ID,Organisation ID,0.046671820503516356,0
CountryRegion ID,Organisation type,0.04001728063104395,0
CountryRegion ID,Organisation sub-class,0.037929317715592076,0
CountryRegion ID,Continent name,0.04451336077565031,0
CountryRegion ID,Project Browser country ID,0.042850944587728625,0
CountryRegion ID,CountryRegion percent,0.056962930022217584,0
CountryRegion ID,Sector name,0.03384619023648621,0
CountryRegion ID,Sector percent,0.0355761704154414,0
CountryRegion ID,Amount spent,0.04264143921410853,0
Organisation class,Fiscal year,0.0391964952091077,0
Organisation class,FSTC percent,0.032666942086578464,0
Organisation class,Section ID,0.03973391423537548,0
Organisation class,Participatory development and good governance,0.03514603892789304,0
Organisation class,CIDA business delivery model (old),0.034219168227366065,0
Organisation class,CountryRegion ID,0.03955055950876647,0
Organisation class,Organisation class,0.06778718740655379,1
Organisation class,Sector ID,0.03376069210462497,0
Organisation class,Enviromental sustainability (marker),0.036993168025583785,0
Organisation class,Organisation name,0.059059502419965,0
Organisation class,CountryRegion name,0.041119261058643546,0
Organisation class,Continent ID,0.0386094059860632,0
Organisation class,Climate change adaptation (marker),0.039168872972383,0
Organisation class,Section name,0.04160413244678737,0
Organisation class,Trade development (marker),0.035964652959824164,0
Organisation class,Biodiversity (marker),0.03525260406814443,0
Organisation class,Urban issues (marker),0.03972833995870279,0
Organisation class,Children issues (marker),0.0365313857511611,0
Organisation class,Youth issues (marker),0.03301473612286525,0
Organisation class,Indigenous issues (marker),0.035964652959824164,0
Organisation class,Disability issues (marker),0.03794821772950344,0
Organisation class,ICT as a tool for development (marker),0.0365313857511611,0
Organisation class,Knowledge for development (marker),0.03245526913654545,0
Organisation class,Gender equality (marker),0.0365313857511611,0
Organisation class,Organisation ID,0.058530551814717176,0
Organisation class,Organisation type,0.05656587813808246,0
Organisation class,Organisation sub-class,0.06342334491325939,0
Organisation class,Continent name,0.04051317182346377,0
Organisation class,Project Browser country ID,0.034066586322006126,0
Organisation class,CountryRegion percent,0.03960433271694392,0
Organisation class,Sector name,0.036186948662008105,0
Organisation class,Sector percent,0.03484886333322566,0
Organisation class,Amount spent,0.0355761704154414,0
Sector ID,Fiscal year,0.032759943190203845,0
Sector ID,FSTC percent,0.04058839785628331,0
Sector ID,Section ID,0.06078040551556791,0
Sector ID,Participatory development and good governance,0.03221596862150137,0
Sector ID,CIDA business delivery model (old),0.030121340752397925,0
Sector ID,CountryRegion ID,0.041487628176792656,0
Sector ID,Organisation class,0.03372968596649149,0
Sector ID,Sector ID,0.06777320375204837,1
Sector ID,Enviromental sustainability (marker),0.0299532354768302,0
Sector ID,Organisation name,0.034102663957371354,0
Sector ID,CountryRegion name,0.03372968596649149,0
Sector ID,Continent ID,0.0449149811681253,0
Sector ID,Climate change adaptation (marker),0.03428324973374247,0
Sector ID,Section name,0.048968501022440214,0
Sector ID,Trade development (marker),0.03161565166475187,0
Sector ID,Biodiversity (marker),0.03286246380569313,0
Sector ID,Urban issues (marker),0.0299532354768302,0
Sector ID,Children issues (marker),0.029424284871582388,0
Sector ID,Youth issues (marker),0.0299532354768302,0
Sector ID,Indigenous issues (marker),0.03161565166475187,0
Sector ID,Disability issues (marker),0.029122027382869356,0
Sector ID,ICT as a tool for development (marker),0.03156259582896714,0
Sector ID,Knowledge for development (marker),0.03225355555081484,0
Sector ID,Gender equality (marker),0.032069037897821416,0
Sector ID,Organisation ID,0.042214935259008386,0
Sector ID,Organisation type,0.034102663957371354,0
Sector ID,Organisation sub-class,0.03247840496483002,0
Sector ID,Continent name,0.035416195142643915,0
Sector ID,Project Browser country ID,0.04398125245867518,0
Sector ID,CountryRegion percent,0.032691920963655335,0
Sector ID,Sector name,0.054579155656675864,0
Sector ID,Sector percent,0.050526755501467256,0
Sector ID,Amount spent,0.03227631691667492,0
Enviromental sustainability (marker),Fiscal year,0.03703093797087497,0
Enviromental sustainability (marker),FSTC percent,0.031237306799223874,0
Enviromental sustainability (marker),Section ID,0.03351887231947244,0
Enviromental sustainability (marker),Participatory development and good governance,0.03814217447659254,0
Enviromental sustainability (marker),CIDA business delivery model (old),0.03899400389491014,0
Enviromental sustainability (marker),CountryRegion ID,0.034102663957371354,0
Enviromental sustainability (marker),Organisation class,0.03696216188745031,0
Enviromental sustainability (marker),Sector ID,0.0299532354768302,0
Enviromental sustainability (marker),Enviromental sustainability (marker),0.06777320375204837,1
Enviromental sustainability (marker),Organisation name,0.038852855350652644,0
Enviromental sustainability (marker),CountryRegion name,0.03857839984792972,0
Enviromental sustainability (marker),Continent ID,0.03686265275787967,0
Enviromental sustainability (marker),Climate change adaptation (marker),0.046577397356046976,0
Enviromental sustainability (marker),Section name,0.03857839984792972,0
Enviromental sustainability (marker),Trade development (marker),0.04525014572214177,0
Enviromental sustainability (marker),Biodiversity (marker),0.048633543693739574,0
Enviromental sustainability (marker),Urban issues (marker),0.047102370889074874,0
Enviromental sustainability (marker),Children issues (marker),0.048863219614439284,0
Enviromental sustainability (marker),Youth issues (marker),0.047102370889074874,0
Enviromental sustainability (marker),Indigenous issues (marker),0.04806552797588009,0
Enviromental sustainability (marker),Disability issues (marker),0.04947321910274925,0
Enviromental sustainability (marker),ICT as a tool for development (marker),0.04182603217029785,0
Enviromental sustainability (marker),Knowledge for development (marker),0.04408377307416446,0
Enviromental sustainability (marker),Gender equality (marker),0.05031783377887076,0
Enviromental sustainability (marker),Organisation ID,0.0360114336754036,0
Enviromental sustainability (marker),Organisation type,0.038852855350652644,0
Enviromental sustainability (marker),Organisation sub-class,0.039079990939112984,0
Enviromental sustainability (marker),Continent name,0.041487628176792656,0
Enviromental sustainability (marker),Project Browser country ID,0.03951686059917583,0
Enviromental sustainability (marker),CountryRegion percent,0.036213618414384155,0
Enviromental sustainability (marker),Sector name,0.03703093797087497,0
Enviromental sustainability (marker),Sector percent,0.032691920963655335,0
Enviromental sustainability (marker),Amount spent,0.036692109915841875,0
Organisation name,Fiscal year,0.03973391423537548,0
Organisation name,FSTC percent,0.032967896741288416,0
Organisation name,Section ID,0.04031114207840384,0
Organisation name,Participatory development and good governance,0.03814017561044015,0
Organisation name,CIDA business delivery model (old),0.034416627163714235,0
Organisation name,CountryRegion ID,0.04001728063104395,0
Organisation name,Organisation class,0.059059502419965,0
Organisation name,Sector ID,0.03413367009550483,0
Organisation name,Enviromental sustainability (marker),0.03888386148878612,0
Organisation name,Organisation name,0.06778718740655379,1
Organisation name,CountryRegion name,0.04908500529243492,0
Organisation name,Continent ID,0.03911099707724647,0
Organisation name,Climate change adaptation (marker),0.041176372158589325,0
Organisation name,Section name,0.05123468139750606,0
Organisation name,Trade development (marker),0.03827112362224193,0
Organisation name,Biodiversity (marker),0.03784381958373085,0
Organisation name,Urban issues (marker),0.042437337997724964,0
Organisation name,Children issues (marker),0.03896418992860746,0
Organisation name,Youth issues (marker),0.035547060376733795,0
Organisation name,Indigenous issues (marker),0.03827112362224193,0
Organisation name,Disability issues (marker),0.04030081780516956,0
Organisation name,ICT as a tool for development (marker),0.03834493068343929,0
Organisation name,Knowledge for development (marker),0.034331129031852994,0
Organisation name,Gender equality (marker),0.03896418992860746,0
Organisation name,Organisation ID,0.05960498273162679,0
Organisation name,Organisation type,0.060086288888975437,0
Organisation name,Organisation sub-class,0.055478913707518306,0
Organisation name,Continent name,0.04948720275725468,0
Organisation name,Project Browser country ID,0.0342972333882479,0
Organisation name,CountryRegion percent,0.04001657154896904,0
Organisation name,Sector name,0.04596797494008177,0
Organisation name,Sector percent,0.035200786114942956,0
Organisation name,Amount spent,0.035977443288388006,0
CountryRegion name,Fiscal year,0.033177402114908515,0
CountryRegion name,FSTC percent,0.0355761704154414,0
CountryRegion name,Section ID,0.03973391423537548,0
CountryRegion name,Participatory development and good governance,0.037916732574429166,0
CountryRegion name,CIDA business delivery model (old),0.03757597014528484,0
CountryRegion name,CountryRegion ID,0.060086288888975437,0
CountryRegion name,Organisation class,0.041119261058643546,0
CountryRegion name,Sector ID,0.03376069210462497,0
CountryRegion name,Enviromental sustainability (marker),0.0386094059860632,0
CountryRegion name,Organisation name,0.04908500529243492,0
CountryRegion name,CountryRegion name,0.06778718740655379,1
CountryRegion name,Continent ID,0.044427862643789076,0
CountryRegion name,Climate change adaptation (marker),0.04084727393134238,0
CountryRegion name,Section name,0.050331817433376176,0
CountryRegion name,Trade development (marker),0.03794821772950344,0
CountryRegion name,Biodiversity (marker),0.03749047201342361,0
CountryRegion name,Urban issues (marker),0.03525260406814443,0
CountryRegion name,Children issues (marker),0.0386094059860632,0
CountryRegion name,Youth issues (marker),0.03972833995870279,0
CountryRegion name,Indigenous issues (marker),0.035964652959824164,0
CountryRegion name,Disability issues (marker),0.035964652959824164,0
CountryRegion name,ICT as a tool for development (marker),0.038089900927337675,0
CountryRegion name,Knowledge for development (marker),0.03749047201342361,0
CountryRegion name,Gender equality (marker),0.0386094059860632,0
CountryRegion name,Organisation ID,0.04001728063104395,0
CountryRegion name,Organisation type,0.04160413244678737,0
CountryRegion name,Organisation sub-class,0.03942221120014017,0
CountryRegion name,Continent name,0.05415017961500878,0
CountryRegion name,Project Browser country ID,0.03803371586136468,0
CountryRegion name,CountryRegion percent,0.05750727627917738,0
CountryRegion name,Sector name,0.045215588303306874,0
CountryRegion name,Sector percent,0.03484886333322566,0
CountryRegion name,Amount spent,0.041394627073167274,0
Continent ID,Fiscal year,0.03162154949630096,0
Continent ID,FSTC percent,0.03851037762138122,0
Continent ID,Section ID,0.047835035439766325,0
Continent ID,Participatory development and good governance,0.03332181564709254,0
Continent ID,CIDA business delivery model (old),0.03351887231947244,0
Continent ID,CountryRegion ID,0.05208553137479336,0
Continent ID,Organisation class,0.03857839984792972,0
Continent ID,Sector ID,0.0449149811681253,0
Continent ID,Enviromental sustainability (marker),0.03686265275787967,0
Continent ID,Organisation name,0.039079990939112984,0
Continent ID,CountryRegion name,0.04439685650565559,0
Continent ID,Continent ID,0.06777320375204837,1
Continent ID,Climate change adaptation (marker),0.03551871575813321,0
Continent ID,Section name,0.03857839984792972,0
Continent ID,Trade development (marker),0.0356185748540896,0
Continent ID,Biodiversity (marker),0.037358543950299486,0
Continent ID,Urban issues (marker),0.034713790924060454,0
Continent ID,Children issues (marker),0.03625656352269989,0
Continent ID,Youth issues (marker),0.037358543950299486,0
Continent ID,Indigenous issues (marker),0.0356185748540896,0
Continent ID,Disability issues (marker),0.03332181564709254,0
Continent ID,ICT as a tool for development (marker),0.034608000803010894,0
Continent ID,Knowledge for development (marker),0.03362139293496172,0
Continent ID,Gender equality (marker),0.03383220658198077,0
Continent ID,Organisation ID,0.04665958965032677,0
Continent ID,Organisation type,0.039079990939112984,0
Continent ID,Organisation sub-class,0.03686708906624564,0
Continent ID,Continent name,0.05760027738280276,0
Continent ID,Project Browser country ID,0.04240633185959148,0
Continent ID,CountryRegion percent,0.047767013213217836,0
Continent ID,Sector name,0.035416195142643915,0
Continent ID,Sector percent,0.037391443648741626,0
Continent ID,Amount spent,0.04578344844353856,0
Climate change adaptation (marker),Fiscal year,0.03566917151906678,0
Climate change adaptation (marker),FSTC percent,0.03345085009292393,0
Climate change adaptation (marker),Section ID,0.037917211591369966,0
Climate change adaptation (marker),Participatory development and good governance,0.03849679208817452,0
Climate change adaptation (marker),CIDA business delivery model (old),0.0381505721525087,0
Climate change adaptation (marker),CountryRegion ID,0.03799655418215713,0
Climate change adaptation (marker),Organisation class,0.03913786683424952,0
Climate change adaptation (marker),Sector ID,0.03428324973374247,0
Climate change adaptation (marker),Enviromental sustainability (marker),0.046577397356046976,0
Climate change adaptation (marker),Organisation name,0.04114536602045584,0
Climate change adaptation (marker),CountryRegion name,0.0408162677932089,0
Climate change adaptation (marker),Continent ID,0.03551871575813321,0
Climate change adaptation (marker),Climate change adaptation (marker),0.06777320375204837,1
Climate change adaptation (marker),Section name,0.041108163612158355,0
Climate change adaptation (marker),Trade development (marker),0.04595399128557635,0
Climate change adaptation (marker),Biodiversity (marker),0.04317700060802536,0
Climate change adaptation (marker),Urban issues (marker),0.04476385242376878,0
Climate change adaptation (marker),Children issues (marker),0.046706377922351244,0
Climate change adaptation (marker),Youth issues (marker),0.04476385242376878,0
Climate change adaptation (marker),Indigenous issues (marker),0.04449937712114487,0
Climate change adaptation (marker),Disability issues (marker),0.04449937712114487,0
Climate change adaptation (marker),ICT as a tool for development (marker),0.04474181281521679,0
Climate change adaptation (marker),Knowledge for development (marker),0.04595399128557635,0
Climate change adaptation (marker),Gender equality (marker),0.046706377922351244,0
Climate change adaptation (marker),Organisation ID,0.038281539814372274,0
Climate change adaptation (marker),Organisation type,0.039434055238771755,0
Climate change adaptation (marker),Organisation sub-class,0.03805889478920419,0
Climate change adaptation (marker),Continent name,0.03857839984792972,0
Climate change adaptation (marker),Project Browser country ID,0.034214557354635314,0
Climate change adaptation (marker),CountryRegion percent,0.039832754134500735,0
Climate change adaptation (marker),Sector name,0.03760865707164208,0
Climate change adaptation (marker),Sector percent,0.036692109915841875,0
Climate change adaptation (marker),Amount spent,0.03345085009292393,0
Section name,Fiscal year,0.03553269941263863,0
Section name,FSTC percent,0.03848539874430434,0
Section name,Section ID,0.055885798788478144,0
Section name,Participatory development and good governance,0.03631264677906615,0
Section name,CIDA business delivery model (old),0.03363537658946715,0
Section name,CountryRegion ID,0.03973391423537548,0
Section name,Organisation class,0.04160413244678737,0
Section name,Sector ID,0.04899950716057369,0
Section name,Enviromental sustainability (marker),0.0386094059860632,0
Section name,Organisation name,0.05123468139750606,0
Section name,CountryRegion name,0.050331817433376176,0
Section name,Continent ID,0.0386094059860632,0
Section name,Climate change adaptation (marker),0.04113916975029184,0
Section name,Section name,0.06778718740655379,1
Section name,Trade development (marker),0.03784381958373085,0
Section name,Biodiversity (marker),0.037287029472943684,0
Section name,Urban issues (marker),0.03464227644670465,0
Section name,Children issues (marker),0.036185049045344087,0
Section name,Youth issues (marker),0.037287029472943684,0
Section name,Indigenous issues (marker),0.035547060376733795,0
Section name,Disability issues (marker),0.035547060376733795,0
Section name,ICT as a tool for development (marker),0.03453648632565509,0
Section name,Knowledge for development (marker),0.035447201280777406,0
Section name,Gender equality (marker),0.0386094059860632,0
Section name,Organisation ID,0.04031114207840384,0
Section name,Organisation type,0.04220604175620729,0
Section name,Organisation sub-class,0.03955055950876647,0
Section name,Continent name,0.051003177816959934,0
Section name,Project Browser country ID,0.037929317715592076,0
Section name,CountryRegion percent,0.03980777525742386,0
Section name,Sector name,0.062095218937039356,0
Section name,Sector percent,0.04743687052542105,0
Section name,Amount spent,0.03848539874430434,0
Trade development (marker),Fiscal year,0.03582642710441073,0
Trade development (marker),FSTC percent,0.03774479121904886,0
Trade development (marker),Section ID,0.03372968596649149,0
Trade development (marker),Participatory development and good governance,0.04626130413721679,0
Trade development (marker),CIDA business delivery model (old),0.04003301401236119,0
Trade development (marker),CountryRegion ID,0.03442235937812553,0
Trade development (marker),Organisation class,0.03593364682169069,0
Trade development (marker),Sector ID,0.03161565166475187,0
Trade development (marker),Enviromental sustainability (marker),0.04525014572214177,0
Trade development (marker),Organisation name,0.038240117484108445,0
Trade development (marker),CountryRegion name,0.037917211591369966,0
Trade development (marker),Continent ID,0.0356185748540896,0
Trade development (marker),Climate change adaptation (marker),0.04595399128557635,0
Trade development (marker),Section name,0.03781281344559737,0
Trade development (marker),Trade development (marker),0.06777320375204837,1
Trade development (marker),Biodiversity (marker),0.048275184101158476,0
Trade development (marker),Urban issues (marker),0.048275184101158476,0
Trade development (marker),Children issues (marker),0.04682675978423523,0
Trade development (marker),Youth issues (marker),0.04456127559622707,0
Trade development (marker),Indigenous issues (marker),0.04595399128557635,0
Trade development (marker),Disability issues (marker),0.044275590326616966,0
Trade development (marker),ICT as a tool for development (marker),0.055499896739657856,0
Trade development (marker),Knowledge for development (marker),0.057590904601028094,0
Trade development (marker),Gender equality (marker),0.05031783377887076,0
Trade development (marker),Organisation ID,0.034675776479942855,0
Trade development (marker),Organisation type,0.03621042330118082,0
Trade development (marker),Organisation sub-class,0.03494186443685105,0
Trade development (marker),Continent name,0.03930570693014545,0
Trade development (marker),Project Browser country ID,0.03745946587529012,0
Trade development (marker),CountryRegion percent,0.03696291574432647,0
Trade development (marker),Sector name,0.03582642710441073,0
Trade development (marker),Sector percent,0.037055763456949754,0
Trade development (marker),Amount spent,0.035448032012051815,0
Project number,Fiscal year,0.03811305845215184,0
Project number,FSTC percent,0.034009662853745966,0
Project number,Section ID,0.038694904117924436,0
Project number,Participatory development and good governance,0.03737668211790094,0
Project number,CIDA business delivery model (old),0.03142183329576709,0
Project number,CountryRegion ID,0.032876447460198556,0
Project number,Organisation class,0.03233096714853676,0
Project number,Sector ID,0.03924184692712036,0
Project number,Enviromental sustainability (marker),0.03977309731760838,0
Project number,Organisation name,0.0410410559960397,0
Project number,CountryRegion name,0.04051317182346377,0
Project number,Continent ID,0.03749047201342361,0
Project number,Climate change adaptation (marker),0.03679113828052386,0
Project number,Section name,0.04764637589904116,0
Project number,Trade development (marker),0.04151863431492614,0
Project number,Biodiversity (marker),0.04151863431492614,0
Project number,Urban issues (marker),0.039025010033043615,0
Project number,Children issues (marker),0.0401405787907279,0
Project number,Youth issues (marker),0.04151863431492614,0
Project number,Indigenous issues (marker),0.03715479182163173,0
Project number,Disability issues (marker),0.03715479182163173,0
Project number,ICT as a tool for development (marker),0.03749047201342361,0
Project number,Knowledge for development (marker),0.0386094059860632,0
Project number,Gender equality (marker),0.0401405787907279,0
Project number,Organisation ID,0.033177402114908515,0
Project number,Organisation type,0.03541029148856305,0
Project number,Organisation sub-class,0.03627054717720532,0
Project number,Continent name,0.04596797494008177,0
Project number,Project Browser country ID,0.04596797494008177,0
Project number,CountryRegion percent,0.03640737850940224,0
Project number,Sector name,0.048586280436058414,0
Project number,Sector percent,0.04264143921410853,0
Project number,Amount spent,0.03736646477166474,0
Status,Fiscal year,0.02928269481866199,0
Status,FSTC percent,0.033636684862866105,0
Status,Section ID,0.03505836870684576,0
Status,Participatory development and good governance,0.02919719668680076,0
Status,CIDA business delivery model (old),0.028512604966904154,0
Status,CountryRegion ID,0.028115892012968303,0
Status,Organisation class,0.03505836870684576,0
Status,Sector ID,0.035700177657200266,0
Status,Enviromental sustainability (marker),0.03237534528135691,0
Status,Organisation name,0.03173805376629567,0
Status,CountryRegion name,0.03142183329576709,0
Status,Continent ID,0.03376069210462497,0
Status,Climate change adaptation (marker),0.030609028081690123,0
Status,Section name,0.038694904117924436,0
Status,Trade development (marker),0.029518067458366524,0
Status,Biodiversity (marker),0.030528216183666152,0
Status,Urban issues (marker),0.03376069210462497,0
Status,Children issues (marker),0.029881720999474393,0
Status,Youth issues (marker),0.03376069210462497,0
Status,Indigenous issues (marker),0.029518067458366524,0
Status,Disability issues (marker),0.03497287057498453,0
Status,ICT as a tool for development (marker),0.02803039388110707,0
Status,Knowledge for development (marker),0.028427106835042917,0
Status,Gender equality (marker),0.029881720999474393,0
Status,Organisation ID,0.03246084341321814,0
Status,Organisation type,0.03173805376629567,0
Status,Organisation sub-class,0.03661688388302233,0
Status,Continent name,0.032876447460198556,0
Status,Project Browser country ID,0.029603565590227754,0
Status,CountryRegion percent,0.03040420894190729,0
Status,Sector name,0.03955055950876647,0
Status,Sector percent,0.03703078457987287,0
Status,Amount spent,0.033636684862866105,0
Maximum CIDA contribution (project-level),Fiscal year,0.030656717401275464,0
Maximum CIDA contribution (project-level),FSTC percent,0.034112016102798355,0
Maximum CIDA contribution (project-level),Section ID,0.0342109782555424,0
Maximum CIDA contribution (project-level),Participatory development and good governance,0.03612642280513238,0
Maximum CIDA contribution (project-level),CIDA business delivery model (old),0.042562174870160716,0
Maximum CIDA contribution (project-level),CountryRegion ID,0.03772366880742025,0
Maximum CIDA contribution (project-level),Organisation class,0.038735799983385055,0
Maximum CIDA contribution (project-level),Sector ID,0.03093040569683765,0
Maximum CIDA contribution (project-level),Enviromental sustainability (marker),0.03868331028232693,0
Maximum CIDA contribution (project-level),Organisation name,0.037486073027386074,0
Maximum CIDA contribution (project-level),CountryRegion name,0.038735799983385055,0
Maximum CIDA contribution (project-level),Continent ID,0.037122121838266686,0
Maximum CIDA contribution (project-level),Climate change adaptation (marker),0.041403627680744216,0
Maximum CIDA contribution (project-level),Section name,0.035470244679800506,0
Maximum CIDA contribution (project-level),Trade development (marker),0.03697465320993796,0
Maximum CIDA contribution (project-level),Biodiversity (marker),0.03802516897625823,0
Maximum CIDA contribution (project-level),Urban issues (marker),0.03661747784938906,0
Maximum CIDA contribution (project-level),Children issues (marker),0.036032744612074175,0
Maximum CIDA contribution (project-level),Youth issues (marker),0.03661747784938906,0
Maximum CIDA contribution (project-level),Indigenous issues (marker),0.03697465320993796,0
Maximum CIDA contribution (project-level),Disability issues (marker),0.03697465320993796,0
Maximum CIDA contribution (project-level),ICT as a tool for development (marker),0.03720550072516985,0
Maximum CIDA contribution (project-level),Knowledge for development (marker),0.03558517102301834,0
Maximum CIDA contribution (project-level),Gender equality (marker),0.036032744612074175,0
Maximum CIDA contribution (project-level),Organisation ID,0.036411234974850507,0
Maximum CIDA contribution (project-level),Organisation type,0.03899084630093587,0
Maximum CIDA contribution (project-level),Organisation sub-class,0.037796581798118574,0
Maximum CIDA contribution (project-level),Continent name,0.0382247799071287,0
Maximum CIDA contribution (project-level),Project Browser country ID,0.03436422996733501,0
Maximum CIDA contribution (project-level),CountryRegion percent,0.0425316026540724,0
Maximum CIDA contribution (project-level),Sector name,0.03233511836023486,0
Maximum CIDA contribution (project-level),Sector percent,0.03692643253072064,0
Maximum CIDA contribution (project-level),Amount spent,0.03740548213547337,0
Branch ID,Fiscal year,0.032876447460198556,0
Branch ID,FSTC percent,0.03225133803959804,0
Branch ID,Section ID,0.04252283612958619,0
Branch ID,Participatory development and good governance,0.030528216183666152,0
Branch ID,CIDA business delivery model (old),0.028208150839465013,0
Branch ID,CountryRegion ID,0.04160413244678737,0
Branch ID,Organisation class,0.037078666157445025,0
Branch ID,Sector ID,0.04345811986750142,0
Branch ID,Enviromental sustainability (marker),0.03182120655204969,0
Branch ID,Organisation name,0.03757597014528484,0
Branch ID,CountryRegion name,0.03384619023648621,0
Branch ID,Continent ID,0.04068742622096529,0
Branch ID,Climate change adaptation (marker),0.03218204107345904,0
Branch ID,Section name,0.03246084341321814,0
Branch ID,Trade development (marker),0.03403776146927858,0
Branch ID,Biodiversity (marker),0.03279094932833732,0
Branch ID,Urban issues (marker),0.035700177657200266,0
Branch ID,Children issues (marker),0.031997523420465614,0
Branch ID,Youth issues (marker),0.029881720999474393,0
Branch ID,Indigenous issues (marker),0.029050512905513554,0
Branch ID,Disability issues (marker),0.029050512905513554,0
Branch ID,ICT as a tool for development (marker),0.02963412709914563,0
Branch ID,Knowledge for development (marker),0.030152346890531406,0
Branch ID,Gender equality (marker),0.031997523420465614,0
Branch ID,Organisation ID,0.04596797494008177,0
Branch ID,Organisation type,0.03757597014528484,0
Branch ID,Organisation sub-class,0.03541029148856305,0
Branch ID,Continent name,0.03173805376629567,0
Branch ID,Project Browser country ID,0.03911050816490485,0
Branch ID,CountryRegion percent,0.032666942086578464,0
Branch ID,Sector name,0.032876447460198556,0
Branch ID,Sector percent,0.031528548392675576,0
Branch ID,Amount spent,0.03225133803959804,0
Branch name,Fiscal year,0.0360501510916854,0
Branch name,FSTC percent,0.035323194039018534,0
Branch name,Section ID,0.03246084341321814,0
Branch name,Participatory development and good governance,0.03497287057498453,0
Branch name,CIDA business delivery model (old),0.031906704683910915,0
Branch name,CountryRegion ID,0.03384619023648621,0
Branch name,Organisation class,0.0391964952091077,0
Branch name,Sector ID,0.03279094932833732,0
Branch name,Enviromental sustainability (marker),0.03706194410900845,0
Branch name,Organisation name,0.04908500529243492,0
Branch name,CountryRegion name,0.045215588303306874,0
Branch name,Continent ID,0.035447201280777406,0
Branch name,Climate change adaptation (marker),0.037639663209775555,0
Branch name,Section name,0.04691663635166751,0
Branch name,Trade development (marker),0.038216267022703344,0
Branch name,Biodiversity (marker),0.03770027213329353,0
Branch name,Urban issues (marker),0.040427673691602536,0
Branch name,Children issues (marker),0.0365313857511611,0
Branch name,Youth issues (marker),0.03497287057498453,0
Branch name,Indigenous issues (marker),0.03349859946238507,0
Branch name,Disability issues (marker),0.03349859946238507,0
Branch name,ICT as a tool for development (marker),0.03296906534847179,0
Branch name,Knowledge for development (marker),0.03376069210462497,0
Branch name,Gender equality (marker),0.0365313857511611,0
Branch name,Organisation ID,0.03757597014528484,0
Branch name,Organisation type,0.03973391423537548,0
Branch name,Organisation sub-class,0.03737252760480491,0
Branch name,Continent name,0.04509520644142288,0
Branch name,Project Browser country ID,0.0335840975942463,0
Branch name,CountryRegion percent,0.03484886333322566,0
Branch name,Sector name,0.04795153970976104,0
Branch name,Sector percent,0.034412479083896226,0
Branch name,Amount spent,0.035323194039018534,0
Division ID,Fiscal year,0.0360501510916854,0
Division ID,FSTC percent,0.027733902746332615,0
Division ID,Section ID,0.04908500529243492,0
Division ID,Participatory development and good governance,0.03185584022263138,0
Division ID,CIDA business delivery model (old),0.0357856757890615,0
Division ID,CountryRegion ID,0.04354361799936266,0
Division ID,Organisation class,0.04220604175620729,0
Division ID,Sector ID,0.04151863431492614,0
Division ID,Enviromental sustainability (marker),0.035204989856542745,0
Division ID,Organisation name,0.042850944587728625,0
Division ID,CountryRegion name,0.036186948662008105,0
Division ID,Continent ID,0.04303649257346332,0
Division ID,Climate change adaptation (marker),0.03376069210462497,0
Division ID,Section name,0.0393273450589816,0
Division ID,Trade development (marker),0.03349859946238507,0
Division ID,Biodiversity (marker),0.03770027213329353,0
Division ID,Urban issues (marker),0.03224546901667553,0
Division ID,Children issues (marker),0.03403776146927858,0
Division ID,Youth issues (marker),0.03224546901667553,0
Division ID,Indigenous issues (marker),0.03349859946238507,0
Division ID,Disability issues (marker),0.03585743324254421,0
Division ID,ICT as a tool for development (marker),0.031187905147127135,0
Division ID,Knowledge for development (marker),0.03182120655204969,0
Division ID,Gender equality (marker),0.029050512905513554,0
Division ID,Organisation ID,0.051003177816959934,0
Division ID,Organisation type,0.042850944587728625,0
Division ID,Organisation sub-class,0.04001728063104395,0
Division ID,Continent name,0.03462198445751632,0
Division ID,Project Browser country ID,0.03830176515456458,0
Division ID,CountryRegion percent,0.03484886333322566,0
Division ID,Sector name,0.03208302155232685,0
Division ID,Sector percent,0.030921405089260695,0
Division ID,Amount spent,0.035323194039018534,0
Division name,Fiscal year,0.038694904117924436,0
Division name,FSTC percent,0.030921405089260695,0
Division name,Section ID,0.0393273450589816,0
Division name,Participatory development and good governance,0.03610145053014687,0
Division name,CIDA business delivery model (old),0.037147442240869674,0
Division name,CountryRegion ID,0.036186948662008105,0
Division name,Organisation class,0.04385643824977803,0
Division name,Sector ID,0.031997523420465614,0
Division name,Enviromental sustainability (marker),0.040093706153850404,0
Division name,Organisation name,0.05324104576223912,0
Division name,CountryRegion name,0.046671820503516356,0
Division name,Continent ID,0.03802756032029061,0
Division name,Climate change adaptation (marker),0.03706194410900845,0
Division name,Section name,0.052077354430693945,0
Division name,Trade development (marker),0.03749047201342361,0
Division name,Biodiversity (marker),0.04203202754943136,0
Division name,Urban issues (marker),0.03689809520437912,0
Division name,Children issues (marker),0.038216267022703344,0
Division name,Youth issues (marker),0.03689809520437912,0
Division name,Indigenous issues (marker),0.03749047201342361,0
Division name,Disability issues (marker),0.03972833995870279,0
Division name,ICT as a tool for development (marker),0.034331129031852994,0
Division name,Knowledge for development (marker),0.035204989856542745,0
Division name,Gender equality (marker),0.03585743324254421,0
Division name,Organisation ID,0.042850944587728625,0
Division name,Organisation type,0.04451336077565031,0
Division name,Organisation sub-class,0.04160413244678737,0
Division name,Continent name,0.04677609392032149,0
Division name,Project Browser country ID,0.03310023425472648,0
Division name,CountryRegion percent,0.03677408796262025,0
Division name,Sector name,0.04596797494008177,0
Division name,Sector percent,0.033636684862866105,0
Division name,Amount spent,0.03790355307853175,0
Regional program (marker),Fiscal year,0.03857839984792972,0
Regional program (marker),FSTC percent,0.033399571097703085,0
Regional program (marker),Section ID,0.03650037961302762,0
Regional program (marker),Participatory development and good governance,0.03660290022851691,0
Regional program (marker),CIDA business delivery model (old),0.03586640733797274,0
Regional program (marker),CountryRegion ID,0.03893318379047398,0
Regional program (marker),Organisation class,0.03621042330118082,0
Regional program (marker),Sector ID,0.034402643509208804,0
Regional program (marker),Enviromental sustainability (marker),0.0470270673085176,0
Regional program (marker),Organisation name,0.040656420082831816,0
Regional program (marker),CountryRegion name,0.044329200032891335,0
Regional program (marker),Continent ID,0.031211280159581734,0
Regional program (marker),Climate change adaptation (marker),0.04484453980423032,0
Regional program (marker),Section name,0.04290292844488814,0
Regional program (marker),Trade development (marker),0.04638181898099737,0
Regional program (marker),Biodiversity (marker),0.04690265269716208,0
Regional program (marker),Urban issues (marker),0.045005329873990606,0
Regional program (marker),Children issues (marker),0.04550870123524018,0
Regional program (marker),Youth issues (marker),0.045005329873990606,0
Regional program (marker),Indigenous issues (marker),0.04467050819931329,0
Regional program (marker),Disability issues (marker),0.04638181898099737,0
Regional program (marker),ICT as a tool for development (marker),0.0449149811681253,0
Regional program (marker),Knowledge for development (marker),0.04632380844602504,0
Regional program (marker),Gender equality (marker),0.04728986143658484,0
Regional program (marker),Organisation ID,0.03494186443685105,0
Regional program (marker),Organisation type,0.03857839984792972,0
Regional program (marker),Organisation sub-class,0.03517398371840926,0
Regional program (marker),Continent name,0.03745946587529012,0
Regional program (marker),Project Browser country ID,0.0360114336754036,0
Regional program (marker),CountryRegion percent,0.04293746420878134,0
Regional program (marker),Sector name,0.03857839984792972,0
Regional program (marker),Sector percent,0.037391443648741626,0
Regional program (marker),Amount spent,0.03575840487786222,0
Fund centre ID,Fiscal year,0.03799655418215713,0
Fund centre ID,FSTC percent,0.04410504748457917,0
Fund centre ID,Section ID,0.042214935259008386,0
Fund centre ID,Participatory development and good governance,0.03301039066987261,0
Fund centre ID,CIDA business delivery model (old),0.03676013214239038,0
Fund centre ID,CountryRegion ID,0.04730608483451853,0
Fund centre ID,Organisation class,0.032214462878542044,0
Fund centre ID,Sector ID,0.04690265269716208,0
Fund centre ID,Enviromental sustainability (marker),0.034608000803010894,0
Fund centre ID,Organisation name,0.03529378721856834,0
Fund centre ID,CountryRegion name,0.04039666755346905,0
Fund centre ID,Continent ID,0.04763239224453573,0
Fund centre ID,Climate change adaptation (marker),0.03504438505234034,0
Fund centre ID,Section name,0.03745946587529012,0
Fund centre ID,Trade development (marker),0.03940822754563474,0
Fund centre ID,Biodiversity (marker),0.03660290022851691,0
Fund centre ID,Urban issues (marker),0.03660290022851691,0
Fund centre ID,Children issues (marker),0.0356185748540896,0
Fund centre ID,Youth issues (marker),0.03660290022851691,0
Fund centre ID,Indigenous issues (marker),0.03722630629898754,0
Fund centre ID,Disability issues (marker),0.03286246380569313,0
Fund centre ID,ICT as a tool for development (marker),0.03420518457286064,0
Fund centre ID,Knowledge for development (marker),0.038680920463419005,0
Fund centre ID,Gender equality (marker),0.04021209326808371,0
Fund centre ID,Organisation ID,0.039079990939112984,0
Fund centre ID,Organisation type,0.03529378721856834,0
Fund centre ID,Organisation sub-class,0.03130532902577238,0
Fund centre ID,Continent name,0.03961740996538077,0
Fund centre ID,Project Browser country ID,0.041487628176792656,0
Fund centre ID,CountryRegion percent,0.04141960595024415,0
Fund centre ID,Sector name,0.03799655418215713,0
Fund centre ID,Sector percent,0.039549387738832265,0
Fund centre ID,Amount spent,0.04410504748457917,0
Fund centre name,Fiscal year,0.037078666157445025,0
Fund centre name,FSTC percent,0.04264143921410853,0
Fund centre name,Section ID,0.034219168227366065,0
Fund centre name,Participatory development and good governance,0.03550940858645515,0
Fund centre name,CIDA business delivery model (old),0.03811305845215184,0
Fund centre name,CountryRegion ID,0.04051317182346377,0
Fund centre name,Organisation class,0.034416627163714235,0
Fund centre name,Sector ID,0.03802756032029061,0
Fund centre name,Enviromental sustainability (marker),0.039168872972383,0
Fund centre name,Organisation name,0.04266203365728298,0
Fund centre name,CountryRegion name,0.04981842419887096,0
Fund centre name,Continent ID,0.039648416103514245,0
Fund centre name,Climate change adaptation (marker),0.03802756032029061,0
Fund centre name,Section name,0.04596797494008177,0
Fund centre name,Trade development (marker),0.04068742622096529,0
Fund centre name,Biodiversity (marker),0.038216267022703344,0
Fund centre name,Urban issues (marker),0.038216267022703344,0
Fund centre name,Children issues (marker),0.03933671306827893,0
Fund centre name,Youth issues (marker),0.038216267022703344,0
Fund centre name,Indigenous issues (marker),0.04068742622096529,0
Fund centre name,Disability issues (marker),0.03445336551625901,0
Fund centre name,ICT as a tool for development (marker),0.03537693006510439,0
Fund centre name,Knowledge for development (marker),0.03977309731760838,0
Fund centre name,Gender equality (marker),0.04151863431492614,0
Fund centre name,Organisation ID,0.03259490923482473,0
Fund centre name,Organisation type,0.03472777457856588,0
Fund centre name,Organisation sub-class,0.03333579930159797,0
Fund centre name,Continent name,0.050331817433376176,0
Fund centre name,Project Browser country ID,0.03661688388302233,0
Fund centre name,CountryRegion percent,0.04045109356110362,0
Fund centre name,Sector name,0.05000856984128029,0
Fund centre name,Sector percent,0.03848539874430434,0
Fund centre name,Amount spent,0.04264143921410853,0
Untied amount(Project-level budget),Fiscal year,0.033429727681295325,0
Untied amount(Project-level budget),FSTC percent,0.03351638926710181,0
Untied amount(Project-level budget),Section ID,0.03364054132831438,0
Untied amount(Project-level budget),Participatory development and good governance,0.038130745810773414,0
Untied amount(Project-level budget),CIDA business delivery model (old),0.03785681426869544,0
Untied amount(Project-level budget),CountryRegion ID,0.03592228903722648,0
Untied amount(Project-level budget),Organisation class,0.035470244679800506,0
Untied amount(Project-level budget),Sector ID,0.0318825167862837,0
Untied amount(Project-level budget),Enviromental sustainability (marker),0.037470023179746445,0
Untied amount(Project-level budget),Organisation name,0.035691920278153634,0
Untied amount(Project-level budget),CountryRegion name,0.03711697769613802,0
Untied amount(Project-level budget),Continent ID,0.036946937474826524,0
Untied amount(Project-level budget),Climate change adaptation (marker),0.0365970765287098,0
Untied amount(Project-level budget),Section name,0.03508483908023215,0
Untied amount(Project-level budget),Trade development (marker),0.03682516998286157,0
Untied amount(Project-level budget),Biodiversity (marker),0.03485786394080261,0
Untied amount(Project-level budget),Urban issues (marker),0.03797489429315575,0
Untied amount(Project-level budget),Children issues (marker),0.03578240684192431,0
Untied amount(Project-level budget),Youth issues (marker),0.03641637911697918,0
Untied amount(Project-level budget),Indigenous issues (marker),0.03682516998286157,0
Untied amount(Project-level budget),Disability issues (marker),0.03539440195227323,0
Untied amount(Project-level budget),ICT as a tool for development (marker),0.0382951371375756,0
Untied amount(Project-level budget),Knowledge for development (marker),0.04039172217505276,0
Untied amount(Project-level budget),Gender equality (marker),0.03726167548371902,0
Untied amount(Project-level budget),Organisation ID,0.03441633554934449,0
Untied amount(Project-level budget),Organisation type,0.035691920278153634,0
Untied amount(Project-level budget),Organisation sub-class,0.03466132319809085,0
Untied amount(Project-level budget),Continent name,0.03819239517619516,0
Untied amount(Project-level budget),Project Browser country ID,0.039681561901909544,0
Untied amount(Project-level budget),CountryRegion percent,0.039816769766539015,0
Untied amount(Project-level budget),Sector name,0.033429727681295325,0
Untied amount(Project-level budget),Sector percent,0.03669973941418587,0
Untied amount(Project-level budget),Amount spent,0.03908725202449892,0
IRTC percent,Fiscal year,0.03532705050446681,0
IRTC percent,FSTC percent,0.06059697211555999,0
IRTC percent,Section ID,0.035844502183513566,0
IRTC percent,Participatory development and good governance,0.03313529453555482,0
IRTC percent,CIDA business delivery model (old),0.033429727681295325,0
IRTC percent,CountryRegion ID,0.036411234974850507,0
IRTC percent,Organisation class,0.032670798552026724,0
IRTC percent,Sector ID,0.03641637911697918,0
IRTC percent,Enviromental sustainability (marker),0.031221328529723938,0
IRTC percent,Organisation name,0.03297175320673669,0
IRTC percent,CountryRegion name,0.03558002688088967,0
IRTC percent,Continent ID,0.03849439935188128,0
IRTC percent,Climate change adaptation (marker),0.033434871823424,0
IRTC percent,Section name,0.03485271979867394,0
IRTC percent,Trade development (marker),0.03772881294954893,0
IRTC percent,Biodiversity (marker),0.0318825167862837,0
IRTC percent,Urban issues (marker),0.03452726981252273,0
IRTC percent,Children issues (marker),0.03607004241116216,0
IRTC percent,Youth issues (marker),0.03452726981252273,0
IRTC percent,Indigenous issues (marker),0.03543205374255188,0
IRTC percent,Disability issues (marker),0.03313529453555482,0
IRTC percent,ICT as a tool for development (marker),0.03616701668879093,0
IRTC percent,Knowledge for development (marker),0.033434871823424,0
IRTC percent,Gender equality (marker),0.03364568547044305,0
IRTC percent,Organisation ID,0.03364054132831438,0
IRTC percent,Organisation type,0.03297175320673669,0
IRTC percent,Organisation sub-class,0.03164401208301629,0
IRTC percent,Continent name,0.037370321237113015,0
IRTC percent,Project Browser country ID,0.03772366880742025,0
IRTC percent,CountryRegion percent,0.04803439524092458,0
IRTC percent,Sector name,0.03532705050446681,0
IRTC percent,Sector percent,0.05108603334812347,0
IRTC percent,Amount spent,0.04241429506016664,0
CFLI (marker),Fiscal year,0.03857839984792972,0
CFLI (marker),FSTC percent,0.03792853195560863,0
CFLI (marker),Section ID,0.027826903849958,0
CFLI (marker),Participatory development and good governance,0.031658645186853296,0
CFLI (marker),CIDA business delivery model (old),0.03517398371840926,0
CFLI (marker),CountryRegion ID,0.033060897844913804,0
CFLI (marker),Organisation class,0.02966302271109169,0
CFLI (marker),Sector ID,0.032069037897821416,0
CFLI (marker),Enviromental sustainability (marker),0.040165220631206214,0
CFLI (marker),Organisation name,0.032759943190203845,0
CFLI (marker),CountryRegion name,0.03529378721856834,0
CFLI (marker),Continent ID,0.031116926808375373,0
CFLI (marker),Climate change adaptation (marker),0.04270432134376136,0
CFLI (marker),Section name,0.03450548018752161,0
CFLI (marker),Trade development (marker),0.044275590326616966,0
CFLI (marker),Biodiversity (marker),0.04723747437183941,0
CFLI (marker),Urban issues (marker),0.04723747437183941,0
CFLI (marker),Children issues (marker),0.0477231166206957,0
CFLI (marker),Youth issues (marker),0.04723747437183941,0
CFLI (marker),Indigenous issues (marker),0.046513458271896145,0
CFLI (marker),Disability issues (marker),0.044275590326616966,0
CFLI (marker),ICT as a tool for development (marker),0.041247886635945134,0
CFLI (marker),Knowledge for development (marker),0.04084736709129566,0
CFLI (marker),Gender equality (marker),0.04536428284053656,0
CFLI (marker),Organisation ID,0.027149288555968182,0
CFLI (marker),Organisation type,0.029850714861340905,0
CFLI (marker),Organisation sub-class,0.029019506767380077,0
CFLI (marker),Continent name,0.03696216188745031,0
CFLI (marker),Project Browser country ID,0.032983729984731765,0
CFLI (marker),CountryRegion percent,0.03423210066717102,0
CFLI (marker),Sector name,0.03494186443685105,0
CFLI (marker),Sector percent,0.03366166373994299,0
CFLI (marker),Amount spent,0.030946383966337584,0
Programming process (new),Fiscal year,0.03384619023648621,0
Programming process (new),FSTC percent,0.038092259780944486,0
Programming process (new),Section ID,0.0316296353192573,0
Programming process (new),Participatory development and good governance,0.039025010033043615,0
Programming process (new),CIDA business delivery model (old),0.03746218024976217,0
Programming process (new),CountryRegion ID,0.034792280749937565,0
Programming process (new),Organisation class,0.04241601011995842,0
Programming process (new),Sector ID,0.03176416285932688,0
